{
  "status": 0,
  "message": "ok",
  "type": 1,
  "info": {
    "copyright": {
      "text": "@2016 Baidu - Data",
      "imageUrl": "http://api.map.baidu.com/images/copyright_logo.png"
    }
  },
  "result": {
    "originInfo": {
      "area_id": 257,
      "wd": "广东省广州市海珠区翠榕南街8号",
      "uid": ""
    },
    "destinationInfo": {
      "area_id": 257,
      "wd": "广州市红十字会医院",
      "uid": ""
    },
    "origin": {
      "cityName": "广州市",
      "listType": 0,
      "content": [
        {
          "name": "陈静乒乓球俱乐部",
          "address": "广东省广州市海珠区翠榕南街8号",
          "uid": "0bee8920274085979e9d6866",
          "telephone": "13650763980",
          "location": {
            "lng": 113.26488548204,
            "lat": 23.093579104972
          }
        }
      ]
    },
    "destination": {
      "cityName": "广州市",
      "listType": 0,
      "content": [
        {
          "name": "广州市红十字会医院",
          "address": "同福中路396号",
          "uid": "108b1cea6b5c0eb53586f4c7",
          "telephone": "(020)84412233",
          "location": {
            "lng": 113.26801401064,
            "lat": 23.111665193105
          }
        },
        {
          "name": "广州市红十字会医院昌岗分院",
          "address": "广州市海珠区沙园昌岗中路73号",
          "uid": "c879fa0193c25753c909f0c7",
          "telephone": "(020)84326327",
          "location": {
            "lng": 113.27252009074,
            "lat": 23.091366987452
          }
        },
        {
          "name": "广州市红十字会医院6",
          "address": "牛奶厂街7号附近",
          "uid": "8e9d65ce1c19a9754c6d46d6",
          "location": {
            "lng": 113.26896675346,
            "lat": 23.111163035853
          }
        },
        {
          "name": "广州市红十字会医院8",
          "address": "牛奶厂街7号附近",
          "uid": "b6213c855d6b0306223bf280",
          "location": {
            "lng": 113.2688257195,
            "lat": 23.110625144636
          }
        },
        {
          "name": "广州市红十字会医院6(西南门)",
          "address": "牛奶厂街7号附近",
          "uid": "bd9a3912efc1cbbd4afd3f69",
          "location": {
            "lng": 113.26894079243,
            "lat": 23.111158631685
          }
        },
        {
          "name": "广州市红十字会医院8(东北门)",
          "address": "牛奶厂街7号附近",
          "uid": "054e484e6c93cba0b45f1e03",
          "location": {
            "lng": 113.26884458391,
            "lat": 23.110638274094
          }
        },
        {
          "name": "广州市红十字会医院-宿舍",
          "address": "牛奶厂街1",
          "uid": "89747676d33915bac16c14d9",
          "location": {
            "lng": 113.26963140971,
            "lat": 23.110636362843
          }
        },
        {
          "name": "广州市红十字会医院-4号楼",
          "address": "广州市海珠区同福中路",
          "uid": "b7002048db0487522afc485c",
          "location": {
            "lng": 113.26819160564,
            "lat": 23.111588826768
          }
        },
        {
          "name": "广州市红十字会医院-急诊",
          "address": "同福中路396",
          "uid": "3c0ea7c5b7c1bce1faf0cbbe",
          "telephone": "(020)84412233",
          "location": {
            "lng": 113.2677160427,
            "lat": 23.111538802223
          }
        },
        {
          "name": "广州市红十字会医院-北门",
          "address": "广州市海珠区同福中路",
          "uid": "6344d82101fd082c82a12e77",
          "location": {
            "lng": 113.26800601572,
            "lat": 23.111715051408
          }
        },
        {
          "name": "广州市红十字会医院-西门",
          "address": "同福中路396号",
          "uid": "740b794d800a92080289729b",
          "telephone": "(020)84412233",
          "location": {
            "lng": 113.26775754442,
            "lat": 23.109939751896
          }
        },
        {
          "name": "广州市红十字会医院宿舍-东门",
          "address": "牛奶厂街1",
          "uid": "393fc880ee9f36ec40024567",
          "location": {
            "lng": 113.26987476067,
            "lat": 23.110536645409
          }
        },
        {
          "name": "广州市红十字会医院1(南门)",
          "address": "同福中路162号附近",
          "uid": "5f0b400ae826a537ddee8b46",
          "location": {
            "lng": 113.26827865144,
            "lat": 23.111274137166
          }
        },
        {
          "name": "广州市红十字会医院昌岗分院-急诊",
          "address": "沙园南五街6号",
          "uid": "341c35deeda191c0e6073817",
          "location": {
            "lng": 113.27243232629,
            "lat": 23.091425912351
          }
        },
        {
          "name": "广州市红十字会医院办公楼(西南门)",
          "address": "牛奶厂街7号附近",
          "uid": "d4ca19981d727ad5631809a2",
          "location": {
            "lng": 113.26905505689,
            "lat": 23.110627388277
          }
        },
        {
          "name": "广州市红十字会医院地下停车场-出入口",
          "address": "广州市海珠区",
          "uid": "6fb85075e8900b784c55475a",
          "location": {
            "lng": 113.26785249531,
            "lat": 23.11165380879
          }
        },
        {
          "name": "广州市红十字会医院昌岗分院(东南门)",
          "address": "广东省广州市海珠区昌岗中路83号",
          "uid": "88c1dd51b0424d3db5147f28",
          "location": {
            "lng": 113.27260192637,
            "lat": 23.091426909669
          }
        },
        {
          "name": "广州市红十字会医院停车场(出入口)",
          "address": "广东省广州市海珠区同福中路396号广州市红十字会医院内",
          "uid": "ca76b1029222f2ac882fb5e8",
          "location": {
            "lng": 113.26916141627,
            "lat": 23.111918639284
          }
        },
        {
          "name": "广州市红十字会医院-临床病态营养研究所",
          "address": "同福中路396",
          "uid": "c3f622328ea6510afb2d6182",
          "location": {
            "lng": 113.2680959361,
            "lat": 23.111505397118
          }
        },
        {
          "name": "广州市海珠区红十字会医院",
          "address": "广州市海珠区工业大道中316号",
          "uid": "0dffee8f325bf16a03ff2ddb",
          "telephone": "(020)82306087",
          "location": {
            "lng": 113.27623799758,
            "lat": 23.082869976203
          }
        },
        {
          "name": "广州市荔湾区红十字会医院",
          "address": "广东省广州市荔湾区杉木栏路30号",
          "uid": "ad822ab6f101517e6140a959",
          "location": {
            "lng": 113.25589164728,
            "lat": 23.116777150513
          }
        },
        {
          "name": "广州市荔湾区红十字会医院",
          "address": "广州市荔湾区",
          "uid": "dc52cc3174a59425b1077dee",
          "location": {
            "lng": 113.22848245974,
            "lat": 23.084245608827
          }
        },
        {
          "name": "广州市黄埔区红十字会医院-住院部",
          "address": "黄埔东路3762号大院",
          "uid": "ac29dea4993b412cc8291557",
          "telephone": "(020)82231200",
          "location": {
            "lng": 113.54999139148,
            "lat": 23.102644188352
          }
        },
        {
          "name": "广州志愿者学院应急救护培训基地",
          "address": "广东省广州市海珠区同福中路396号广州市红十字会医院内",
          "uid": "b4e8aa61c349fa0957bfff2b",
          "location": {
            "lng": 113.26808812084,
            "lat": 23.111335379959
          }
        },
        {
          "name": "Belle-nail美甲(带专业中医推拿)",
          "address": "同福中路437号的路口进来共和里7号(靠近广州市红十字会医院、7天酒店、中国工商银行)",
          "uid": "978d549834c83e7b704b8710",
          "telephone": "18566320059",
          "location": {
            "lng": 113.27099521713,
            "lat": 23.113113153693
          }
        },
        {
          "name": "益群家电",
          "address": "同福中路436号地下(广州市红十字会医院)",
          "uid": "bf9def011e6087b37bf796ed",
          "telephone": "(020)34387957",
          "location": {
            "lng": 113.26970246568,
            "lat": 23.112368941317
          }
        },
        {
          "name": "红十字会医院大涵村卫生站",
          "address": "广州市萝岗区",
          "uid": "1cea15a9db8c18c507fef504",
          "location": {
            "lng": 113.5583194022,
            "lat": 23.299710585981
          }
        },
        {
          "name": "红十字会医院迳头村卫生站",
          "address": "广州市萝岗区",
          "uid": "a12baa40f617cc56e856fa04",
          "location": {
            "lng": 113.58160770305,
            "lat": 23.275648539156
          }
        },
        {
          "name": "白云区红十字会医院-急诊",
          "address": "广东省广州市白云区竹料大街109",
          "uid": "08fc93df45e074ec9a68b4b9",
          "telephone": "(020)87444443",
          "location": {
            "lng": 113.35818852279,
            "lat": 23.37092635594
          }
        },
        {
          "name": "日日休闲中心(广东省红十字会广州红康医院东南)",
          "address": "广从公路(广东省红十字会广州红康医院东南)",
          "uid": "e476462e03cd4f8bf8f0cb60",
          "location": {
            "lng": 113.32257232628,
            "lat": 23.253419825963
          }
        },
        {
          "name": "海珠区红十字会医院-口腔科",
          "address": "广东省广州市海珠区工业大道北77号",
          "uid": "818cd0bc6131e033c7f02581",
          "location": {
            "lng": 113.26421992749,
            "lat": 23.098846417645
          }
        },
        {
          "name": "广州九木文化传播有限公司",
          "address": "海珠区工业大道中313号东方红创意园东区11栋九木工作室(珠江医院纸厂海珠区红十字会医院)",
          "uid": "f4b982e175fb3f4bb13c8128",
          "telephone": "020-81044157",
          "location": {
            "lng": 113.27639636884,
            "lat": 23.083522428954
          }
        },
        {
          "name": "海珠区红十字会医院住院部(北门)",
          "address": "广东省广州市海珠区工业大道中316号",
          "uid": "9d2f336f7d90cedf841541d0",
          "location": {
            "lng": 113.27634866882,
            "lat": 23.082927076336
          }
        },
        {
          "name": "正宗桂林米粉",
          "address": "广州荔湾区芳村大道西265号(近芳村红十字会医院)",
          "uid": "78e6cd078f565bdb28b97c72",
          "telephone": "13054466858",
          "location": {
            "lng": 113.25247494227,
            "lat": 23.091649062119
          }
        },
        {
          "name": "西点台北金禧店",
          "address": "广州海珠区福场路5号富力金禧商务中心1楼(近红十字会医院)",
          "uid": "af7b084627cac87f6e20b9ed",
          "telephone": "(020)34003395",
          "location": {
            "lng": 113.26717696957,
            "lat": 23.112290581062
          }
        },
        {
          "name": "广东省红十字会广州红康医院",
          "address": "广东省广州市白云大道北387号中国红十字会广州备灾救灾中心",
          "uid": "08f1f1f53d3ccad388db73c2",
          "telephone": "(020)36200352",
          "location": {
            "lng": 113.32193300225,
            "lat": 23.253931985469
          }
        },
        {
          "name": "广州市怡大广告设计有限公司",
          "address": "福场路5号富力金禧商务中心5楼（近红十字会医院）",
          "uid": "ffccdde49c2705348f1a8985",
          "telephone": "4000520439",
          "location": {
            "lng": 113.26734755778,
            "lat": 23.112107186308
          }
        },
        {
          "name": "广州市达恩贸易有限公司",
          "address": "九龙镇镇龙大道417号红十字会医院",
          "uid": "61e0a298f31099c98c1a89ca",
          "telephone": "13802942813",
          "location": {
            "lng": 113.57785880467,
            "lat": 23.283819643803
          }
        },
        {
          "name": "广州市萝岗区真辉便利店",
          "address": "九龙镇镇龙健生路2号(萝岗区红十字会医院停车场)",
          "uid": "32d2b09e6d026eb8d7851f65",
          "telephone": "13727694814",
          "location": {
            "lng": 113.57765991983,
            "lat": 23.283326107106
          }
        },
        {
          "name": "ACE发型工作室",
          "address": "广州市天河区东圃大马路75号(红十字会医院直入100米)",
          "uid": "79afa40e930d509fb6147f0c",
          "telephone": "13119516334",
          "location": {
            "lng": 113.40677670001,
            "lat": 23.121427340884
          }
        },
        {
          "name": "白云区人民医院-红十字会",
          "address": "广州市天河区广州大道中1305号",
          "uid": "8c075c017ed2adf8b05c6a1c",
          "location": {
            "lng": 113.31983914193,
            "lat": 23.154633687913
          }
        }
      ]
    }
  }
}