{
  "status": 0,
  "message": "ok",
  "type": 1,
  "info": {
    "copyright": {
      "text": "@2016 Baidu - Data",
      "imageUrl": "http://api.map.baidu.com/images/copyright_logo.png"
    }
  },
  "result": {
    "originInfo": {
      "area_id": 257,
      "wd": "翠雅阁",
      "uid": ""
    },
    "destinationInfo": {
      "area_id": 257,
      "wd": "中山大学-南门",
      "uid": ""
    },
    "origin": {
      "cityName": "广州市",
      "listType": 0,
      "content": [
        {
          "name": "翠雅阁",
          "address": "江南大道中97之1号",
          "uid": "e2c734e48566c55d15a19077",
          "location": {
            "lng": 113.27824265616,
            "lat": 23.11051919485
          }
        },
        {
          "name": "翠雅阁",
          "address": "广州市越秀区东兴南路89号",
          "uid": "e798d79b0dfc7efe28d7ab56",
          "location": {
            "lng": 113.31927204167,
            "lat": 23.128197013421
          }
        },
        {
          "name": "翠雅阁-西座",
          "address": "东兴南路89号",
          "uid": "5f8e081db80045f7a8f72958",
          "location": {
            "lng": 113.31933429424,
            "lat": 23.128222853424
          }
        },
        {
          "name": "益丰翠雅阁-停车场",
          "address": "江南大道中99-5",
          "uid": "4642844ae1a644a4c9fa5f37",
          "location": {
            "lng": 113.27799984418,
            "lat": 23.110689296151
          }
        },
        {
          "name": "益丰翠雅阁停车场-出入口",
          "address": "广州市海珠区",
          "uid": "c794abd6580257811ef74d7f",
          "location": {
            "lng": 113.27799086112,
            "lat": 23.110686221533
          }
        }
      ]
    },
    "destination": {
      "cityName": "广州市",
      "listType": 0,
      "content": [
        {
          "name": "中山大学-南门",
          "address": "广州市海珠区新港西路135号",
          "uid": "cbe9dbf5d397a531260bd0e4",
          "location": {
            "lng": 113.30349582064,
            "lat": 23.097316525016
          }
        },
        {
          "name": "中山大学(东校区)-南门",
          "address": "广州市番禺区外环东路132号",
          "uid": "a2018908120de502f50e7711",
          "telephone": "020-84111798",
          "location": {
            "lng": 113.39864523854,
            "lat": 23.070737927452
          }
        },
        {
          "name": "中山大学(北校区)-南门",
          "address": "广州市越秀区中山二路74号",
          "uid": "3871f417bd100eafe856facf",
          "telephone": "020-87331800",
          "location": {
            "lng": 113.29523078114,
            "lat": 23.132052435728
          }
        },
        {
          "name": "国立中山大学(东校区)-正门",
          "address": "广州市番禺区大学城外环东路",
          "uid": "650a9dc61b6922105bf6be5d",
          "location": {
            "lng": 113.39800303993,
            "lat": 23.077504365912
          }
        },
        {
          "name": "中山大学新华学院-南门",
          "address": "广汕一路721号",
          "uid": "33bae31516ecbd9d71455bbc",
          "location": {
            "lng": 113.39479231637,
            "lat": 23.199513510246
          }
        },
        {
          "name": "中山大学附属小学-南门",
          "address": "广州市海珠区新港西路135号中山大学南校区中山大学附属小学内",
          "uid": "b2f2ffdf356cd951fb221301",
          "location": {
            "lng": 113.2965226343,
            "lat": 23.10079272741
          }
        },
        {
          "name": "中山大学附属肿瘤医院-南门",
          "address": "广州市越秀区东风东路",
          "uid": "8c2694bc0a83ed41220220a7",
          "location": {
            "lng": 113.29702900911,
            "lat": 23.137289974008
          }
        },
        {
          "name": "中山大学(东校区)体育馆南门",
          "address": "广州市番禺区",
          "uid": "8fe5f3f3e30d994021f0173a",
          "location": {
            "lng": 113.39808604336,
            "lat": 23.070635852628
          }
        },
        {
          "name": "中山大学南校区-南门出入口",
          "address": "广州市海珠区新港西路",
          "uid": "7299a6a67ef687b93110af06",
          "location": {
            "lng": 113.30343311892,
            "lat": 23.09733613807
          }
        },
        {
          "name": "中山大学附属小学-正门",
          "address": "广州市海珠区新港西路135号中山大学南校区中山大学附属小学内",
          "uid": "87fc90a19cd1b4e35a10934d",
          "location": {
            "lng": 113.29737602453,
            "lat": 23.10107278757
          }
        },
        {
          "name": "中山大学南方学院(南门)",
          "address": "广东省广州市从化市博学路",
          "uid": "cd5242334f7e3574c61e51fa",
          "location": {
            "lng": 113.68473200776,
            "lat": 23.634330986013
          }
        },
        {
          "name": "中山大学附属第一医院南门",
          "address": "广东省广州市越秀区中山二路58号",
          "uid": "c484e7a25b38af633586f400",
          "location": {
            "lng": 113.29644088849,
            "lat": 23.131910278212
          }
        },
        {
          "name": "中山大学附属肿瘤医院-正门",
          "address": "广州市越秀区东风东路651号",
          "uid": "e5fff4523fae549eede4a593",
          "location": {
            "lng": 113.29680506155,
            "lat": 23.13743087954
          }
        },
        {
          "name": "中山大学附属第一医院(东山院区)-南门",
          "address": "中山二路与东华北路交叉口附近",
          "uid": "4eb2f0b30485af889122e04e",
          "telephone": "(020)62732213",
          "location": {
            "lng": 113.29961792559,
            "lat": 23.129996163517
          }
        },
        {
          "name": "中山大学科技综合楼(南门)",
          "address": "广东省广州市海珠区新港西路98附近",
          "uid": "83636a4c5fa14d1c276e98ce",
          "location": {
            "lng": 113.29843108435,
            "lat": 23.099086674591
          }
        },
        {
          "name": "中山大学研究生公寓(南门)",
          "address": "广东省广州市海珠区中大东北区364号",
          "uid": "f09dd3337a7d8f03b2077d75",
          "location": {
            "lng": 113.30971496935,
            "lat": 23.107127510544
          }
        },
        {
          "name": "中山大学新华学院(生活园南门)",
          "address": "华美路10",
          "uid": "f42ad087909783ac3b221cbd",
          "location": {
            "lng": 113.39384999389,
            "lat": 23.204036320334
          }
        },
        {
          "name": "中山大学数学与计算科学学院(南门)",
          "address": "广东省广州市海珠区新港西路135号中山大学东北区336号楼",
          "uid": "f0af1e5bc69f5d1a1894c6ec",
          "location": {
            "lng": 113.305685081,
            "lat": 23.104112274898
          }
        },
        {
          "name": "中山大学附属第一医院东山院区-正门",
          "address": "广州市越秀区中山二路1号",
          "uid": "748710cbb91e10f2c03644be",
          "location": {
            "lng": 113.29987645792,
            "lat": 23.130356173395
          }
        },
        {
          "name": "中山大学东校区环境科学与工程学院(南门)",
          "address": "北望路附近",
          "uid": "fdbe3f7bff797081246e98e0",
          "location": {
            "lng": 113.3930684681,
            "lat": 23.072997767508
          }
        },
        {
          "name": "中山大学附属第三医院8号楼泌尿外科-正门",
          "address": "广州市天河区天河路600号中山大学附属第三医院",
          "uid": "3920da737386c8fc1e1d118b",
          "location": {
            "lng": 113.34745197534,
            "lat": 23.139100382685
          }
        },
        {
          "name": "中山大学附属第三医院9号楼行政后勤楼-正门",
          "address": "广州市天河区天河路600号中山大学附属第三医院",
          "uid": "ee94a446a2d7cd5d7069d3f9",
          "location": {
            "lng": 113.3475059635,
            "lat": 23.138734414773
          }
        },
        {
          "name": "中山大学附属肿瘤医院预防医学部-正门",
          "address": "广州市越秀区青菜岗21号",
          "uid": "fc84240299516ecec51b75e1",
          "location": {
            "lng": 113.29252867817,
            "lat": 23.138949592396
          }
        },
        {
          "name": "中山大学国际汉语学院(南门)",
          "address": "广东省广州市海珠区中大东南区261号",
          "uid": "2b21ac20e8a09d1009ccdd71",
          "location": {
            "lng": 113.30528838929,
            "lat": 23.099519152619
          }
        },
        {
          "name": "中山大学附属第三医院7号楼住院部-正门",
          "address": "广州市天河区天河路600号中山大学附属第三医院",
          "uid": "154a67acf1ab50b794031921",
          "location": {
            "lng": 113.3473801109,
            "lat": 23.139448321275
          }
        },
        {
          "name": "中山大学附属第三医院1号楼门诊部-正门",
          "address": "广州市天河区天河路600号中山大学附属第三医院",
          "uid": "057ff3c97587d4a8882fb5c8",
          "location": {
            "lng": 113.34799320441,
            "lat": 23.140686038111
          }
        },
        {
          "name": "中山大学附属第三医院3号楼综合楼-正门",
          "address": "广州市天河区天河路600号中山大学附属第三医院",
          "uid": "489ae6b52267990dfa0cad8e",
          "location": {
            "lng": 113.34835001135,
            "lat": 23.140779169646
          }
        },
        {
          "name": "中山大学附属第三医院2号楼住院部-正门",
          "address": "广州市天河区天河路600号中山大学附属第三医院",
          "uid": "04088dfee5aa379088fc06c3",
          "location": {
            "lng": 113.34703040056,
            "lat": 23.140445191848
          }
        },
        {
          "name": "中山大学附属第三医院10号楼科学楼-正门",
          "address": "广州市天河区天河路600号中山大学附属第三医院",
          "uid": "630b1138828007335d17c31b",
          "location": {
            "lng": 113.34755087877,
            "lat": 23.138301482983
          }
        },
        {
          "name": "中山大学附属第三医院6号楼肝脏病大楼-正门",
          "address": "广州市天河区天河路600号中山大学附属第三医院",
          "uid": "77436ed0e6a409365a3ac8c9",
          "location": {
            "lng": 113.34702132767,
            "lat": 23.140246217114
          }
        },
        {
          "name": "中山大学附属第一医院2号住院楼(南门)",
          "address": "丰乐中路西150米",
          "uid": "b1fb9f543786bcb68f55ec69",
          "location": {
            "lng": 113.46038676435,
            "lat": 23.10851967801
          }
        },
        {
          "name": "中山大学附属第一医院黄埔院区急诊科(南门)",
          "address": "黄埔东路183号附近",
          "uid": "54f4fe82b8b9d0ee0e3ddae9",
          "location": {
            "lng": 113.46008825743,
            "lat": 23.107733557663
          }
        },
        {
          "name": "广州中大公寓（中山大学南门）",
          "address": "广州海珠区康乐西约南小区一巷五号（九州轻纺城后门）",
          "uid": "97480ec4ebd60cfeb7f42f3f",
          "telephone": "13423667150",
          "location": {
            "lng": 113.30503300103,
            "lat": 23.092847000126
          }
        },
        {
          "name": "丰裕布业",
          "address": "广州国际轻纺城E3A009-E3A010(近中山大学南门)",
          "uid": "126e9e25e76972e558f6bebb",
          "telephone": "(020)89052015",
          "location": {
            "lng": 113.30327124427,
            "lat": 23.094370877349
          }
        },
        {
          "name": "三禾百味(嘉兴拉肠店)",
          "address": "海珠区新港西路(近中山大学南门)",
          "uid": "48eb005861f567b42fe67bff",
          "telephone": "13710625102",
          "location": {
            "lng": 113.30729825804,
            "lat": 23.097839843523
          }
        },
        {
          "name": "山本造型",
          "address": "新港西路142号2楼（中山大学南门对面）",
          "uid": "669775d028ac7842fd0eb006",
          "telephone": "13710079379",
          "location": {
            "lng": 113.30349914437,
            "lat": 23.096710347246
          }
        },
        {
          "name": "惟可拓钻饰",
          "address": "瑞康路2号长江辅料广场3楼C004档(近中山大学南门)",
          "uid": "6fddd7fd7bff67663417dc8c",
          "location": {
            "lng": 113.30287949323,
            "lat": 23.096331879492
          }
        },
        {
          "name": "好青丝养发护发",
          "address": "中大逸景路396号南门（法院斜对面）",
          "uid": "586cc9b11306e7ab6140a95c",
          "telephone": "(020)62893412",
          "location": {
            "lng": 113.31139740574,
            "lat": 23.08841289669
          }
        },
        {
          "name": "广州酒家(中大门店)",
          "address": "海珠区新港西路142号穗发花园内(中山大学正门对面)",
          "uid": "e96b4420e649444083288ae9",
          "telephone": "(020)84189313",
          "location": {
            "lng": 113.30404944633,
            "lat": 23.096720569351
          }
        },
        {
          "name": "千味涮(轻纺城店)",
          "address": "国际轻纺城金纺路2号7楼E区E7021、E7022、E7023、E7025、E7026自编E7022a铺(中山大学正门)",
          "uid": "5bb470607d641692c6effbf4",
          "telephone": "(020)89637373",
          "location": {
            "lng": 113.3039170361,
            "lat": 23.094409938108
          }
        },
        {
          "name": "横沥汤粉王",
          "address": "中山大学正门",
          "uid": "e150709546f355334207c1aa",
          "telephone": "13719610305",
          "location": {
            "lng": 113.29812027064,
            "lat": 23.099299838899
          }
        },
        {
          "name": "二天堂(新港西路店)",
          "address": "新港西路142号穗发花园2-1号1楼（中山大学正门对面）",
          "uid": "0adce3e2db66337880a00cfd",
          "telephone": "(020)89102063",
          "location": {
            "lng": 113.30443796346,
            "lat": 23.096854038388
          }
        },
        {
          "name": "御包天下",
          "address": "海珠区新港西路142号(中山大学正门对面)",
          "uid": "ef8280ead0d2f273ad31e532",
          "telephone": "15986338078",
          "location": {
            "lng": 113.30368599192,
            "lat": 23.09683002062
          }
        },
        {
          "name": "喜士多便利店(新港西门市)",
          "address": "海珠区新港西路142号穗发花园2-1(中山大学正门对面)",
          "uid": "78bd50f7c13fa84231870a43",
          "telephone": "(020)84183782",
          "location": {
            "lng": 113.30409849381,
            "lat": 23.096824951125
          }
        },
        {
          "name": "长江国际辅料·花边城",
          "address": "新港西路(中山大学正门对面)",
          "uid": "0e64141ee7536d1d9cec2bb4",
          "location": {
            "lng": 113.3028226305,
            "lat": 23.09713460549
          }
        },
        {
          "name": "麦当劳(新港西路店)",
          "address": "广州市海珠区新港西路142号穗发花园3-4号楼(中山大学正门对面)",
          "uid": "7c5e480b14e563adacb22a87",
          "telephone": "(020)84187500",
          "location": {
            "lng": 113.30429297695,
            "lat": 23.096834175943
          }
        },
        {
          "name": "茶母韩国紫菜包饭",
          "address": "海珠区新港西路145号(中山大学正门建设银行旁边)",
          "uid": "472d24ea4c057ff425e0a088",
          "telephone": "(020)89023431",
          "location": {
            "lng": 113.3052352096,
            "lat": 23.097474343535
          }
        },
        {
          "name": "一品布衣汤烤锅王(中大店)",
          "address": "新港西路147-1号（中山大学正门旁，康乐牌坊对面）",
          "uid": "a0ca03f061be1e2fcd06a4e4",
          "telephone": "(020)89022183",
          "location": {
            "lng": 113.30545673174,
            "lat": 23.097576065324
          }
        },
        {
          "name": "皇茶新世纪(中大店)",
          "address": "新港西路146号顺华街一楼A12档(中山大学南门)",
          "uid": "c39087876e01c079ca09f068",
          "telephone": "(020)34451120",
          "location": {
            "lng": 113.30491199928,
            "lat": 23.096729046218
          }
        },
        {
          "name": "Royaltea皇茶(中大店)",
          "address": "新港西路142号首层中山大学正门对面",
          "uid": "82dedcaca22c3cd4d81318bf",
          "telephone": "13610289777",
          "location": {
            "lng": 113.30541001986,
            "lat": 23.09653391193
          }
        }
      ]
    }
  }
}