{
  "status": 0,
  "message": "ok",
  "type": 1,
  "info": {
    "copyright": {
      "text": "@2016 Baidu - Data",
      "imageUrl": "http://api.map.baidu.com/images/copyright_logo.png"
    }
  },
  "result": {
    "originInfo": {
      "area_id": 257,
      "wd": "五月花商业广场",
      "uid": ""
    },
    "destinationInfo": {
      "area_id": 257,
      "wd": "凯德广场",
      "uid": ""
    },
    "origin": {
      "cityName": "广州市",
      "listType": 0,
      "content": [
        {
          "name": "五月花商业广场",
          "address": "中山五路68号(近北京路)",
          "uid": "b7021bf864e3c2e3f4e73b36",
          "telephone": "(020)83373868",
          "location": {
            "lng": 113.27324538261,
            "lat": 23.132168089188
          }
        },
        {
          "name": "五月花商业广场-洗手间",
          "address": "广州越秀区中山五路68号五月花商业广场B2楼(近广卫路)",
          "uid": "8505410f085fb7d7f942b2bc",
          "location": {
            "lng": 113.27331015043,
            "lat": 23.132040803909
          }
        },
        {
          "name": "五月花商业广场地铁一号线E(出入口)",
          "address": "广东省广州市越秀区中山五路68号B2层",
          "uid": "0c7d9450c725711cf72310b1",
          "location": {
            "lng": 113.27284833157,
            "lat": 23.131923571732
          }
        },
        {
          "name": "五月花商业广场-北门",
          "address": "广州市越秀区",
          "uid": "5eb09dee4cbd1b87f7e73b7e",
          "location": {
            "lng": 113.27331410298,
            "lat": 23.132262888392
          }
        },
        {
          "name": "五月花商业广场-停车场",
          "address": "越秀区中山五路68号",
          "uid": "135c73395f67993112882457",
          "telephone": "(020)83331087",
          "location": {
            "lng": 113.27318160291,
            "lat": 23.132316228493
          }
        },
        {
          "name": "五月花商业广场(南七门)",
          "address": "中山五路68号五月花商业广场F1层",
          "uid": "6fd069b3184b2c83ce04ef7f",
          "location": {
            "lng": 113.27313668764,
            "lat": 23.131934871224
          }
        },
        {
          "name": "五月花商业广场(南五门)",
          "address": "中山五路68号五月花商业广场F1层",
          "uid": "56204583b73d88c8d6b74e87",
          "location": {
            "lng": 113.27337806233,
            "lat": 23.131946669221
          }
        },
        {
          "name": "五月花商业广场-南2门",
          "address": "广州市越秀区",
          "uid": "dc4a6866114947f4f8f0cb3b",
          "location": {
            "lng": 113.27335012503,
            "lat": 23.132072292902
          }
        },
        {
          "name": "五月花商业广场地下停车场-入口",
          "address": "广州市越秀区中山五路68号五月花商业广场",
          "uid": "30abb26c8bb3140a4afc8d02",
          "location": {
            "lng": 113.2732841894,
            "lat": 23.132331599079
          }
        },
        {
          "name": "高乐物业管理有限公司五月花商业广场管理中心",
          "address": "中山五路68号五月花商业广场7层",
          "uid": "713d29ada786e2f3cb213da9",
          "location": {
            "lng": 113.27312258424,
            "lat": 23.132086666504
          }
        },
        {
          "name": "五月花商业广场-停车场",
          "address": "越秀区中山五路68号(地铁公园前站E出口)",
          "uid": "7078735255d891d554bfff79",
          "location": {
            "lng": 113.27340698777,
            "lat": 23.132290970878
          }
        },
        {
          "name": "五月花商业广场停车场-出口",
          "address": "中山五路68号",
          "uid": "4a82eeb613fa83a6e011035b",
          "location": {
            "lng": 113.27320837242,
            "lat": 23.132326697109
          }
        },
        {
          "name": "黄记煌三汁焖锅五月花商业广场店",
          "address": "广州市越秀区中山五路68号五月花商业广场4层",
          "uid": "94925b1744d0437ab45f1e00",
          "telephone": "(020)83347591",
          "location": {
            "lng": 113.27371429808,
            "lat": 23.132098298319
          }
        },
        {
          "name": "la pagayo",
          "address": "广州市越秀区中山五路68号五月花商业广场B1层",
          "uid": "17cf61d5ef092c69fc0eb0a3",
          "location": {
            "lng": 113.2764406553,
            "lat": 23.129024638791
          }
        },
        {
          "name": "makuRstore",
          "address": "广州市越秀区中山五路68号五月花商业广场B2层",
          "uid": "f4fd66e79833dcf74f3a5950",
          "location": {
            "lng": 113.27310066559,
            "lat": 23.132095473449
          }
        },
        {
          "name": "五月花商业广场租赁部、管理处",
          "address": "广州市越秀区中山五路68号五月花商业广场13层",
          "uid": "ca9fa6f01cc8347a02ec0125",
          "telephone": "(020)83372868,(020)83373868",
          "location": {
            "lng": 113.27319750292,
            "lat": 23.132118570908
          }
        },
        {
          "name": "六盯目",
          "address": "广州市越秀区中山五路68号五月花商业广场3层",
          "uid": "018ee65353d329952b11d1e0",
          "location": {
            "lng": 113.27340492166,
            "lat": 23.132268953545
          }
        },
        {
          "name": "circlek",
          "address": "广州市越秀区中山五路68号五月花商业广场F1",
          "uid": "c09ebebe26e39e9fcac3db33",
          "location": {
            "lng": 113.27360452515,
            "lat": 23.132275184866
          }
        },
        {
          "name": "Venete",
          "address": "广州市越秀区中山五路68号五月花商业广场F3",
          "uid": "2d8aa65bf8c6565414c8f6de",
          "location": {
            "lng": 113.27342100133,
            "lat": 23.132031996959
          }
        },
        {
          "name": "水云间",
          "address": "广州市越秀区中山五路68号五月花商业广场1层",
          "uid": "12ed83dacf96c231f60e7768",
          "telephone": "(020)83892650",
          "location": {
            "lng": 113.27501746988,
            "lat": 23.132268122702
          }
        },
        {
          "name": "艾美iBEAUTYS",
          "address": "广州市越秀区中山五路68号五月花商业广场9层",
          "uid": "639edfe517065f07f603b847",
          "location": {
            "lng": 113.27330718603,
            "lat": 23.132040803909
          }
        },
        {
          "name": "ctoc",
          "address": "广州市越秀区中山五路68号五月花商业广场B2层",
          "uid": "5d079f47fe9bfe37ca09f06f",
          "location": {
            "lng": 113.27330718603,
            "lat": 23.132040803909
          }
        },
        {
          "name": "诚怡通讯",
          "address": "中山五路68号五月花商业广场B2楼",
          "uid": "b48e3a62452afe48c8213df0",
          "telephone": "15800204903",
          "location": {
            "lng": 113.27368636078,
            "lat": 23.132043047188
          }
        },
        {
          "name": "名元社",
          "address": "广州市越秀区中山五路68号五月花商业广场3层",
          "uid": "d07b16925a9cc2eb283a9fca",
          "location": {
            "lng": 113.27330700636,
            "lat": 23.132039973064
          }
        },
        {
          "name": "广州市越秀区诚与喜食品店",
          "address": "中山五路68号五月花商业广场负一楼B110号",
          "uid": "8605c336ecfcc20a5e17c3a7",
          "telephone": "(020)83373868",
          "location": {
            "lng": 113.27331625891,
            "lat": 23.132032910888
          }
        },
        {
          "name": "莱福珠宝(五月花店)",
          "address": "中山五路68号五月花商业广场1楼（近广卫路）",
          "uid": "9e97fed66e655d9c7ec8761a",
          "location": {
            "lng": 113.27313758594,
            "lat": 23.132086915757
          }
        },
        {
          "name": "Technology Service Center",
          "address": "广州市越秀区中山五路68号五月花商业广场13层",
          "uid": "ec4993786a45996bbda240c2",
          "location": {
            "lng": 113.27330718603,
            "lat": 23.132040803909
          }
        },
        {
          "name": "乐STUDIO",
          "address": "广州市越秀区中山五路68号五月花商业广场B2层",
          "uid": "fbd16f7e0e1d61c8a8f0cde7",
          "location": {
            "lng": 113.27330727586,
            "lat": 23.132040803909
          }
        },
        {
          "name": "OSANI(五月花广场店)",
          "address": "广州市越秀区中山五路68号五月花商业广场1层",
          "uid": "aa40108b15ebb968c4effb9f",
          "location": {
            "lng": 113.27341704879,
            "lat": 23.131961042836
          }
        },
        {
          "name": "Bady Chocdate",
          "address": "广州市越秀区中山五路68号五月花商业广场3层",
          "uid": "70532de91e278484e6e9650d",
          "location": {
            "lng": 113.27330718603,
            "lat": 23.132040803909
          }
        },
        {
          "name": "Friends Studio",
          "address": "广州市越秀区中山五路68号五月花商业广场B2层",
          "uid": "fe4e99aae2cebdfb8bf15d6f",
          "location": {
            "lng": 113.27330718603,
            "lat": 23.132040803909
          }
        },
        {
          "name": "BerFee",
          "address": "广州市越秀区中山五路68号五月花商业广场B2层",
          "uid": "7c6ed14bd02e7dfc46572695",
          "location": {
            "lng": 113.27330718603,
            "lat": 23.132040803909
          }
        },
        {
          "name": "广州友谊班尼路服饰有限公司",
          "address": "广州市越秀区中山五路68号五月花商业广场2层",
          "uid": "cbdc56eac7cae83bdc1e525b",
          "location": {
            "lng": 113.27330700636,
            "lat": 23.132039973064
          }
        },
        {
          "name": "SQUARE",
          "address": "广州市越秀区中山五路68号五月花商业广场B2层",
          "uid": "72e57fd7ae4b5fb6f9dc85a2",
          "location": {
            "lng": 113.27330700636,
            "lat": 23.132039973064
          }
        },
        {
          "name": "rstro boy",
          "address": "广州市越秀区中山五路68号五月花商业广场2层",
          "uid": "f8b1cafeabb041a5b31e3665",
          "location": {
            "lng": 113.27330727586,
            "lat": 23.132040803909
          }
        },
        {
          "name": "维音企业管理有限公司广州分公司",
          "address": "中山五路68号五月花商业广场11层",
          "uid": "a5ff202f50bdc2170482c239",
          "location": {
            "lng": 113.27312761475,
            "lat": 23.132087746601
          }
        },
        {
          "name": "D N",
          "address": "广州市越秀区中山五路68号五月花商业广场3层",
          "uid": "562593208c82d626ab059d5f",
          "location": {
            "lng": 113.27330700636,
            "lat": 23.132039973064
          }
        },
        {
          "name": "华丽屋",
          "address": "中山五路68号五月花商业广场1楼126铺(近广卫路)",
          "uid": "56e88cba860c0c7ca4c7563f",
          "location": {
            "lng": 113.2731336334,
            "lat": 23.132097882897
          }
        },
        {
          "name": "钱库",
          "address": "广州市越秀区中山五路68号五月花商业广场B2层",
          "uid": "1f485321130f6dbd047ce87c",
          "location": {
            "lng": 113.27330458094,
            "lat": 23.132065230728
          }
        },
        {
          "name": "DOTACOKO联合特卖场",
          "address": "广州市越秀区中山五路68号五月花商业广场2层",
          "uid": "29e1ccaeff96225f9fec2b47",
          "location": {
            "lng": 113.27330718603,
            "lat": 23.132040803909
          }
        },
        {
          "name": "vxi",
          "address": "广州市越秀区中山五路68号五月花商业广场11层",
          "uid": "d6190229db9477e59868b4a1",
          "location": {
            "lng": 113.27330718603,
            "lat": 23.132040803909
          }
        },
        {
          "name": "MODERN BEAUTY SALON",
          "address": "广州市越秀区中山五路68号五月花商业广场3层",
          "uid": "8f6189519e10d8762902e108",
          "telephone": "(020)83729764",
          "location": {
            "lng": 113.27330727586,
            "lat": 23.132040803909
          }
        },
        {
          "name": "DO",
          "address": "广州市越秀区中山五路68号五月花商业广场3层",
          "uid": "b80b11d62565434828201ac8",
          "location": {
            "lng": 113.27330700636,
            "lat": 23.132039973064
          }
        },
        {
          "name": "cbosc",
          "address": "广州市越秀区中山五路68号五月花商业广场2层",
          "uid": "c4475a8f9dd8ef29130daaad",
          "location": {
            "lng": 113.27330700636,
            "lat": 23.132039973064
          }
        },
        {
          "name": "芭曲发型机构属下品牌",
          "address": "广州市越秀区中山五路68号五月花商业广场3层",
          "uid": "53301d5d183487c37cc876ea",
          "location": {
            "lng": 113.27330718603,
            "lat": 23.132040803909
          }
        },
        {
          "name": "Hayley",
          "address": "广州市越秀区中山五路68号五月花商业广场B2层",
          "uid": "4abba67eda574f190f0a70d7",
          "location": {
            "lng": 113.27366004043,
            "lat": 23.131630033872
          }
        },
        {
          "name": "东尼 dn",
          "address": "广州市越秀区中山五路68号五月花商业广场3层",
          "uid": "ae0e80449444bb2e8b2fb526",
          "location": {
            "lng": 113.27330727586,
            "lat": 23.132040803909
          }
        },
        {
          "name": "0.02服饰",
          "address": "中山五路68号五月花商业广场2楼223",
          "uid": "3cada2e416cb04e7ca09f095",
          "location": {
            "lng": 113.2731959758,
            "lat": 23.131936034407
          }
        },
        {
          "name": "cbase",
          "address": "广州市越秀区中山五路68号五月花商业广场2层",
          "uid": "a73a519fa34f44971f389493",
          "location": {
            "lng": 113.27330700636,
            "lat": 23.132039973064
          }
        },
        {
          "name": "亚美高",
          "address": "广州越秀区中山五路68号五月花商业广场B2楼(近广卫路)",
          "uid": "2fd2beab83b3e04b7bdbd2b1",
          "location": {
            "lng": 113.27330727586,
            "lat": 23.132038809882
          }
        }
      ]
    },
    "destination": {
      "cityName": "广州市",
      "listType": 0,
      "content": [
        {
          "name": "凯德广场",
          "address": "云城西路890号凯德广场?云尚L02-16/17",
          "uid": "715cc7d8e7ea459ee0110313",
          "telephone": "(020)36685307",
          "location": {
            "lng": 113.27611825346,
            "lat": 23.188093816059
          }
        },
        {
          "name": "凯德广场云尚",
          "address": "广东省广州市白云区云城西路890号",
          "uid": "974013a9af6a77863517dcac",
          "telephone": "020-66316666",
          "location": {
            "lng": 113.27564754137,
            "lat": 23.18678536843
          }
        },
        {
          "name": "凯德广场US Kimmy健身中心",
          "address": "广东省广州市白云区云城西路890凯德广场5楼(白云公园地铁站5号停机坪广场南方航空大厦)",
          "uid": "0c7164841433f73ed7851ff8",
          "telephone": "13268062616",
          "location": {
            "lng": 113.27584885163,
            "lat": 23.188312401542
          }
        },
        {
          "name": "榕意中国菜(凯德广场云尚店)",
          "address": "广州市白云区齐心路与云城西路交汇处白云绿地中心5层",
          "uid": "96f8946ef0a8a042bb17e7b3",
          "location": {
            "lng": 113.27604037037,
            "lat": 23.1880891653
          }
        },
        {
          "name": "凯德广场5楼 US健身中心",
          "address": "白云区云城西路890号凯德广场5楼(广州市儿童公园)",
          "uid": "f409aa7805000191d618b732",
          "location": {
            "lng": 113.27585370248,
            "lat": 23.18831921157
          }
        },
        {
          "name": "面包新语(凯德广场店)",
          "address": "白云区齐心路与云城西路交汇处凯德广场-2楼B2-1号",
          "uid": "20d7b4c13b74a829fa42b216",
          "telephone": "(020)32439309",
          "location": {
            "lng": 113.27612301448,
            "lat": 23.188095892291
          }
        },
        {
          "name": "鲜芋仙(凯德广场)",
          "address": "广州市白云区齐心路与云城西路交汇处白云绿地中心B2层",
          "uid": "2d2fee822a99de5b7ec87643",
          "telephone": "(020)29862832",
          "location": {
            "lng": 113.27652213161,
            "lat": 23.187251444691
          }
        },
        {
          "name": "贡茶(凯德广场店)",
          "address": "凯德广场B2-52",
          "uid": "249ab727f4bd8db7c5effba0",
          "location": {
            "lng": 113.27639753664,
            "lat": 23.187677406393
          }
        },
        {
          "name": "俏凤凰(凯德广场店)",
          "address": "白云绿地中心凯德广场b1-02(地铁白云公园站)",
          "uid": "5d921454b24319978e77276c",
          "telephone": "18202033956",
          "location": {
            "lng": 113.27651907737,
            "lat": 23.187255348031
          }
        },
        {
          "name": "真熙家(凯德广场店)",
          "address": "广州市白云区齐心路与云城西路交汇处白云绿地中心B2层",
          "uid": "2b5acf50c5c2e6d1c61e5109",
          "location": {
            "lng": 113.27682665718,
            "lat": 23.187441130282
          }
        },
        {
          "name": "情湖江(凯德广场店)",
          "address": "齐心路凯德广场B2层36b",
          "uid": "da35946f4b8a0a9fc91b9547",
          "telephone": "(020)36299337",
          "location": {
            "lng": 113.27356401157,
            "lat": 23.189258909053
          }
        },
        {
          "name": "周黑鸭(凯德广场云尚店)",
          "address": "广州市白云区云城西路890号凯德广场云尚B2",
          "uid": "0f613558bee0756728b97cf3",
          "location": {
            "lng": 113.27639133833,
            "lat": 23.187341304536
          }
        },
        {
          "name": "榕意(凯德广场云尚店)",
          "address": "云城西路890号凯德广场云尚L5-07号",
          "uid": "061e24aafa13eda885420eb7",
          "telephone": "13530464662,13924186653",
          "location": {
            "lng": 113.27611825346,
            "lat": 23.188093816059
          }
        },
        {
          "name": "newlook(凯德广场云尚店)",
          "address": "广州市白云区齐心路与云城西路交汇处白云绿地中心1层",
          "uid": "4ae0e44cb65630de15a19030",
          "location": {
            "lng": 113.27625793996,
            "lat": 23.188016164975
          }
        },
        {
          "name": "周黑鸭(广州凯德广场店)",
          "address": "广州市白云区齐心路与云城西路交汇处白云绿地中心B2层",
          "uid": "831f00353a7636a44e2fdf93",
          "telephone": "15918656580",
          "location": {
            "lng": 113.27585900249,
            "lat": 23.188307003348
          }
        },
        {
          "name": "汉米韩锅(凯德广场店)",
          "address": "齐心路凯德广场L4-007-008",
          "uid": "7d162e85b0006525b45f1e8c",
          "telephone": "(020)33558842",
          "location": {
            "lng": 113.27607800937,
            "lat": 23.188091905926
          }
        },
        {
          "name": "热风(凯德广场云尚店)",
          "address": "广东省广州市白云区云城西路890号凯德广场L2-08/09",
          "uid": "34700bf4113ca10f6b49f3bd",
          "location": {
            "lng": 113.27400211517,
            "lat": 23.187047557291
          }
        },
        {
          "name": "酷选韩式自助餐(凯德广场店)",
          "address": "云城西路凯德广场3楼",
          "uid": "f5bf2c833269a36e8936eeac",
          "telephone": "(020)38255796",
          "location": {
            "lng": 113.27616298907,
            "lat": 23.188101954887
          }
        },
        {
          "name": "渔鲜生丼屋(凯德广场?云尚店)",
          "address": "广州市白云区云城西路890号负一层（部位：B1-01房）",
          "uid": "dbd57b7566203d6783a00c44",
          "telephone": "(020)87486453",
          "location": {
            "lng": 113.2757370126,
            "lat": 23.188181017758
          }
        },
        {
          "name": "王子拉茶(绿地凯德广场店)",
          "address": "广州市白云区齐心路与云城西路交汇处白云绿地中心B2层",
          "uid": "118b83a526f723ba714b877d",
          "telephone": "13631377336",
          "location": {
            "lng": 113.27624266877,
            "lat": 23.187416962825
          }
        },
        {
          "name": "一把海椒麻辣香锅(凯德广场店)",
          "address": "齐心路凯德广场负一楼B1-15铺（地铁白云公园站）",
          "uid": "c852ee9791111a718f1a89eb",
          "telephone": "18028807020",
          "location": {
            "lng": 113.27585702621,
            "lat": 23.188328014777
          }
        },
        {
          "name": "汤响自助回转火锅百汇(凯德广场店)",
          "address": "广州市白云区齐心路与云城西路交汇处白云绿地中心B2层",
          "uid": "0aad26a7346134fa2eb17e8e",
          "telephone": "(020)29819301",
          "location": {
            "lng": 113.2760610314,
            "lat": 23.18792198702
          }
        },
        {
          "name": "九宫煮私房麻辣烫(凯德广场?云尚店)",
          "address": "云城西路890号凯德广场?云尚B2-44",
          "uid": "016e573446eaeeda3a13fdbe",
          "telephone": "18680438877",
          "location": {
            "lng": 113.27582495671,
            "lat": 23.188141901574
          }
        },
        {
          "name": "Thank u mom来自韩国的炸鸡(凯德广场店)",
          "address": "凯德广场负一楼B2层",
          "uid": "b73f54c0c0e5edeabbdf8f5b",
          "telephone": "(020)37028575",
          "location": {
            "lng": 113.27612400261,
            "lat": 23.188208008748
          }
        },
        {
          "name": "驰记面家(凯德广场店)",
          "address": "白云区云城西路890号（地铁2号线白云公园站A出口）凯德广场负二层B2楼B2-53(漾漾好贡茶旁)",
          "uid": "cc7cae8feb9aee097069d3a9",
          "telephone": "18620230796,13570585333",
          "location": {
            "lng": 113.27585397198,
            "lat": 23.188360985272
          }
        },
        {
          "name": "本宫的茶(凯德广场店)",
          "address": "云城西路890号凯德广场一层14号电影院旁",
          "uid": "5aa66ea674d4e88d9e9d68ca",
          "telephone": "15920924340",
          "location": {
            "lng": 113.27627797218,
            "lat": 23.188245048683
          }
        },
        {
          "name": "乐凯撒比萨(凯德广场店)",
          "address": "云城西路凯德广场B2楼65铺(地铁白云公园A出口)",
          "uid": "36b5e227235a1458a31de94c",
          "telephone": "(020)31477981",
          "location": {
            "lng": 113.27610406023,
            "lat": 23.18762168015
          }
        },
        {
          "name": "Kiyomi可优蜜(凯德广场?云尚店)",
          "address": "云城西路路凯德广场负二楼B2-50号铺(白云公园地铁站A出口)",
          "uid": "fbb3b68d4b93638890114ce6",
          "location": {
            "lng": 113.27608699242,
            "lat": 23.188246045273
          }
        },
        {
          "name": "清真高原姑娘牛肉拉面(凯德广场店)",
          "address": "广州市白云区齐心路与云城西路交汇处白云绿地中心B1层",
          "uid": "37bbfd0a0ae1bd90b05c6a46",
          "location": {
            "lng": 113.27626800098,
            "lat": 23.18818600071
          }
        },
        {
          "name": "who.a.u(凯德广场云尚店)",
          "address": "广州市白云区齐心路与云城西路交汇处白云绿地中心2层",
          "uid": "22bb6f1532b9258cb21e3608",
          "location": {
            "lng": 113.27626800098,
            "lat": 23.18818600071
          }
        },
        {
          "name": "美联英语(白云凯德中心店)",
          "address": "广州市白云区齐心路与云城西路交汇处白云绿地中心4层",
          "uid": "8b5a482c725fffc46e20b9d2",
          "telephone": "4007001003",
          "location": {
            "lng": 113.27574599565,
            "lat": 23.18818500412
          }
        },
        {
          "name": "bouthentique(凯德广场云尚店)",
          "address": "广州市白云区齐心路与云城西路交汇处白云绿地中心2层",
          "uid": "fe652dda0249ff6be9f853aa",
          "location": {
            "lng": 113.27626800098,
            "lat": 23.18818600071
          }
        },
        {
          "name": "江湖情第4分舵(凯德广场店)",
          "address": "广州市白云区齐心路与云城西路交汇处白云绿地中心B2层",
          "uid": "69a75a15a540df350f0a70b5",
          "telephone": "(020)36299337",
          "location": {
            "lng": 113.27601530765,
            "lat": 23.187899895885
          }
        },
        {
          "name": "汉堡王(凯德广场店)",
          "address": "广州市白云区云城西路890号凯德广场.云尚238(自编号B2层38号）房",
          "uid": "b7cac1181b80049781288a4f",
          "telephone": "(020)37416327",
          "location": {
            "lng": 113.27618598569,
            "lat": 23.187820500649
          }
        },
        {
          "name": "TAMAYAKI弹丸滋地(凯德广场店)",
          "address": "云城西路890号白云绿地中心凯德广场B2-48",
          "uid": "854dbfd368596b9154bfff8b",
          "telephone": "13128680033",
          "location": {
            "lng": 113.27621697723,
            "lat": 23.187493949864
          }
        }
      ]
    }
  }
}