{
  "status": 0,
  "message": "ok",
  "type": 1,
  "info": {
    "copyright": {
      "text": "@2016 Baidu - Data",
      "imageUrl": "http://api.map.baidu.com/images/copyright_logo.png"
    }
  },
  "result": {
    "originInfo": {
      "area_id": 257,
      "wd": "东山锦轩·现代城",
      "uid": ""
    },
    "destinationInfo": {
      "area_id": 257,
      "wd": "东山百货(花地湾店)",
      "uid": ""
    },
    "origin": {
      "cityName": "广州市",
      "listType": 0,
      "content": [
        {
          "name": "东山锦轩·现代城停车场",
          "address": "广州市越秀区农林下路",
          "uid": "0d1134067997a2fc223bf299",
          "location": {
            "lng": 113.3022489726,
            "lat": 23.131586912915
          }
        },
        {
          "name": "东山锦轩·现代城-西1门",
          "address": "广东省广州市越秀区",
          "uid": "a3e449b469ea40a7ebe58208",
          "location": {
            "lng": 113.30286871357,
            "lat": 23.131843727505
          }
        },
        {
          "name": "东山锦轩·现代城-西2门",
          "address": "广东省广州市越秀区",
          "uid": "342a0a6b6e5371a2c51b75fa",
          "location": {
            "lng": 113.30256499648,
            "lat": 23.131324863481
          }
        },
        {
          "name": "东山锦轩·现代城(西北门)",
          "address": "农林下路与竹丝岗四马路交叉口东北50米",
          "uid": "2fcc39efae0dc6ab3517dc36",
          "location": {
            "lng": 113.30210165049,
            "lat": 23.131745936955
          }
        },
        {
          "name": "大卡司(东山口店)",
          "address": "广州市越秀区农林下路4-6号东山锦轩·现代城B1层",
          "uid": "b7021bf86408c2e3f5e73b8f",
          "telephone": "(020)37615438",
          "location": {
            "lng": 113.3021639929,
            "lat": 23.131687029953
          }
        },
        {
          "name": "姜坊",
          "address": "广州市越秀区农林下路4-6号东山锦轩·现代城B1层",
          "uid": "e65b968019f48010e81e977c",
          "location": {
            "lng": 113.3021637234,
            "lat": 23.131686032937
          }
        },
        {
          "name": "NATURAL COOL TASTEOD",
          "address": "广州市越秀区农林下路4-6号东山锦轩·现代城2层",
          "uid": "2649d1905421f78ebfa82234",
          "location": {
            "lng": 113.3021637234,
            "lat": 23.131686032937
          }
        },
        {
          "name": "Just Gift",
          "address": "广州市越秀区农林下路4-6号东山锦轩·现代城B1层",
          "uid": "26b871c63488f9ab42d63ea3",
          "location": {
            "lng": 113.3021637234,
            "lat": 23.131686032937
          }
        },
        {
          "name": "伊莲韵娜",
          "address": "广州市越秀区农林下路4-6号东山锦轩·现代城B1层",
          "uid": "a0a8803ff683630258109331",
          "location": {
            "lng": 113.3021637234,
            "lat": 23.131686032937
          }
        },
        {
          "name": "韩尚",
          "address": "广州市越秀区农林下路4-6号东山锦轩·现代城B1层",
          "uid": "3a28036df5297c5e9cec2b48",
          "location": {
            "lng": 113.30216498103,
            "lat": 23.131691018016
          }
        },
        {
          "name": "匯寳天然水晶行",
          "address": "广州市越秀区农林下路4-6号东山锦轩·现代城B1层",
          "uid": "7cf5a8894a1cea2bc2f1cf43",
          "location": {
            "lng": 113.3021637234,
            "lat": 23.131686032937
          }
        },
        {
          "name": "千普",
          "address": "广州市越秀区农林下路4-6号东山锦轩·现代城B1层",
          "uid": "1e11c175056c571643e1924f",
          "location": {
            "lng": 113.3021637234,
            "lat": 23.131686032937
          }
        },
        {
          "name": "大拇哥",
          "address": "广州市越秀区农林下路4-6号东山锦轩·现代城1层",
          "uid": "288fcef71742ca9e45e274ec",
          "telephone": "(020)87626668",
          "location": {
            "lng": 113.3021639929,
            "lat": 23.131687029953
          }
        },
        {
          "name": "mu",
          "address": "广州市越秀区农林下路4-6号东山锦轩·现代城B1层",
          "uid": "ce5bd11599426a858e77277b",
          "location": {
            "lng": 113.3021637234,
            "lat": 23.131686032937
          }
        },
        {
          "name": "家居睡衣",
          "address": "广州市越秀区农林下路4-6号东山锦轩·现代城2层",
          "uid": "5cb070f485b9ae446cc02c82",
          "location": {
            "lng": 113.30216381323,
            "lat": 23.131686116022
          }
        },
        {
          "name": "熙然",
          "address": "广州市越秀区农林下路4-6号东山锦轩·现代城B1层",
          "uid": "efe4aa00fee2eec880a00ced",
          "location": {
            "lng": 113.30216381323,
            "lat": 23.131686116022
          }
        },
        {
          "name": "杭州丝绸",
          "address": "广州市越秀区农林下路4-6号东山锦轩·现代城2层",
          "uid": "6831e3977e0406446849f303",
          "location": {
            "lng": 113.30306687976,
            "lat": 23.133505989659
          }
        },
        {
          "name": "万泽大药房",
          "address": "广州市越秀区农林下路4-6号东山锦轩·现代城4层",
          "uid": "8de0622bab0fbacc6168585e",
          "location": {
            "lng": 113.3021639929,
            "lat": 23.131687029953
          }
        },
        {
          "name": "东启品味",
          "address": "广州市越秀区农林下路4-6号东山锦轩·现代城2层",
          "uid": "0a5e3919464388a915c90542",
          "location": {
            "lng": 113.3021637234,
            "lat": 23.131686032937
          }
        },
        {
          "name": "ZUIMEI",
          "address": "广州市越秀区农林下路4-6号东山锦轩·现代城1层",
          "uid": "72ab54ddea2da10aad080f85",
          "location": {
            "lng": 113.3021639929,
            "lat": 23.131687029953
          }
        },
        {
          "name": "Circlek",
          "address": "广州市越秀区农林下路4-6号东山锦轩·现代城B1层",
          "uid": "bcf69745d178adbce5e9659e",
          "location": {
            "lng": 113.3021639929,
            "lat": 23.131687029953
          }
        },
        {
          "name": "Cherrie",
          "address": "广州市越秀区农林下路4-6号东山锦轩·现代城B1层",
          "uid": "3b09d044b3569efdc9e33cf9",
          "location": {
            "lng": 113.3021637234,
            "lat": 23.131686032937
          }
        },
        {
          "name": "BEAS UP",
          "address": "广州市越秀区农林下路4-6号东山锦轩·现代城B1层",
          "uid": "79f1d93c16bf514f631c67b1",
          "location": {
            "lng": 113.3021639929,
            "lat": 23.131687029953
          }
        },
        {
          "name": "YOYO名品",
          "address": "广州市越秀区农林下路4-6号东山锦轩·现代城B1层",
          "uid": "a5da4ca2e567500926d2bb5c",
          "location": {
            "lng": 113.3021637234,
            "lat": 23.131686032937
          }
        },
        {
          "name": "rudiou",
          "address": "广州市越秀区农林下路4-6号东山锦轩·现代城1层",
          "uid": "35eda44e984beb15213bf2ab",
          "location": {
            "lng": 113.3021639929,
            "lat": 23.131687029953
          }
        },
        {
          "name": "K.L.D.Y",
          "address": "广州市越秀区农林下路4-6号东山锦轩·现代城1层",
          "uid": "97584f52fd29e72ccc04ef5b",
          "location": {
            "lng": 113.3021639929,
            "lat": 23.131687029953
          }
        },
        {
          "name": "ANGEL",
          "address": "广州市越秀区农林下路4-6号东山锦轩·现代城B1层",
          "uid": "8b1c334364446c0243ab9ad5",
          "location": {
            "lng": 113.3021637234,
            "lat": 23.131686032937
          }
        },
        {
          "name": "全国连锁枕头专卖店",
          "address": "广州市越秀区农林下路4-6号东山锦轩·现代城2层",
          "uid": "b56b1e62ad4ac0174f6d46b2",
          "location": {
            "lng": 113.3021637234,
            "lat": 23.131686032937
          }
        },
        {
          "name": "织璞",
          "address": "广州市越秀区农林下路4-6号东山锦轩·现代城1层",
          "uid": "5f2f17bb9ccaa39370455bbf",
          "location": {
            "lng": 113.30216462171,
            "lat": 23.131691350354
          }
        },
        {
          "name": "甜言蜜语",
          "address": "广州市越秀区农林下路4-6号东山锦轩·现代城1层",
          "uid": "3235ef80c86bd1fb077ce88b",
          "location": {
            "lng": 113.3021639929,
            "lat": 23.131687029953
          }
        },
        {
          "name": "bossini",
          "address": "广州市越秀区农林下路4-6号东山锦轩·现代城B1层",
          "uid": "f3c447bcdb5c52541f389498",
          "location": {
            "lng": 113.30216381323,
            "lat": 23.131686116022
          }
        },
        {
          "name": "CEORCY",
          "address": "广州市越秀区农林下路4-6号东山锦轩·现代城1层",
          "uid": "2e67b414292a945a0c0e6bbe",
          "location": {
            "lng": 113.3021639929,
            "lat": 23.131687029953
          }
        },
        {
          "name": "爱思丽",
          "address": "广州市越秀区农林下路4-6号东山锦轩·现代城1层",
          "uid": "37bfdc51052f89431894c68e",
          "location": {
            "lng": 113.3021639929,
            "lat": 23.131687029953
          }
        },
        {
          "name": "Under Girls",
          "address": "广州市越秀区农林下路4-6号东山锦轩·现代城B1层",
          "uid": "9fc7ba198f12e82008ccddc3",
          "location": {
            "lng": 113.3021637234,
            "lat": 23.131686032937
          }
        },
        {
          "name": "CAROYNO",
          "address": "广州市越秀区农林下路4-6号东山锦轩·现代城1层",
          "uid": "4bae9186027c82da3ce2312f",
          "location": {
            "lng": 113.3021639929,
            "lat": 23.131687029953
          }
        },
        {
          "name": "赛派",
          "address": "广州市越秀区农林下路4-6号东山锦轩·现代城2层",
          "uid": "ea779a80f11c29d414948e9e",
          "location": {
            "lng": 113.3021637234,
            "lat": 23.131686032937
          }
        },
        {
          "name": "ERMIS",
          "address": "广州市越秀区农林下路4-6号东山锦轩·现代城B1层",
          "uid": "855434319d1283fb0782c28c",
          "location": {
            "lng": 113.3021637234,
            "lat": 23.131686032937
          }
        },
        {
          "name": "東方珠寳玉器行",
          "address": "广州市越秀区农林下路4-6号东山锦轩·现代城2层",
          "uid": "2b5448313adf0a1ab15c6a13",
          "location": {
            "lng": 113.3021639929,
            "lat": 23.131687029953
          }
        },
        {
          "name": "PIKENZ",
          "address": "广州市越秀区农林下路4-6号东山锦轩·现代城B1层",
          "uid": "c74a9640f69f28bdb4265536",
          "location": {
            "lng": 113.3021637234,
            "lat": 23.131686032937
          }
        },
        {
          "name": "5ylvia",
          "address": "广州市越秀区农林下路4-6号东山锦轩·现代城B1层",
          "uid": "ab0435f054ba1a6d09a8d47a",
          "location": {
            "lng": 113.3021637234,
            "lat": 23.131686032937
          }
        },
        {
          "name": "SAIPAI",
          "address": "广州市越秀区农林下路4-6号东山锦轩·现代城2层",
          "uid": "521526565f85f0be5e0d0214",
          "location": {
            "lng": 113.3021639929,
            "lat": 23.131687029953
          }
        },
        {
          "name": "ERRI",
          "address": "广州市越秀区农林下路4-6号东山锦轩·现代城1层",
          "uid": "d360031a7b99948f9ff7796a",
          "location": {
            "lng": 113.3021639929,
            "lat": 23.131687029953
          }
        },
        {
          "name": "雅 霖香薰",
          "address": "广州市越秀区农林下路4-6号东山锦轩·现代城1层",
          "uid": "8c6bab684305ca5f2902e110",
          "location": {
            "lng": 113.3021637234,
            "lat": 23.131686032937
          }
        },
        {
          "name": "EXP",
          "address": "广州市越秀区农林下路4-6号东山锦轩·现代城B1层",
          "uid": "4cb283319ec01bb99ee321b9",
          "location": {
            "lng": 113.30216498103,
            "lat": 23.1316911011
          }
        },
        {
          "name": "纤.美.媛",
          "address": "广州市越秀区农林下路4-6号东山锦轩·现代城B1层",
          "uid": "4b858f8a1f7fc485ca1b9517",
          "location": {
            "lng": 113.3021637234,
            "lat": 23.131686032937
          }
        },
        {
          "name": "福玉轩珠宝",
          "address": "广州市越秀区农林下路4-6号东山锦轩·现代城2层",
          "uid": "0f9087aa693404bc2fb96d6b",
          "location": {
            "lng": 113.3021637234,
            "lat": 23.131686032937
          }
        },
        {
          "name": "适之宝",
          "address": "广州市越秀区农林下路4-6号东山锦轩·现代城2层",
          "uid": "ee94f0d69fd535d403ff2d48",
          "telephone": "(020)80528365",
          "location": {
            "lng": 113.3021639929,
            "lat": 23.131687029953
          }
        },
        {
          "name": "汇丰",
          "address": "广州市越秀区农林下路4-6号东山锦轩·现代城1层",
          "uid": "dd1411800641bd6883a00ce3",
          "location": {
            "lng": 113.30216381323,
            "lat": 23.131686116022
          }
        },
        {
          "name": "GEMEIQ戈美其",
          "address": "广州市越秀区农林下路4-6号东山锦轩·现代城1层",
          "uid": "ea96dc320a5ee40eca09f0d9",
          "location": {
            "lng": 113.3021639929,
            "lat": 23.131687029953
          }
        },
        {
          "name": "十字绣.手艺",
          "address": "广州市越秀区农林下路4-6号东山锦轩·现代城2层",
          "uid": "274ea46c8e65207dadb22afe",
          "location": {
            "lng": 113.3021639929,
            "lat": 23.131687029953
          }
        }
      ]
    },
    "destination": {
      "cityName": "广州市",
      "listType": 0,
      "content": [
        {
          "name": "东山百货(花地湾店)",
          "address": "花地大道北200号(红棉苑地铁1号线花地湾站C出口)",
          "uid": "2fcfb1214746216ec6effbf0",
          "telephone": "(020)81584160",
          "location": {
            "lng": 113.23972502268,
            "lat": 23.097126627287
          }
        },
        {
          "name": "佳纷(广州花地湾店)",
          "address": "荔湾区芳村花地大道200号东山百货二楼",
          "uid": "638265bb443d424f8505bf60",
          "telephone": "(020)81549160",
          "location": {
            "lng": 113.23980892442,
            "lat": 23.096946535842
          }
        }
      ]
    }
  }
}