{
  "status": 0,
  "message": "ok",
  "type": 1,
  "info": {
    "copyright": {
      "text": "@2016 Baidu - Data",
      "imageUrl": "http://api.map.baidu.com/images/copyright_logo.png"
    }
  },
  "result": {
    "originInfo": {
      "area_id": 257,
      "wd": "武警广东总队医院耳鼻咽喉中心",
      "uid": ""
    },
    "destinationInfo": {
      "area_id": 257,
      "wd": "建设大马路",
      "uid": ""
    },
    "origin": {
      "cityName": "广州市",
      "listType": 0,
      "content": [
        {
          "name": "武警医院-耳鼻咽喉中心大楼",
          "address": "广州市天河区燕岭路自编260号",
          "uid": "dd0382dd7b16bb8de856fa97",
          "telephone": "020-61627518",
          "location": {
            "lng": 113.33740397906,
            "lat": 23.167670010232
          }
        }
      ]
    },
    "destination": {
      "cityName": "广州市",
      "listType": 0,
      "content": [
        {
          "name": "建设大马路",
          "address": "广东省广州市越秀区",
          "uid": "f0cfece5681fc6473904b190",
          "location": {
            "lng": 113.28778095389,
            "lat": 23.137608922106
          }
        },
        {
          "name": "建设大马路",
          "address": "",
          "uid": "7dcd72045f0e4aa0f503b8e3",
          "location": {
            "lng": 113.28769399792,
            "lat": 23.140643003178
          }
        },
        {
          "name": "中共广东省委党校(建设大马路)",
          "address": "广州市越秀区建设大马路3号",
          "uid": "a364d2458900875e9cf779c7",
          "telephone": "(020)83122800",
          "location": {
            "lng": 113.28699125352,
            "lat": 23.138905726098
          }
        },
        {
          "name": "石头咕(建设大马路店)",
          "address": "广州市越秀区建设大马路6号之一(省委党校斜对面)",
          "uid": "58e99a6ad33dcde209a8d4a8",
          "telephone": "(020)83833326",
          "location": {
            "lng": 113.28776056235,
            "lat": 23.139905093138
          }
        },
        {
          "name": "建设大马路小区",
          "address": "广东省广州市越秀区东风东建设大马路",
          "uid": "cca60722a2adb17635b06c34",
          "telephone": "13422151088",
          "location": {
            "lng": 113.28716157224,
            "lat": 23.140915668289
          }
        },
        {
          "name": "建设大马路幼儿园",
          "address": "广州市越秀区建设大马路11号",
          "uid": "58d9f35197b5dadb354aaec6",
          "telephone": "(020)83276032",
          "location": {
            "lng": 113.28667145675,
            "lat": 23.140335859631
          }
        },
        {
          "name": "饭这舟(建设大马路店)",
          "address": "建设大马路2号之10档",
          "uid": "c37b8f8787c611d8f4eafc58",
          "telephone": "4006584777",
          "location": {
            "lng": 113.28775130981,
            "lat": 23.138161076859
          }
        },
        {
          "name": "建设大马路9号大院",
          "address": "广东省广州市越秀区建设大马路9号",
          "uid": "339954f72affd0e09cf779b5",
          "location": {
            "lng": 113.2875254758,
            "lat": 23.139977289201
          }
        },
        {
          "name": "东盛大厦(建设大马路9号大院)",
          "address": "越秀区建设横马路",
          "uid": "2321c3b4815d6fcc8505bfb4",
          "location": {
            "lng": 113.28782101831,
            "lat": 23.138597
          }
        },
        {
          "name": "顶田料理(建设大马路店)",
          "address": "广州市越秀区环市东路332号JUSCO中环广场店2层",
          "uid": "15e1e85ea6b4f4bb58109365",
          "telephone": "(020)83022118",
          "location": {
            "lng": 113.2885090305,
            "lat": 23.142626001822
          }
        },
        {
          "name": "东阿阿胶(建设大马路)",
          "address": "东风东路534号",
          "uid": "bf1ae9d46fc6a5f142d63ef0",
          "telephone": "020-83835353",
          "location": {
            "lng": 113.28802160993,
            "lat": 23.137223675245
          }
        },
        {
          "name": "建设新村市场(建设大马路)",
          "address": "建设二马路13号首层",
          "uid": "3dc9befd78e8850fbea2407d",
          "telephone": "(020)83809317",
          "location": {
            "lng": 113.2884898966,
            "lat": 23.140529932563
          }
        },
        {
          "name": "景田矿泉水店(建设大马路水店)",
          "address": "广东省广州市越秀区建设大马路西七街4号-1",
          "uid": "2a19e05de27a6af6d618b7cb",
          "telephone": "(020)29133313,(020)39529221",
          "location": {
            "lng": 113.28716004512,
            "lat": 23.142566684266
          }
        },
        {
          "name": "林海旅行社(建设大马路店)",
          "address": "建设大马路13号",
          "uid": "a6c08e84699760af58f6be8f",
          "telephone": "(020)83877259",
          "location": {
            "lng": 113.28658036858,
            "lat": 23.140001797637
          }
        },
        {
          "name": "派多格宠物生活馆（建设大马路店）",
          "address": "广州市越秀区建设大马路西一街1号102（7天连锁酒店旁）",
          "uid": "ce4f4e10c6035a7f35b06c3d",
          "telephone": "13570280134,13826056802",
          "location": {
            "lng": 113.28745441984,
            "lat": 23.140445690323
          }
        },
        {
          "name": "7天连锁酒店(广州建设大马路店)",
          "address": "广州市越秀区建设大马路13号(中环广场近广东电视台)",
          "uid": "0adce3e2db07337880a00c62",
          "telephone": "(020)83293388",
          "location": {
            "lng": 113.28744103508,
            "lat": 23.140162971646
          }
        },
        {
          "name": "千味涮(建设大马路)",
          "address": "广州越秀区建设大马路18号中环广场南区2楼(近广东电视台)",
          "uid": "69fcd6df9b677636ca291516",
          "telephone": "020-83030653",
          "location": {
            "lng": 113.28834832365,
            "lat": 23.142500221986
          }
        },
        {
          "name": "享美美容美体养生馆(建设大马路店)",
          "address": "建设大马路与北较场横路交汇处(公交车站台北较场横路站)",
          "uid": "0fbf45cd5948edf2b9df8faa",
          "telephone": "(020)83854234",
          "location": {
            "lng": 113.2871673214,
            "lat": 23.143189766518
          }
        },
        {
          "name": "花房(建设大马路店)",
          "address": "建设大马路西八街101号（中环广场星巴克对面）",
          "uid": "cb26211896f3a78014c8f6fe",
          "telephone": "13631308787",
          "location": {
            "lng": 113.2875439809,
            "lat": 23.143863024368
          }
        },
        {
          "name": "广州市城市规划勘测设计研究院(建设大马路)",
          "address": "广州市越秀区建设大马路10-12号珠江规划大厦",
          "uid": "9808dda4064826a86140a976",
          "location": {
            "lng": 113.28798477941,
            "lat": 23.140849786734
          }
        },
        {
          "name": "谈湘馆(建设大马路分店)",
          "address": "建设大马路2号（省委党校正门斜对面，宸宇大厦附近）",
          "uid": "4eb3b53324b0086c430245fd",
          "telephone": "(020)83767729,(020)33099799",
          "location": {
            "lng": 113.28775121998,
            "lat": 23.138053985935
          }
        },
        {
          "name": "咖啡地带(建设大马路)",
          "address": "建设大马路6-1号",
          "uid": "e5f7991975da493636b06cc0",
          "location": {
            "lng": 113.28775849625,
            "lat": 23.139909080953
          }
        },
        {
          "name": "泸州老窖(建设大马路店)",
          "address": "建设大马路2号之五",
          "uid": "91b0bd49efbd18ba2afc485e",
          "telephone": "(020)83767416",
          "location": {
            "lng": 113.28784105053,
            "lat": 23.137894886381
          }
        },
        {
          "name": "釜扬乌冬(建设大马路店)",
          "address": "建设大马路18号中环广场购物中心北区永旺5楼T505号铺",
          "uid": "bbf1e445b99ab3c42cb90807",
          "telephone": "(020)83200521",
          "location": {
            "lng": 113.28796304042,
            "lat": 23.144205052002
          }
        },
        {
          "name": "和平国旅(建设大马路店)",
          "address": "建设大马路8号逸雅居三楼314",
          "uid": "ae7bee1ec00066b062685801",
          "location": {
            "lng": 113.28788668445,
            "lat": 23.140629959769
          }
        },
        {
          "name": "怡宝桶装水(建设大马路店)",
          "address": "建设大马路西九街1号1楼01室",
          "uid": "6d6739f68918f431c9fa5f10",
          "telephone": "15013329522,(020)33858877",
          "location": {
            "lng": 113.28739719777,
            "lat": 23.142701519514
          }
        },
        {
          "name": "中原地产(建设大马路)",
          "address": "广州市越秀区环市东路332号JUSCO中环广场店B1层",
          "uid": "2b5b0971b62c3404374aae68",
          "telephone": "(020)66678436",
          "location": {
            "lng": 113.28845504234,
            "lat": 23.143519001997
          }
        },
        {
          "name": "彩贝儿童摄影(建设大马路店)",
          "address": "建设大马路8号逸雅居3层306-307房（中环广场旁边深圳发展银行楼上）",
          "uid": "ce754c65631581fd49fd3feb",
          "telephone": "(020)83887257",
          "location": {
            "lng": 113.28778266067,
            "lat": 23.140475017263
          }
        },
        {
          "name": "味千拉面(建设大马路店)",
          "address": "广州市越秀区环市东路332号JUSCO中环广场店2层",
          "uid": "f6a2a2b8f05ddd642806ce7c",
          "telephone": "(020)83030759",
          "location": {
            "lng": 113.2883414067,
            "lat": 23.142614287853
          }
        },
        {
          "name": "广龙汽配(建设大马路)",
          "address": "建设大马路4号之1",
          "uid": "69bd248d64b5c50cca09f093",
          "telephone": "(020)83765089",
          "location": {
            "lng": 113.287761281,
            "lat": 23.138584953353
          }
        },
        {
          "name": "景田桶装水(建设大马路店)",
          "address": "北较场横路3号102房",
          "uid": "f6caa657f56795f0be4842f6",
          "telephone": "(020)34149181,(020)34141810",
          "location": {
            "lng": 113.2855195596,
            "lat": 23.143764744221
          }
        },
        {
          "name": "黄记煌三汁焖锅(建设大马路店)",
          "address": "广州市越秀区环市东路332号JUSCO中环广场店2层",
          "uid": "028ff433460f14adf60e7716",
          "location": {
            "lng": 113.2878709641,
            "lat": 23.142856044028
          }
        },
        {
          "name": "表哥茶餐厅(建设大马路)",
          "address": "建设大马路18号中环广场购物中心北区永旺5楼T506号铺(近电视台)",
          "uid": "02ed53e58c7045e636b06c5f",
          "telephone": "13533515665",
          "location": {
            "lng": 113.28833062703,
            "lat": 23.143313385688
          }
        },
        {
          "name": "燕塘牛奶(建设大马路分店)",
          "address": "校场东路12号103自编之一",
          "uid": "0e1b3c44ea4807aa430245d8",
          "telephone": "(020)83851271",
          "location": {
            "lng": 113.28783242679,
            "lat": 23.139278838408
          }
        },
        {
          "name": "开元牛肉店(建设大马路店)",
          "address": "建设大马路2号之11-12（近中环广场）",
          "uid": "cac5fc768002fdea2db96d91",
          "telephone": "13501488089",
          "location": {
            "lng": 113.28775130981,
            "lat": 23.13827506338
          }
        },
        {
          "name": "广州市燃气行业协会(建设大马路)",
          "address": "东风东路585号2楼",
          "uid": "4a2b44dfb7f98b60f50e7737",
          "telephone": "(020)83829321",
          "location": {
            "lng": 113.28729110789,
            "lat": 23.137705462119
          }
        },
        {
          "name": "农夫山泉桶装水店(建设大马路店)",
          "address": "建设大马路西九街1号1楼",
          "uid": "422d3910ba83f1d5eee4a510",
          "telephone": "(020)89551380",
          "location": {
            "lng": 113.27965622971,
            "lat": 23.142334979999
          }
        },
        {
          "name": "和平国际旅行社(建设大马路店)",
          "address": "建设大马路8号逸雅居3楼314",
          "uid": "35f4290c0b450d5440ab9abd",
          "telephone": "(020)61223833",
          "location": {
            "lng": 113.28777161151,
            "lat": 23.140495122413
          }
        },
        {
          "name": "中国移动(沟通100服务厅建设大马路服务厅)",
          "address": "建设大马路8-4",
          "uid": "fc767524908f1efa4e776e20",
          "location": {
            "lng": 113.2877806844,
            "lat": 23.140725085239
          }
        },
        {
          "name": "广东省安全生产监督管理局(建设大马路)",
          "address": "建设大马路19号广东安监大厦",
          "uid": "a359fe2c9ba012c725d2bbaa",
          "telephone": "(020)83324791",
          "location": {
            "lng": 113.28734886894,
            "lat": 23.1417795195
          }
        },
        {
          "name": "广州城市建设咨询服务公司",
          "address": "建设大马路10号珠江规划大厦22楼",
          "uid": "25d0845bb954033fa0a934bd",
          "location": {
            "lng": 113.28815896085,
            "lat": 23.141195560686
          }
        },
        {
          "name": "广州市建设大马路小学",
          "address": "广州市越秀区建设三马路71号",
          "uid": "3dc9befd832c7c16bea24026",
          "telephone": "(020)83871807",
          "location": {
            "lng": 113.28941299534,
            "lat": 23.142779861803
          }
        },
        {
          "name": "建设大马路小学-正门",
          "address": "广州市越秀区建设三马路71号",
          "uid": "76e9f20dea5f1454c6effbbe",
          "location": {
            "lng": 113.28952905641,
            "lat": 23.142887530453
          }
        },
        {
          "name": "MORA COFFEE(建设大马路店)",
          "address": "建设大马路13号7天连锁酒店首层(近省委党校、中环广场)",
          "uid": "f761592d63d785fdc5effb04",
          "telephone": "020-83277660",
          "location": {
            "lng": 113.28753553682,
            "lat": 23.14009127416
          }
        },
        {
          "name": "Pizza Ing...建设大马路店",
          "address": "广州市越秀区建设大马路西三街1号101铺",
          "uid": "3766b428d0a64c602bd7ab70",
          "telephone": "(020)83293773,(020)83293775",
          "location": {
            "lng": 113.28736162488,
            "lat": 23.140925554673
          }
        },
        {
          "name": "广东建华盛建设工程有限公司广州分公司",
          "address": "建设大马路22中环广场B栋B2302",
          "uid": "821b63c95b261fffc91b95ee",
          "telephone": "13527660546",
          "location": {
            "lng": 113.28790303361,
            "lat": 23.143675187101
          }
        },
        {
          "name": "广州市越秀区建设街大马路社区长者服务站",
          "address": "广州市越秀区",
          "uid": "6b79609a1f26dce9a4c75624",
          "location": {
            "lng": 113.28728302314,
            "lat": 23.141930971195
          }
        },
        {
          "name": "中环广场",
          "address": "越秀区环市东路和建设大马路交界",
          "uid": "faa3f95e38f72785095cb364",
          "location": {
            "lng": 113.28834203551,
            "lat": 23.14272403358
          }
        },
        {
          "name": "珠江规划大厦",
          "address": "广州市越秀区建设大马路10、12号",
          "uid": "be7b0e752991c7a31911d51b",
          "location": {
            "lng": 113.28780179458,
            "lat": 23.14105499147
          }
        },
        {
          "name": "广州市邦兴装饰有限公司",
          "address": "建设大马路西二街一号102室",
          "uid": "b57a20ba4b0ea107eb56fae3",
          "telephone": "13719080028",
          "location": {
            "lng": 113.28744058593,
            "lat": 23.140692435194
          }
        }
      ]
    }
  }
}