{
  "status": 0,
  "message": "ok",
  "type": 1,
  "info": {
    "copyright": {
      "text": "@2016 Baidu - Data",
      "imageUrl": "http://api.map.baidu.com/images/copyright_logo.png"
    }
  },
  "result": {
    "originInfo": {
      "area_id": 257,
      "wd": "办证e电子警察24小时受理点",
      "uid": ""
    },
    "destinationInfo": {
      "area_id": 257,
      "wd": "东方丝绸大酒店",
      "uid": ""
    },
    "origin": {
      "cityName": "广州市",
      "listType": 0,
      "content": [
        {
          "name": "办证e电子警察24小时受理点",
          "address": "解放南路155",
          "uid": "1c9bff0901e2f5f745e274fb",
          "location": {
            "lng": 113.26875403472,
            "lat": 23.12399399934
          }
        },
        {
          "name": "办证e电子警察24小时受理点",
          "address": "海清路13",
          "uid": "104123c02af8ccf31ef74d83",
          "location": {
            "lng": 113.34486548428,
            "lat": 23.120258493593
          }
        },
        {
          "name": "办证e电子警察24小时受理点",
          "address": "广州市黄埔区",
          "uid": "7f75ee8357aac8a617948e7f",
          "location": {
            "lng": 113.4560028538,
            "lat": 23.101882133179
          }
        }
      ]
    },
    "destination": {
      "cityName": "广州市",
      "listType": 0,
      "content": [
        {
          "name": "东方丝绸大酒店",
          "address": "越秀区东风东路752号",
          "uid": "251374c94267cc26a11de91c",
          "telephone": "(020)87762888",
          "location": {
            "lng": 113.3070476308,
            "lat": 23.137346635331
          }
        },
        {
          "name": "东方丝绸大酒店-棋牌室",
          "address": "东风东路752号丝绸大酒店9楼",
          "uid": "7dbedd1ce90b21d8fbdc8551",
          "telephone": "(020)87762888",
          "location": {
            "lng": 113.3070476308,
            "lat": 23.137346635331
          }
        },
        {
          "name": "东方丝绸大酒店-美容美发",
          "address": "东风东路752号东方丝绸大酒店1层",
          "uid": "43afaf02985dc5040f0e6ba6",
          "location": {
            "lng": 113.3070476308,
            "lat": 23.137346635331
          }
        },
        {
          "name": "东方丝绸大酒店-会议厅",
          "address": "广东省广州市越秀区东风东路752号",
          "uid": "b13d8fc38418b5ae08f5eb88",
          "location": {
            "lng": 113.3070476308,
            "lat": 23.137346635331
          }
        },
        {
          "name": "东方丝绸大酒店-茗艺园",
          "address": "东风东路752号东方丝绸大酒店1层",
          "uid": "43c1a40a2d14f4f4ede4a59c",
          "telephone": "(020)37654146",
          "location": {
            "lng": 113.30701753756,
            "lat": 23.137336084031
          }
        },
        {
          "name": "康辉假日旅行社(东风东丝绸大厦店)",
          "address": "东风东路752号东方丝绸大酒店一楼(羊城晚报社对面)",
          "uid": "e3321dc07d076b3700ff2d40",
          "telephone": "(020)87606616,15920429778",
          "location": {
            "lng": 113.30682089849,
            "lat": 23.137381197064
          }
        },
        {
          "name": "山泉汤馆(东风店)",
          "address": "东风东路752号东方丝绸大酒店2楼(近农林下路)",
          "uid": "00586108a2d996bc46e27433",
          "telephone": "(020)87650298",
          "location": {
            "lng": 113.3066774391,
            "lat": 23.137291303306
          }
        },
        {
          "name": "龙品酒家",
          "address": "东风东路752号东方丝绸大酒店3楼（近地铁5或6号线区庄站B2出口，东风路由西向东羊城晚报社公交站往后走20米）",
          "uid": "784f3e06350814c36849f334",
          "telephone": "(020)29831518",
          "location": {
            "lng": 113.30698744433,
            "lat": 23.137416589599
          }
        },
        {
          "name": "星晨旅游驻广州办事处",
          "address": "东风东路752号东方丝绸大酒店1楼（近农林下路）",
          "uid": "f2cea81591f442f9774ff15e",
          "location": {
            "lng": 113.30711787829,
            "lat": 23.13727551789
          }
        },
        {
          "name": "广州市爱启儿教育信息咨询有限公司",
          "address": "东风东路752号东方丝绸大酒店8楼",
          "uid": "63d00f55102902c922f0173b",
          "telephone": "13902222174",
          "location": {
            "lng": 113.30705302063,
            "lat": 23.137340985816
          }
        },
        {
          "name": "新富好酒家",
          "address": "东风东路752号东方丝绸大酒店3楼",
          "uid": "23dc684b4211da138f1a89db",
          "telephone": "(020)83389689",
          "location": {
            "lng": 113.30711500371,
            "lat": 23.137349044683
          }
        },
        {
          "name": "藏源堂(NO.179店)",
          "address": "东风东路752号东方丝绸大酒店一楼(羊城晚报社)",
          "uid": "73539661bed3737a25e0a031",
          "telephone": "(020)87651011",
          "location": {
            "lng": 113.30703559351,
            "lat": 23.13734580452
          }
        },
        {
          "name": "东方丝绸大酒店宴会厅",
          "address": "越秀区东风东路752号东方丝绸大酒店内(近农林下路)",
          "uid": "cc788fde8040a29388fc066f",
          "telephone": ":020-87762888",
          "location": {
            "lng": 113.30688512733,
            "lat": 23.137329188299
          }
        }
      ]
    }
  }
}