{
  "status": 0,
  "message": "ok",
  "type": 1,
  "info": {
    "copyright": {
      "text": "@2016 Baidu - Data",
      "imageUrl": "http://api.map.baidu.com/images/copyright_logo.png"
    }
  },
  "result": {
    "originInfo": {
      "area_id": 257,
      "wd": "天鸿百货",
      "uid": ""
    },
    "destinationInfo": {
      "area_id": 257,
      "wd": "东晓南地铁站-A口",
      "uid": ""
    },
    "origin": {
      "cityName": "广州市",
      "listType": 0,
      "content": [
        {
          "name": "天鸿百货",
          "address": "聚德中路与聚德北路交叉口北30米路东",
          "uid": "81ef7c12d09b097f41d63eeb",
          "telephone": "(020)84160036",
          "location": {
            "lng": 113.33262032256,
            "lat": 23.089502736436
          }
        },
        {
          "name": "天鸿百货",
          "address": "海珠区赤沙村(财经大学对面)",
          "uid": "caa532c7055a8701c2f1cf41",
          "location": {
            "lng": 113.36198116865,
            "lat": 23.09152456371
          }
        },
        {
          "name": "天鸿百货",
          "address": "东圃镇陂东路11号",
          "uid": "fc6ce3d7b66b95692fe67ba9",
          "location": {
            "lng": 113.40603802339,
            "lat": 23.123149973852
          }
        },
        {
          "name": "天鸿服饰",
          "address": "广州市海珠区台涌新街",
          "uid": "0d3a6d21d159ee841ce999c6",
          "location": {
            "lng": 113.34727303288,
            "lat": 23.090663044821
          }
        },
        {
          "name": "天鸿百货",
          "address": "雅乐街与上渡路交叉口旁(滨江童话一楼)",
          "uid": "48f5aa35f4d8b47825d2bbc6",
          "location": {
            "lng": 113.31499197524,
            "lat": 23.105409988061
          }
        },
        {
          "name": "天鸿百货生活超市",
          "address": "广东省广州市海珠区南华大街南20巷-5号",
          "uid": "3ec7631832a6f0b2c72ba16d",
          "location": {
            "lng": 113.34019384648,
            "lat": 23.091279555819
          }
        },
        {
          "name": "天鸿百货",
          "address": "市桥市南路陈涌市场2楼",
          "uid": "81c4bfc14a2eb8319de321fa",
          "location": {
            "lng": 113.37603947021,
            "lat": 22.92384139632
          }
        },
        {
          "name": "天鸿百货(东南门)",
          "address": "台冲新街北七巷与石榴岗路交叉口东北100米",
          "uid": "453b927c90ac06b9e956fa9a",
          "location": {
            "lng": 113.34747515162,
            "lat": 23.090565223926
          }
        },
        {
          "name": "天鸿百货商场",
          "address": "太和镇",
          "uid": "4bb049d91965804799005047",
          "location": {
            "lng": 113.3711175645,
            "lat": 23.296224923498
          }
        },
        {
          "name": "天鸿百货满鸿商店(西门)",
          "address": "广东省广州市海珠区聚德西路5至27号楼附近",
          "uid": "9dcb2ef6f329ffccc03644f3",
          "location": {
            "lng": 113.33263640223,
            "lat": 23.089489521777
          }
        },
        {
          "name": "广州天鸿服饰有限公司(天鸿万福店)",
          "address": "越和仰忠精品批发商场B2-12",
          "uid": "16e3d9ead6ad49b9d618b730",
          "telephone": "(020)83708802,(020)83810505",
          "location": {
            "lng": 113.28188357822,
            "lat": 23.126340757477
          }
        },
        {
          "name": "天鸿围巾专业制造",
          "address": "德政南路128号越和仰忠精品批发商场B2-12",
          "uid": "3b091f624526ccea48cc4a28",
          "location": {
            "lng": 113.28190900026,
            "lat": 23.12639002865
          }
        },
        {
          "name": "出色造型",
          "address": "台涌村台涌一横一巷8号天鸿百货对面(天鸿百货对面)",
          "uid": "46d9400828b9548c0bccdd83",
          "telephone": "15813389096",
          "location": {
            "lng": 113.34769397884,
            "lat": 23.090387035128
          }
        },
        {
          "name": "广州时尚公寓",
          "address": "海珠区赤沙南约西巷8号(赤沙总站旁天鸿百货优乐购店大门前行20米即到)",
          "uid": "5974370c1f602facb9df8f97",
          "telephone": "(020)28135665",
          "location": {
            "lng": 113.3619022076,
            "lat": 23.091731590038
          }
        },
        {
          "name": "洛伊之恋",
          "address": "东圃嘉庭鲜街市负一楼天鸿百货",
          "uid": "5929e6f3af29487a2e4733df",
          "telephone": "13642761740",
          "location": {
            "lng": 113.40596301488,
            "lat": 23.123163018981
          }
        },
        {
          "name": "靓丽美甲美睫",
          "address": "广东省广州市海珠区新港西下渡路乐涛苑童话商场二楼384-385档口(天鸿百货入口)",
          "uid": "cb5b5b285637afeea7da3989",
          "telephone": "18818918256,13678008761",
          "location": {
            "lng": 113.315457028,
            "lat": 23.105218689185
          }
        },
        {
          "name": "成记正宗隆江猪脚饭",
          "address": "新村南华大街南二十一巷1号(天鸿百货生活超市南10米)",
          "uid": "657083a4085cfc17f503b8b4",
          "telephone": "13924003787",
          "location": {
            "lng": 113.34015486002,
            "lat": 23.091152813094
          }
        },
        {
          "name": "乔晨窝窝头",
          "address": "石榴岗路71号G08(天鸿百货广场旁，党校路口)",
          "uid": "2d5eca58321bf9d779dbd2f5",
          "telephone": "15013262612",
          "location": {
            "lng": 113.34720305488,
            "lat": 23.09073294059
          }
        },
        {
          "name": "何家鲜羊肉粉",
          "address": "陈涌村金业街东3号102号(天鸿百货旁)",
          "uid": "49505067c1a765034afc8d18",
          "telephone": "13428807656,(020)84743992",
          "location": {
            "lng": 113.3760323736,
            "lat": 22.923744201951
          }
        },
        {
          "name": "广州金源公寓海珠店",
          "address": "广州市海珠区大塘村东华南11巷（天鸿百货斜对面）",
          "uid": "1aa79d5a218bb20659bbbc2b",
          "telephone": "15815109699",
          "location": {
            "lng": 113.33234903429,
            "lat": 23.089672033549
          }
        }
      ]
    },
    "destination": {
      "cityName": "广州市",
      "listType": 0,
      "content": [
        {
          "name": "东晓南地铁站-A口",
          "uid": "fcfd4aaf8a81e7b245e274d4",
          "location": {
            "lng": 113.30152197395,
            "lat": 23.07743895159
          }
        },
        {
          "name": "烤尚宫(南洲店)",
          "address": "海珠区东晓南地铁A出口二楼(东晓南地铁口A出口10米)",
          "uid": "716fb2107324f9dcebe58225",
          "telephone": "(020)61238618",
          "location": {
            "lng": 113.3021584234,
            "lat": 23.077185522738
          }
        }
      ]
    }
  }
}