{
  "status": 0,
  "message": "ok",
  "type": 1,
  "info": {
    "copyright": {
      "text": "@2016 Baidu - Data",
      "imageUrl": "http://api.map.baidu.com/images/copyright_logo.png"
    }
  },
  "result": {
    "originInfo": {
      "area_id": 257,
      "wd": "好又多(丽影店)",
      "uid": ""
    },
    "destinationInfo": {
      "area_id": 257,
      "wd": "畔江花园",
      "uid": ""
    },
    "origin": {
      "cityName": "广州市",
      "listType": 0,
      "content": [
        {
          "name": "雪贝尔艺术蛋糕坊(丽影广场店)",
          "address": "新港中路356号丽影广场好又多旁（地铁客村站D出口）",
          "uid": "dffd631c4d9f7ea538221c30",
          "telephone": "(020)34413926,18820117802",
          "location": {
            "lng": 113.328263451,
            "lat": 23.102305959387
          }
        },
        {
          "name": "乌节路雪糕(客村地铁店)",
          "address": "新港中路356号丽影广场B2楼(客村地铁站、好又多)",
          "uid": "39baeae162764599283a9f3e",
          "telephone": "13631346952,15018465125",
          "location": {
            "lng": 113.32743566248,
            "lat": 23.101682269566
          }
        },
        {
          "name": "八马茶业(新港城好又多店)",
          "address": "海珠区新港中路356号丽影商业广场负一楼(好又多超市入口)",
          "uid": "9362d11903b9eac3e956faa3",
          "telephone": "(020)84061515",
          "location": {
            "lng": 113.32759322526,
            "lat": 23.101545979862
          }
        },
        {
          "name": "梦芭莎(新港中路店)",
          "address": "新港中路356号丽影广场B2楼好又多内",
          "uid": "c21db9e5f3e8da9a01ff2da8",
          "telephone": "(020)34074707",
          "location": {
            "lng": 113.32752064218,
            "lat": 23.101859944593
          }
        }
      ]
    },
    "destination": {
      "cityName": "广州市",
      "listType": 0,
      "content": [
        {
          "name": "畔江花园",
          "address": "新港东路畔江内街12号",
          "uid": "74abd4bb4b683717bda82285",
          "location": {
            "lng": 113.35444968543,
            "lat": 23.103500975804
          }
        },
        {
          "name": "畔江花园-西北门",
          "address": "广东省广州市海珠区",
          "uid": "14cfc6402c000630eee4a549",
          "location": {
            "lng": 113.3543514108,
            "lat": 23.103919229009
          }
        },
        {
          "name": "畔江花园-停车场",
          "address": "畔江外街畔江花园北侧",
          "uid": "66e565b060a696177d29bdc5",
          "location": {
            "lng": 113.35491527717,
            "lat": 23.103221419381
          }
        },
        {
          "name": "汇银宾馆(畔江花园店)",
          "address": "新港东路畔江花园内街20号（地铁8号线磨碟沙站C出口步行8分钟）",
          "uid": "1bf85b25cad83fbda1a9341e",
          "telephone": "(020)84229975",
          "location": {
            "lng": 113.35504463316,
            "lat": 23.102702526528
          }
        },
        {
          "name": "自在堂",
          "address": "新港东路畔江花园外街1号",
          "uid": "49d959388940525ac61e513c",
          "location": {
            "lng": 113.35489524496,
            "lat": 23.103302278062
          }
        },
        {
          "name": "广州国际会展中心奔瑞装饰公司",
          "address": "广州市海珠区畔江花园",
          "uid": "0da2f237f41a6d21465726f2",
          "location": {
            "lng": 113.35525798072,
            "lat": 23.102853025609
          }
        },
        {
          "name": "广州奔瑞展览服务有限公司",
          "address": "海珠区新港东路畔江花园A1栋803室",
          "uid": "460d4cc9b4f7d50079b55c43",
          "telephone": "13682214176,(020)34075770",
          "location": {
            "lng": 113.35527603666,
            "lat": 23.102733025251
          }
        },
        {
          "name": "广州市楚京贸易有限公司",
          "address": "广州市海珠区新港东路畔江花园a1栋2楼",
          "uid": "feeea0082be7792cef74f844",
          "telephone": "(020)84228338",
          "location": {
            "lng": 113.35489551445,
            "lat": 23.102967291776
          }
        }
      ]
    }
  }
}