{
  "status": 0,
  "message": "ok",
  "type": 1,
  "info": {
    "copyright": {
      "text": "@2016 Baidu - Data",
      "imageUrl": "http://api.map.baidu.com/images/copyright_logo.png"
    }
  },
  "result": {
    "originInfo": {
      "area_id": 257,
      "wd": "海联路邮政局",
      "uid": ""
    },
    "destinationInfo": {
      "area_id": 257,
      "wd": "中国南方人才市场",
      "uid": ""
    },
    "origin": {
      "cityName": "广州市",
      "listType": 0,
      "content": [
        {
          "name": "海联路邮政局",
          "address": "海联路175号",
          "uid": "e94b15783fa9174adeee8bce",
          "telephone": "(020)34280294",
          "location": {
            "lng": 113.29523401504,
            "lat": 23.107721009616
          }
        },
        {
          "name": "中国邮政储蓄银行(海联路邮局营业部)",
          "address": "广州市海联路175号",
          "uid": "6913052351c15e08725e8060",
          "telephone": "(020)34290400",
          "location": {
            "lng": 113.29517643366,
            "lat": 23.107683614765
          }
        },
        {
          "name": "礼航礼品(海联邮政局店)",
          "address": "海联路175-177号",
          "uid": "ee2364fd41a5b3bebd48420b",
          "telephone": "13903011956,13903018619",
          "location": {
            "lng": 113.29522098961,
            "lat": 23.107756991762
          }
        }
      ]
    },
    "destination": {
      "cityName": "广州市",
      "listType": 0,
      "content": [
        {
          "name": "中国南方人才市场",
          "address": "广州市天河路198号南方精典大厦6-11层",
          "uid": "207d63969c3b46485cd4fe23",
          "location": {
            "lng": 113.32675402826,
            "lat": 23.139207971243
          }
        },
        {
          "name": "中国南方人才市场",
          "address": "天河路104号华普大厦1-6楼",
          "uid": "73cce5e4d341d7df81a12ebe",
          "location": {
            "lng": 113.32359495727,
            "lat": 23.139457044652
          }
        },
        {
          "name": "中国南方人才市场",
          "address": "广东省广州市天河区天河路403号",
          "uid": "36a79adef1b8ee81acee7ad7",
          "telephone": "(020)85596359",
          "location": {
            "lng": 113.33853916773,
            "lat": 23.139900191447
          }
        },
        {
          "name": "中国南方人才市场广州市场",
          "address": "马场西路106号",
          "uid": "59b09adc2ceac14e43ab9af5",
          "telephone": "(020)85596359",
          "location": {
            "lng": 113.35017599696,
            "lat": 23.119333013827
          }
        },
        {
          "name": "中国南方人才市场",
          "address": "广仁路1号广仁大厦3层广州市外经贸一条街317-318号(近广仁大厦)",
          "uid": "ecc501c69754bec2ddee8b70",
          "telephone": "(020)85584353",
          "location": {
            "lng": 113.27384697781,
            "lat": 23.134431038204
          }
        },
        {
          "name": "中国南方人才市场",
          "address": "天河地铁体育西路站（苏宁电器6-7楼）",
          "uid": "b38e8d6ab26eb3e6b42655a4",
          "telephone": "(020)85596359",
          "location": {
            "lng": 113.33601304281,
            "lat": 23.138817910379
          }
        },
        {
          "name": "中国南方人才市场（天河总部）",
          "address": "天河体育中心附近（地铁体育西路站）",
          "uid": "649f7cfb0225504107fef568",
          "telephone": "(020)85585876",
          "location": {
            "lng": 113.33476296086,
            "lat": 23.143748045727
          }
        },
        {
          "name": "中国南方人才市场南沙市场",
          "address": "进港大道56之11号",
          "uid": "00586108360c02a547e27487",
          "telephone": "(020)85587293",
          "location": {
            "lng": 113.5558980197,
            "lat": 22.806171030743
          }
        },
        {
          "name": "中国南方人才市场(大学城服务中心)",
          "address": "番禺区大学城外环西路230号广州大学",
          "uid": "9926e5f3d077b4992e4733d8",
          "telephone": "(020)85587293",
          "location": {
            "lng": 113.37749499463,
            "lat": 23.046658983513
          }
        },
        {
          "name": "中国南方人才市场外企服务部",
          "address": "广州市天河区天河路南方精典大厦6层1-7楼",
          "uid": "33157ab122c2fdbb5a3ac8a4",
          "telephone": "020-85596359",
          "location": {
            "lng": 113.32668899094,
            "lat": 23.139251422042
          }
        },
        {
          "name": "南方人才市场",
          "address": "广东省广州市天河区天河路106号中国南方人才市场普大厦东座二楼",
          "uid": "4c1c7959afdaac570a5cb3f2",
          "telephone": "13202531669,020-85596359",
          "location": {
            "lng": 113.32387684554,
            "lat": 23.139388088418
          }
        },
        {
          "name": "广州南方人才市场南方人才教育",
          "address": "天河路与体育东路交叉口西北侧40米",
          "uid": "cb01f90857bc57dc0e3dda81",
          "telephone": "15913189105",
          "location": {
            "lng": 113.33441046578,
            "lat": 23.139572359334
          }
        },
        {
          "name": "中国南方人才市场交流信息部",
          "address": "天河路104号华普大厦东座5层",
          "uid": "ad44b1668eb13377adcb6676",
          "telephone": "020-85596359",
          "location": {
            "lng": 113.3236661929,
            "lat": 23.139481636264
          }
        },
        {
          "name": "中国南方人才市场人事代理中心东南综合服务大厅",
          "address": "广州市天河区天河路106号",
          "uid": "6a3ee16ba53e6f893b221c73",
          "telephone": "(020)85585877",
          "location": {
            "lng": 113.32677720454,
            "lat": 23.139227079627
          }
        },
        {
          "name": "中国南方人才市场人事代理中心",
          "address": "广州市天河区天河路104号华普大厦东座底商",
          "uid": "ab0a5a8bb63a83613617dc87",
          "location": {
            "lng": 113.32335906224,
            "lat": 23.139414673958
          }
        },
        {
          "name": "中国南方人才市场交流信息部(南方精典大厦)",
          "address": "天河路198号南方精典大厦7层",
          "uid": "8e49e8bca6b8dfe6f7b9162d",
          "telephone": "(020)85585877",
          "location": {
            "lng": 113.32662988244,
            "lat": 23.13921220832
          }
        },
        {
          "name": "中国南方人才市场人事代理中心(西北服务厅)",
          "address": "天河路104号",
          "uid": "794221acb1398c9e6cc02c7e",
          "telephone": "(020)85239467",
          "location": {
            "lng": 113.32343730465,
            "lat": 23.139391328531
          }
        },
        {
          "name": "中国南方人才市场人事代理大厅",
          "address": "广州市天河区路106号",
          "uid": "14578a7b0587baaeda2f283e",
          "location": {
            "lng": 113.32336310462,
            "lat": 23.139327606295
          }
        },
        {
          "name": "中国南方人才市场人力资源服务大厅",
          "address": "广州市天河区",
          "uid": "9c7bee030ba97c73e215f9fc",
          "location": {
            "lng": 113.32339795887,
            "lat": 23.139460035524
          }
        },
        {
          "name": "中国南方人才市场大学生就业创业俱乐部",
          "address": "环西路230号广州大学图书馆附近",
          "uid": "58d9dc8addd5cd1202ec0152",
          "location": {
            "lng": 113.37755491161,
            "lat": 23.046747940963
          }
        },
        {
          "name": "南方人才网(中国南方人才市场)",
          "address": "天河区天河路198号南方人才市场(靠近广百)",
          "uid": "f79d7bdc07b9a1a832f71d66",
          "telephone": "020-85596359",
          "location": {
            "lng": 113.3266859367,
            "lat": 23.139358511999
          }
        }
      ]
    }
  }
}