{
  "status": 0,
  "message": "ok",
  "type": 1,
  "info": {
    "copyright": {
      "text": "@2016 Baidu - Data",
      "imageUrl": "http://api.map.baidu.com/images/copyright_logo.png"
    }
  },
  "result": {
    "originInfo": {
      "area_id": 257,
      "wd": "东百花地湾百货公司",
      "uid": ""
    },
    "destinationInfo": {
      "area_id": 257,
      "wd": "保利百合花园二期停车场",
      "uid": ""
    },
    "origin": {
      "cityName": "广州市",
      "listType": 0,
      "content": [
        {
          "name": "东百花地湾百货公司",
          "address": "花地大道北200号(花蕾路口)",
          "uid": "d5464cf8d0337e4efda7787f",
          "telephone": "(020)81584336",
          "location": {
            "lng": 113.23977200406,
            "lat": 23.097029143577
          }
        },
        {
          "name": "东百花地湾百货公司-南门",
          "address": "广东省广州市荔湾区花地大道北218号",
          "uid": "1f0034eb8959ec71db13189a",
          "location": {
            "lng": 113.23988222615,
            "lat": 23.09645047282
          }
        },
        {
          "name": "邓老凉茶(东百花地湾百货公司北)",
          "address": "广州市荔湾区花地大道北芳村·万象购物街B1层",
          "uid": "db1f39d4a7bc2a76f4c59cbe",
          "telephone": "13556189820",
          "location": {
            "lng": 113.24155298456,
            "lat": 23.101980028843
          }
        },
        {
          "name": "美丽伊橱",
          "address": "花地大道北200东百花地湾百货公司1层",
          "uid": "5044ab376b863a8b2ce67b1a",
          "location": {
            "lng": 113.23723500964,
            "lat": 23.099512254922
          }
        },
        {
          "name": "富贵鸟",
          "address": "花地大道北200东百花地湾百货公司-1层",
          "uid": "57be6a986e8d7537ee74f863",
          "location": {
            "lng": 113.23977200406,
            "lat": 23.097029143577
          }
        },
        {
          "name": "青蛙皇子",
          "address": "花地大道北200东百花地湾百货公司1层",
          "uid": "03c8ad6e9b37db08b9df8f7d",
          "telephone": "13925066115",
          "location": {
            "lng": 113.23947259883,
            "lat": 23.097074768954
          }
        },
        {
          "name": "美宝莲",
          "address": "花地大道北200东百花地湾百货公司1层",
          "uid": "ea5c9e67d98e9cea5cd4fec3",
          "location": {
            "lng": 113.23977200406,
            "lat": 23.097029143577
          }
        },
        {
          "name": "玉兰油",
          "address": "花地大道北200东百花地湾百货公司1层",
          "uid": "04e7957d533d0ecae0110349",
          "location": {
            "lng": 113.23977191423,
            "lat": 23.097029060471
          }
        },
        {
          "name": "花花公子(花地大道北)",
          "address": "花地大道北200东百花地湾百货公司-1/1层",
          "uid": "0d6a3df9c8944ec331f71d85",
          "location": {
            "lng": 113.23977200406,
            "lat": 23.097029143577
          }
        }
      ]
    },
    "destination": {
      "cityName": "广州市",
      "listType": 0,
      "content": [
        {
          "name": "保利百合花园二期-停车场",
          "address": "广州市海珠区依翠街1号",
          "uid": "5211d2193cfb93257dc876f5",
          "location": {
            "lng": 113.28544994092,
            "lat": 23.080649202513
          }
        },
        {
          "name": "保利百合花园二期停车场-入口",
          "address": "广东省广州市海珠区依翠街1号",
          "uid": "6227f5197220f2649122e0c2",
          "location": {
            "lng": 113.28544994092,
            "lat": 23.080673306323
          }
        }
      ]
    }
  }
}