{
  "status": 0,
  "message": "ok",
  "type": 1,
  "info": {
    "copyright": {
      "text": "@2016 Baidu - Data",
      "imageUrl": "http://api.map.baidu.com/images/copyright_logo.png"
    }
  },
  "result": {
    "originInfo": {
      "area_id": 257,
      "wd": "万国广场",
      "uid": ""
    },
    "destinationInfo": {
      "area_id": 257,
      "wd": "佳大银湾",
      "uid": ""
    },
    "origin": {
      "cityName": "广州市",
      "listType": 0,
      "content": [
        {
          "name": "万国广场",
          "address": "海珠区前进路40号万国广场6-7楼(近江南大道中)",
          "uid": "a12baa4042157855e856fa00",
          "telephone": "(020)84444200",
          "location": {
            "lng": 113.27910404131,
            "lat": 23.108004794639
          }
        },
        {
          "name": "万国广场江南中社区文化街",
          "address": "广州市海珠区江南大道中133号",
          "uid": "fc7675243f2ee7e34e776e5a",
          "telephone": "(020)84444200",
          "location": {
            "lng": 113.27953127541,
            "lat": 23.108178389336
          }
        }
      ]
    },
    "destination": {
      "cityName": "广州市",
      "listType": 0,
      "content": [
        {
          "name": "佳大银湾",
          "address": "海珠区滨江东路与怡海路交界(珠江泳场旁)",
          "uid": "b7021bf891c05f87f4e73bfa",
          "telephone": "(020)89030888",
          "location": {
            "lng": 113.29651841226,
            "lat": 23.108973066232
          }
        },
        {
          "name": "佳大银湾(东门)",
          "address": "仲恺路686号附近",
          "uid": "c246070e682800aad42ce214",
          "location": {
            "lng": 113.29679706663,
            "lat": 23.108795566922
          }
        },
        {
          "name": "佳大银湾-停车场",
          "address": "东翠北街4号附近",
          "uid": "b78724fb4f1654a071210ba4",
          "location": {
            "lng": 113.2960574917,
            "lat": 23.109027080488
          }
        },
        {
          "name": "佳大银湾停车场(警安路)",
          "address": "广东省广州市海珠区素社街",
          "uid": "cc84232f15ea3e359d95de10",
          "location": {
            "lng": 113.29643729527,
            "lat": 23.108903761754
          }
        },
        {
          "name": "佳大银湾地上停车场",
          "address": "广东省广州市海珠区仲恺路642-706附近",
          "uid": "f9fb988144653c323010afc3",
          "location": {
            "lng": 113.29710823966,
            "lat": 23.109187627348
          }
        },
        {
          "name": "佳大银湾停车场入口",
          "address": "广州市海珠区",
          "uid": "49445bbad8715cc400ec0189",
          "location": {
            "lng": 113.29652892243,
            "lat": 23.109427865582
          }
        },
        {
          "name": "佳大银湾停车场出口",
          "address": "广州市海珠区",
          "uid": "dc28336951f3eb3c8c55ec27",
          "location": {
            "lng": 113.29707069049,
            "lat": 23.108855813671
          }
        },
        {
          "name": "俏思当娜皮肤管理会所",
          "address": "怡海路192号金鳞台花园一楼商铺(海联路总站对面，近佳大银湾河边)",
          "uid": "d73190114ed5ee90c61e51ed",
          "telephone": "(020)29832289,18988916558",
          "location": {
            "lng": 113.29705793455,
            "lat": 23.108468239622
          }
        },
        {
          "name": "颐然美塑身美颜连锁(江海路分店)",
          "address": "宝岗大道江海路187号(东翠花园，佳大银湾)",
          "uid": "b1d232351249b32dc1f1cf95",
          "telephone": "18002218505",
          "location": {
            "lng": 113.29542418632,
            "lat": 23.108264480255
          }
        }
      ]
    }
  }
}