{
  "status": 0,
  "message": "ok",
  "type": 1,
  "info": {
    "copyright": {
      "text": "@2016 Baidu - Data",
      "imageUrl": "http://api.map.baidu.com/images/copyright_logo.png"
    }
  },
  "result": {
    "originInfo": {
      "area_id": 257,
      "wd": "广东省广州市天河区平江路1号",
      "uid": ""
    },
    "destinationInfo": {
      "area_id": 257,
      "wd": "平江路",
      "uid": ""
    },
    "origin": {
      "cityName": "广州市",
      "listType": 0,
      "content": [
        {
          "name": "明燕府",
          "address": "珠江新城平江路平苑街1号107铺(潭村地铁站B出口左转170米)",
          "uid": "bb2a624d5f99b4604f6d4653",
          "telephone": "(020)28382951",
          "location": {
            "lng": 113.35247754551,
            "lat": 23.121505280289
          }
        },
        {
          "name": "新宝堂新会陈皮(天河店)",
          "address": "平江路平苑街1号105房",
          "uid": "4fac6d0f361b64cfeddfca39",
          "telephone": "(020)28382982",
          "location": {
            "lng": 113.35242373701,
            "lat": 23.12136701675
          }
        },
        {
          "name": "Hamigo cafe",
          "address": "平江路平苑街1号103",
          "uid": "de5af4067b26be68e60738c4",
          "telephone": "(020)28062021",
          "location": {
            "lng": 113.35398499199,
            "lat": 23.117249123516
          }
        }
      ]
    },
    "destination": {
      "cityName": "广州市",
      "listType": 0,
      "content": [
        {
          "name": "平江路",
          "address": "广东省广州市天河区",
          "uid": "2e8a141a3f2fe5a796ec8427",
          "location": {
            "lng": 113.35424038024,
            "lat": 23.122948979001
          }
        },
        {
          "name": "平江路/平月路(路口)",
          "address": "广东省广州市天河区",
          "uid": "680fb7038f37269d8bb98844",
          "location": {
            "lng": 113.35402361912,
            "lat": 23.119968669056
          }
        },
        {
          "name": "平江路/潭村路(路口)",
          "address": "广东省广州市天河区",
          "uid": "3da907f3e2ab7352b220a886",
          "location": {
            "lng": 113.3542773006,
            "lat": 23.12294823119
          }
        },
        {
          "name": "花城大道与平江路交叉口",
          "address": "广东省广州市天河区",
          "uid": "e9f6045666ce1271f7b91698",
          "location": {
            "lng": 113.35435832776,
            "lat": 23.122824842302
          }
        },
        {
          "name": "临江大道与平江路交叉口",
          "address": "广东省广州市天河区",
          "uid": "af251417f061f72c4d5547f5",
          "location": {
            "lng": 113.35381341563,
            "lat": 23.117031999524
          }
        },
        {
          "name": "平江路与平苑街交叉口",
          "address": "广东省广州市天河区",
          "uid": "a83c52dcce8a3528b320a896",
          "location": {
            "lng": 113.3540900039,
            "lat": 23.120903284444
          }
        },
        {
          "name": "珠光·新城御景2期销售中心",
          "address": "广州市天河区平江路",
          "uid": "50a7f7760948421881a12efc",
          "location": {
            "lng": 113.35403143438,
            "lat": 23.121746742589
          }
        },
        {
          "name": "一嗨租车(潭村站C出口送车点)",
          "address": "花城大道与平江路交叉口东行40米路南",
          "uid": "d308edf34758f683a20464bb",
          "telephone": "18127847122",
          "location": {
            "lng": 113.35466788383,
            "lat": 23.122727128192
          }
        },
        {
          "name": "明燕府",
          "address": "珠江新城平江路平苑街1号107铺(潭村地铁站B出口左转170米)",
          "uid": "bb2a624d5f99b4604f6d4653",
          "telephone": "(020)28382951",
          "location": {
            "lng": 113.35247754551,
            "lat": 23.121505280289
          }
        },
        {
          "name": "新宝堂新会陈皮(天河店)",
          "address": "平江路平苑街1号105房",
          "uid": "4fac6d0f361b64cfeddfca39",
          "telephone": "(020)28382982",
          "location": {
            "lng": 113.35242373701,
            "lat": 23.12136701675
          }
        }
      ]
    }
  }
}