{
  "status": 0,
  "message": "ok",
  "type": 1,
  "info": {
    "copyright": {
      "text": "@2016 Baidu - Data",
      "imageUrl": "http://api.map.baidu.com/images/copyright_logo.png"
    }
  },
  "result": {
    "originInfo": {
      "area_id": 257,
      "wd": "华丰大厦",
      "uid": ""
    },
    "destinationInfo": {
      "area_id": 257,
      "wd": "中山大学光华口腔医学院附属口腔医院",
      "uid": ""
    },
    "origin": {
      "cityName": "广州市",
      "listType": 0,
      "content": [
        {
          "name": "华丰大厦",
          "address": "越秀越秀区新河浦路",
          "uid": "153ff8987d7493067069d3e0",
          "location": {
            "lng": 113.29991966641,
            "lat": 23.125453208527
          }
        },
        {
          "name": "华丰大厦",
          "address": "钟灵北路49",
          "uid": "6eb127da8ed32f134054d744",
          "location": {
            "lng": 113.32237999907,
            "lat": 22.982618991212
          }
        },
        {
          "name": "华丰大厦-南2门",
          "address": "新河浦路68号",
          "uid": "43eea1701b19f1c7f4231016",
          "location": {
            "lng": 113.30010417836,
            "lat": 23.125338047743
          }
        },
        {
          "name": "华丰大厦-南1门",
          "address": "广东省广州市越秀区",
          "uid": "43f19923c5e6e70a5b3ac8a3",
          "location": {
            "lng": 113.29963598153,
            "lat": 23.125505388128
          }
        },
        {
          "name": "华丰大厦-停车场",
          "address": "广州市越秀区",
          "uid": "286ccc85f2b02907a20464cc",
          "location": {
            "lng": 113.30001282069,
            "lat": 23.125613070806
          }
        },
        {
          "name": "番禺华丰大厦-商铺",
          "address": "钟村钟灵北路",
          "uid": "e4bda3459a8cb26733621241",
          "location": {
            "lng": 113.32239014992,
            "lat": 22.9826238987
          }
        },
        {
          "name": "华丰大厦停车场-出入口",
          "address": "广州市越秀区",
          "uid": "6d3c8c8b7bc40869901fc941",
          "location": {
            "lng": 113.29963499339,
            "lat": 23.125504391066
          }
        },
        {
          "name": "翩翩女孩",
          "address": "钟灵北路华丰大厦附近",
          "uid": "6e54c2a4c15842ef3310af56",
          "location": {
            "lng": 113.32234424651,
            "lat": 22.982448726218
          }
        },
        {
          "name": "玫琳凯授权经销商工作室(14543)",
          "address": "钟灵北路华丰大厦2楼209室",
          "uid": "d0c468ecc9f033bc2b3a9ff2",
          "telephone": "13922770529",
          "location": {
            "lng": 113.32237407025,
            "lat": 22.982618159435
          }
        },
        {
          "name": "婷美小屋（钟村店）",
          "address": "番禺区钟村街钟灵大道华丰大厦一层5号",
          "uid": "98295436620ce92ea8f0cdba",
          "telephone": "(020)31062108",
          "location": {
            "lng": 113.32237398042,
            "lat": 22.982617993079
          }
        },
        {
          "name": "X-NEST密室风云",
          "address": "钟村街钟灵大道华丰大厦2楼211号",
          "uid": "644b03e022db6c4eb020a858",
          "telephone": "(020)31043641,15211174353",
          "location": {
            "lng": 113.32245599572,
            "lat": 22.982618991212
          }
        },
        {
          "name": "浪漫巴黎婚纱影楼",
          "address": "番禺区钟灵北路华丰大厦旁",
          "uid": "bd960861446e4f83077ce893",
          "location": {
            "lng": 113.32244395842,
            "lat": 22.982956858869
          }
        },
        {
          "name": "广隆蛋挞王",
          "address": "钟灵北路东，华丰大厦旁",
          "uid": "8277a0c8d8ac0cc1c4f02521",
          "location": {
            "lng": 113.32247530928,
            "lat": 22.982755402678
          }
        },
        {
          "name": "蓝玺美容培训机构",
          "address": "钟灵北路华丰大厦1楼23号",
          "uid": "112edb8bc9a0b6d28f55ec86",
          "telephone": "(020)84516251",
          "location": {
            "lng": 113.32237407025,
            "lat": 22.982618159435
          }
        },
        {
          "name": "和友文具店",
          "address": "毓秀东路华丰大厦北",
          "uid": "976b1969d6e16b81704b8725",
          "telephone": "(020)84771477",
          "location": {
            "lng": 113.32304097226,
            "lat": 22.983387884265
          }
        },
        {
          "name": "X密室风云",
          "address": "钟村街钟灵大道华丰大厦2楼211号",
          "uid": "a0080eda810bb73c631809bc",
          "telephone": "15211174353",
          "location": {
            "lng": 113.32239203636,
            "lat": 22.982611921102
          }
        },
        {
          "name": "停车场(华丰大厦南)",
          "address": "钟灵北路49附近",
          "uid": "750fae32ebc86df45d17c31f",
          "location": {
            "lng": 113.32243443638,
            "lat": 22.982467191704
          }
        },
        {
          "name": "广州市黄埔区华丰汽车服务中心",
          "address": "骊丰大厦C座附近",
          "uid": "a17f9664fc1e886bafee7a31",
          "location": {
            "lng": 113.44842160445,
            "lat": 23.122213380118
          }
        }
      ]
    },
    "destination": {
      "cityName": "广州市",
      "listType": 0,
      "content": [
        {
          "name": "中山大学光华口腔医学院附属口腔医院",
          "address": "越秀区陵园西路56号(中山二三路)",
          "uid": "db1f39d499765876f5c59cc4",
          "telephone": "(020)87777979",
          "location": {
            "lng": 113.28966101749,
            "lat": 23.136274967882
          }
        },
        {
          "name": "中山大学光华口腔医学院 附属口腔医院东院",
          "address": "广东省广州市天河区东圃大马路3号-7",
          "uid": "cc788fde0a35248a88fc06eb",
          "location": {
            "lng": 113.4094944335,
            "lat": 23.126642283475
          }
        },
        {
          "name": "中山大学光华口腔医学院附属口腔医院(北区北门)",
          "address": "东风东路562号",
          "uid": "0b4f59c36ed266fa24e0a00a",
          "location": {
            "lng": 113.28980815993,
            "lat": 23.137217527238
          }
        },
        {
          "name": "中山大学光华口腔医学院附属口腔医院停车场-出入口",
          "address": "广州市越秀区",
          "uid": "21b6fc59a9137a6b100daa06",
          "location": {
            "lng": 113.28954190218,
            "lat": 23.135934249095
          }
        },
        {
          "name": "中山大学光华口腔医学院附属口腔医院特诊中心",
          "address": "广州市天河区华夏路49号津滨腾越大厦3楼",
          "uid": "495384178453571cb9df8fc0",
          "location": {
            "lng": 113.32715970302,
            "lat": 23.132151472317
          }
        },
        {
          "name": "中山大学光华口腔医学院附属口腔医院珠江新城口腔医疗门诊",
          "address": "广州市天河区",
          "uid": "67861454b1634db416c90599",
          "location": {
            "lng": 113.32746243198,
            "lat": 23.131734803616
          }
        },
        {
          "name": "中山大学光华口腔医学院附属口腔医院-停车场",
          "address": "广州市越秀区陵园西路56号中山大学光华口腔医学院附属口腔医院",
          "uid": "dea6aaaafbda64a328d7ab28",
          "location": {
            "lng": 113.28960999374,
            "lat": 23.13597612241
          }
        },
        {
          "name": "中山大学光华口腔医学院附属口腔医院-口腔老年门诊",
          "address": "东风东路572号之1",
          "uid": "d1c35b0a84f43313b34c491c",
          "telephone": "020-83830098",
          "location": {
            "lng": 113.29032243984,
            "lat": 23.137218773455
          }
        },
        {
          "name": "中山大学光华口腔医学院附属口腔医院-西1门",
          "address": "广州市越秀区",
          "uid": "9acfaeb5040492018836ee92",
          "location": {
            "lng": 113.28954693269,
            "lat": 23.135991243325
          }
        },
        {
          "name": "中山大学光华口腔医学院附属口腔医院-综合门诊",
          "address": "广州市越秀区陵园西路56号",
          "uid": "f69f418f1ac1ad2fca29152c",
          "telephone": "020-87678799",
          "location": {
            "lng": 113.28932082919,
            "lat": 23.136613857998
          }
        },
        {
          "name": "中山大学光华口腔医学院附属口腔医院-口腔全科门诊",
          "address": "东风东路572号之1",
          "uid": "a10aca5c05ad60fe25e0a0b0",
          "telephone": "020-87777123,(020)29055511",
          "location": {
            "lng": 113.29032243984,
            "lat": 23.137218690374
          }
        },
        {
          "name": "中山大学光华口腔医学院附属口腔医院-西2门",
          "address": "广州市越秀区",
          "uid": "687c2aa6aaaf5f23e60738dd",
          "location": {
            "lng": 113.28956498863,
            "lat": 23.136275217127
          }
        },
        {
          "name": "港海渔村",
          "address": "陵园西路13号2楼(中山大学口腔医学院附属光华口腔医院)",
          "uid": "0e78f205d3198bf69f95de75",
          "telephone": "(020)83764698",
          "location": {
            "lng": 113.28912176469,
            "lat": 23.135602336147
          }
        },
        {
          "name": "中山大学光华口腔医学院附属口腔医院-口腔急诊",
          "address": "陵园西路56",
          "uid": "1fdf371704c6d4c5c1f1cfc7",
          "telephone": "(020)83870175",
          "location": {
            "lng": 113.28966200563,
            "lat": 23.136280949769
          }
        }
      ]
    }
  }
}