{
  "status": 0,
  "message": "ok",
  "type": 1,
  "info": {
    "copyright": {
      "text": "@2016 Baidu - Data",
      "imageUrl": "http://api.map.baidu.com/images/copyright_logo.png"
    }
  },
  "result": {
    "originInfo": {
      "area_id": 257,
      "wd": "广东省广州市海珠区逸景路300",
      "uid": ""
    },
    "destinationInfo": {
      "area_id": 257,
      "wd": "广州市老干部活动中心",
      "uid": ""
    },
    "origin": {
      "cityName": "广州市",
      "listType": 0,
      "content": [
        {
          "name": "铂涛大厦",
          "address": "广东省广州市海珠区新滘西路300号",
          "uid": "d947c88f153e0f375bf6be0f",
          "location": {
            "lng": 113.29335934127,
            "lat": 23.080561763829
          }
        },
        {
          "name": "原力酒店",
          "address": "广州海珠区新港中路452号（赤岗地铁站C1出口直走300米左右）",
          "uid": "0e2870b4d261b227b54f5405",
          "telephone": "(020)84147899",
          "location": {
            "lng": 113.33563099347,
            "lat": 23.101803018804
          }
        },
        {
          "name": "喆啡酒店",
          "address": "广东省海珠区新滘西路300号铂涛集团大楼",
          "uid": "4d85d96fd76b726f2b06ce6f",
          "location": {
            "lng": 113.2931109598,
            "lat": 23.080193972155
          }
        },
        {
          "name": "丹尼熊美薪制衣厂",
          "address": "敦和路300号新雅苑",
          "uid": "e3a83fb387a1bbbf5abbbcc6",
          "telephone": "(020)89225528",
          "location": {
            "lng": 113.326999086,
            "lat": 23.091786774842
          }
        },
        {
          "name": "新雅苑-停车场",
          "address": "敦和路300号",
          "uid": "a5ef680f4e7e39d7b9df8f67",
          "telephone": "(020)34121263",
          "location": {
            "lng": 113.32703888093,
            "lat": 23.090946367634
          }
        },
        {
          "name": "东方红印刷厂宿舍",
          "address": "广东省广州市海珠区工业大道中300号",
          "uid": "8b9d9b7388e3fb55f03cba9a",
          "location": {
            "lng": 113.27569973292,
            "lat": 23.083461007105
          }
        },
        {
          "name": "邓老凉茶",
          "address": "敦和路300号新雅苑首层自编1号",
          "uid": "72841201eab72f571f389492",
          "telephone": "15627868855",
          "location": {
            "lng": 113.33210011384,
            "lat": 23.086000390384
          }
        },
        {
          "name": "一号虾馆",
          "address": "敦和路300号之九",
          "uid": "80720a7ababa95486ca3ccca",
          "telephone": "15975588059",
          "location": {
            "lng": 113.32703897076,
            "lat": 23.092051977398
          }
        },
        {
          "name": "第壹面(敦和分店)",
          "address": "广州市海珠区敦和路300号新雅苑首层自编1号",
          "uid": "8148b84cab7cc008eee4a5a6",
          "telephone": "(020)34121983",
          "location": {
            "lng": 113.32688904357,
            "lat": 23.092201906781
          }
        },
        {
          "name": "喆啡馆james joyce cafe",
          "address": "广州市海珠区新滘西路300号铂涛集团一楼",
          "uid": "a83ee9435781e3cf8f1a89d2",
          "location": {
            "lng": 113.29361203461,
            "lat": 23.080528018466
          }
        },
        {
          "name": "金恒纺织",
          "address": "海珠区凤阳街道北七街五凤小学向南300米",
          "uid": "36fdeb93f96d6151d92f28be",
          "telephone": "13922461661",
          "location": {
            "lng": 113.29779104167,
            "lat": 23.089059005767
          }
        },
        {
          "name": "恒益五金",
          "address": "瑞康路300附近",
          "uid": "d7e61e5ce2597ca208f5ebc5",
          "location": {
            "lng": 113.30311269334,
            "lat": 23.09485780629
          }
        },
        {
          "name": "南箕美发",
          "address": "南箕路300号附近",
          "uid": "a29a06ea4f5d3f3b00ff2ddc",
          "location": {
            "lng": 113.27748376766,
            "lat": 23.074549967027
          }
        },
        {
          "name": "逸景翠园(西区西二门)",
          "address": "广东省广州市海珠区广州大道南1028号天雄布市内进300米",
          "uid": "e0801c969971b18d0bccdd87",
          "location": {
            "lng": 113.31083434784,
            "lat": 23.090112271522
          }
        },
        {
          "name": "都市丽人",
          "address": "盈中路与盈丰路交汇处西300米",
          "uid": "b21f396f3a9896dc430245af",
          "location": {
            "lng": 113.30577697766,
            "lat": 23.075283003867
          }
        },
        {
          "name": "铂涛集团",
          "address": "广州市海珠区新滘西路300号",
          "uid": "65d069e0313b1fdef70e77cd",
          "location": {
            "lng": 113.29335934127,
            "lat": 23.08055677683
          }
        },
        {
          "name": "明兴日杂店",
          "address": "南泰路与工业大道中交叉口300米",
          "uid": "420c30ec150d64977369d305",
          "location": {
            "lng": 113.27602195511,
            "lat": 23.087459019854
          }
        },
        {
          "name": "细工坊",
          "address": "海珠区昌岗礼岗路13号(昌岗地铁站E出口走300米，左转直行300米)",
          "uid": "cd855d64f50da90ced74f8d6",
          "telephone": "13533908074",
          "location": {
            "lng": 113.28268396843,
            "lat": 23.093289970165
          }
        },
        {
          "name": "冠威(逸景翠园店)",
          "address": "海珠区广州大道南1028号天雄布市内进300米(近逸景翠园)",
          "uid": "b31f873e823ac73c82288ab4",
          "location": {
            "lng": 113.32389409301,
            "lat": 23.089033407474
          }
        },
        {
          "name": "德林堂经络养生馆",
          "address": "鹭江东约新街敦和路52号(地铁8号线鹭江D出口，大约300米，江南医院附近)",
          "uid": "2cf9b5a35d6e1799d0ff234d",
          "telephone": "13609073036",
          "location": {
            "lng": 113.31858977863,
            "lat": 23.097612881279
          }
        },
        {
          "name": "安然纳米汗蒸馆(东晓南店)",
          "address": "侨港路宝通街A座101号（地铁东晓南站C2出口直走约300米对面7-ELEVEN拐角处，75路，761路公交侨城花园总站）",
          "uid": "55327ac5d85fd985d1f49ef6",
          "telephone": "18928943401",
          "location": {
            "lng": 113.29702757182,
            "lat": 23.076291993083
          }
        },
        {
          "name": "童幻世界儿童乐园",
          "address": "上渡路55-66号金豪商场一楼（鹭江地铁B出口左拐走300米）",
          "uid": "4067b5abc0e51314f4eafca8",
          "telephone": "13719471300",
          "location": {
            "lng": 113.31452296993,
            "lat": 23.107326950461
          }
        },
        {
          "name": "1928音乐餐吧(滨江路店)",
          "address": "怡乐路37号富力银禧花园首层(珠江泳场对面怡乐路直入300米)",
          "uid": "e7ec5e4b8538b9031ce999bb",
          "telephone": "(020)34248898,(020)89561686",
          "location": {
            "lng": 113.29831295718,
            "lat": 23.106981171315
          }
        },
        {
          "name": "任性川式餐吧",
          "address": "江南路紫龙大街24号之三(江南西地铁A出口沿紫丹大街直入300米)",
          "uid": "eba54a1a18b578f4d4851f22",
          "telephone": "(020)84138099",
          "location": {
            "lng": 113.27786159496,
            "lat": 23.103371751668
          }
        },
        {
          "name": "小乔寿司(上渡路店)",
          "address": "微信号：xiaoqiao7881上渡路175号之6号铺(鹭江地铁站300米左右)",
          "uid": "1c727b402671065a5bf6be0d",
          "telephone": "15920447881",
          "location": {
            "lng": 113.31584797056,
            "lat": 23.104991988856
          }
        },
        {
          "name": "广东广物福恒汽车贸易有限公司",
          "address": "东晓南路瑞宝路段东晓南地铁站b出口往北300米",
          "uid": "1eeed546b84b97ebb5147f04",
          "telephone": "(020)34102088",
          "location": {
            "lng": 113.29864847428,
            "lat": 23.080592932568
          }
        },
        {
          "name": "馨怡佳休闲中心",
          "address": "新港西路鹭江西街13号天悦酒店二楼（鹭江牌坊直入300米）",
          "uid": "7174b78af28ea3b3f942b2f9",
          "telephone": "(020)89638898",
          "location": {
            "lng": 113.31432345627,
            "lat": 23.09875417083
          }
        },
        {
          "name": "珠江鲜花店",
          "address": "江南大道中251号距昌岗站约300米",
          "uid": "a187cea46685398c0ab93a26",
          "telephone": "(020)84404633,13725379709",
          "location": {
            "lng": 113.28243001746,
            "lat": 23.101403041729
          }
        },
        {
          "name": "时代·俪人(市二宫店)",
          "address": "江南大道中100号中广大厦11楼04房人寿保险公司楼上（市二宫地铁E出口右转直走300米即到）",
          "uid": "0966362f406ce0e78b2fb50a",
          "telephone": "18819156481",
          "location": {
            "lng": 113.27727500146,
            "lat": 23.109500992319
          }
        },
        {
          "name": "5號花園",
          "address": "江南西路紫龙大街24号之一(江南西地铁A出口沿紫丹大街直入300米)",
          "uid": "88cdd9b2714f84016268582e",
          "telephone": "(020)22093900",
          "location": {
            "lng": 113.27784452715,
            "lat": 23.103487513231
          }
        },
        {
          "name": "土茯苓鸽餐厅(海珠店)",
          "address": "上冲南约商业街七号(海珠湖公园北门地铁大唐B出口往西直行300米,自驾车导航到“花园汽车出租公司”)",
          "uid": "5f225c041155f37c1129359c",
          "telephone": "(020)34480166",
          "location": {
            "lng": 113.3246165103,
            "lat": 23.083364261403
          }
        },
        {
          "name": "威风时代游艺城",
          "address": "江南大道南1198号二楼（地铁东晓南站C2出口前行三百米红绿灯转左即到）",
          "uid": "e8d4f1e63564d16fa6da3985",
          "telephone": "(020)34397387",
          "location": {
            "lng": 113.29772187215,
            "lat": 23.073756414144
          }
        },
        {
          "name": "川江鱼庄",
          "address": "艺苑南路300号(客村地铁站D出口)",
          "uid": "24cf5acf363d1aa7ab0dd8ae",
          "telephone": "13060666661",
          "location": {
            "lng": 113.32849197993,
            "lat": 23.097735047017
          }
        },
        {
          "name": "江南果道烘焙坊(江南西三店)",
          "address": "江南西路93-99号1号(江南西地铁A出口、江南新地K出口直行300米)",
          "uid": "724542631f2be54d047ce8a5",
          "telephone": "(020)84246249",
          "location": {
            "lng": 113.27518895641,
            "lat": 23.099887971163
          }
        },
        {
          "name": "海军职工大学广州培训部",
          "address": "新港西路177号环海大厦2楼/3楼300室",
          "uid": "3ce3b48a13b5296d7402695d",
          "location": {
            "lng": 113.31363975595,
            "lat": 23.102031386641
          }
        },
        {
          "name": "湘宾湘菜馆",
          "address": "东晓南尚领雅筑（又名尚领时代）尚领一街8号。（东晓南地铁C1出口往前300米的瑞宝一社村口直入到尚领雅筑小区底）（丰瀛广场旁）",
          "uid": "fb9e4a2cac2fd8d8fd0eb027",
          "telephone": "(020)34037680",
          "location": {
            "lng": 113.29504707766,
            "lat": 23.079010050082
          }
        },
        {
          "name": "优品造型(市二店)",
          "address": "江南大道中100号中广大厦1104房(市二宫地铁E出口右转300米)",
          "uid": "ce67668f10eb203fbd4842fa",
          "telephone": "13250245386",
          "location": {
            "lng": 113.27727527095,
            "lat": 23.109501740206
          }
        },
        {
          "name": "浪奇(联星经济发展区4号楼西)",
          "address": "南泰百货批发市场300",
          "uid": "eaffd788c084d1b2d518b7b3",
          "telephone": "(020)84263422,(020)84357859,13682200643",
          "location": {
            "lng": 113.28087073876,
            "lat": 23.087960684957
          }
        },
        {
          "name": "娇俏儿美容养生",
          "address": "江燕北路海棠花园29铺(地铁江泰站步行约300米即可)",
          "uid": "f8e14591e8233cd2cafa5f38",
          "telephone": "15918666389",
          "location": {
            "lng": 113.28000998242,
            "lat": 23.082581981709
          }
        },
        {
          "name": "尊龙(华海店)",
          "address": "江南大道中232号华海大厦1楼(富力海珠城左手边直走300米)",
          "uid": "fc7675243fe4e7e34e776e0c",
          "telephone": "15521264343",
          "location": {
            "lng": 113.2814901204,
            "lat": 23.10032875701
          }
        },
        {
          "name": "wish cake蛋糕工作室",
          "address": "江南大道中110号海逸购物商场82、83号铺(市二宫地铁站E出口右转300米)",
          "uid": "1c30b53221a928792e47331a",
          "telephone": "13763308463",
          "location": {
            "lng": 113.27784102376,
            "lat": 23.108116978887
          }
        },
        {
          "name": "Banana 美妆咖啡",
          "address": "穗花新村2巷3号105(江南西地铁站C出口富力海珠城对面沿河涌直入300米)",
          "uid": "cd7a892fb35c80443210af5d",
          "telephone": "13642686678,13824485480",
          "location": {
            "lng": 113.28328098227,
            "lat": 23.102683994603
          }
        },
        {
          "name": "回忆其味枫灜汇店",
          "address": "丰赢广场(地铁距东晓南站C2出口直走到十字路口右转后300米就看到枫瀛汇,上2楼)",
          "uid": "46ad86ad1d07bca6b35c6a6a",
          "telephone": "18122315857",
          "location": {
            "lng": 113.29340201078,
            "lat": 23.079669004921
          }
        },
        {
          "name": "官洲商业楼",
          "address": "新滘西路300号",
          "uid": "dbfb20d0d5e66797ad080f90",
          "location": {
            "lng": 113.29320429374,
            "lat": 23.079962823918
          }
        },
        {
          "name": "任性川吧",
          "address": "江南西路紫龙大街24号之三(江南西地铁A出口沿紫丹大街直入300米)",
          "uid": "bdb3140381bdb76e9cf7797a",
          "telephone": "(020)84138099",
          "location": {
            "lng": 113.27784452715,
            "lat": 23.103487513231
          }
        },
        {
          "name": "多米造型(市二宫店)",
          "address": "江南大道中100号中广大厦24楼12房(地铁市二宫E出口右手边直行300米)",
          "uid": "b1c3ec4c1dd7c36bfe0eb016",
          "telephone": "18027158963",
          "location": {
            "lng": 113.27727500146,
            "lat": 23.109502986684
          }
        },
        {
          "name": "华尔芝连锁DIY蛋糕烘焙(江南西店)",
          "address": "江南西路81号江南商务楼3楼302单元(江南西地铁站A出口直走300米左侧马路对面，江南新地K出口)",
          "uid": "6af7bbb46f37bca14f3a596e",
          "telephone": "15302270504",
          "location": {
            "lng": 113.27581202111,
            "lat": 23.100089000938
          }
        }
      ]
    },
    "destination": {
      "cityName": "广州市",
      "listType": 0,
      "content": [
        {
          "name": "广州市老干部活动中心",
          "address": "广东省广州市越秀区麓景路1号",
          "uid": "4cf8d24e205ccfe49cf77929",
          "telephone": "(020)83596623",
          "location": {
            "lng": 113.28328098227,
            "lat": 23.147292980749
          }
        },
        {
          "name": "广州市白云区老干部活动中心",
          "address": "广州市越秀区东平大马路8号",
          "uid": "fc76752490f81efa4e776e29",
          "location": {
            "lng": 113.29191405754,
            "lat": 23.1337819097
          }
        },
        {
          "name": "广州市妇联老干部活动中心",
          "address": "广州市越秀区",
          "uid": "3eea34e75804b96a5e17c33a",
          "location": {
            "lng": 113.28216798174,
            "lat": 23.130429039342
          }
        },
        {
          "name": "广州港老干部活动中心",
          "address": "寺右北三街四巷10号",
          "uid": "10ab1124cbc00f74c17da20c",
          "telephone": "(020)87370148",
          "location": {
            "lng": 113.3201707065,
            "lat": 23.127224395378
          }
        },
        {
          "name": "广州市黄埔区老干部活动中心",
          "address": "港湾西四街附近",
          "uid": "8f3dbee69fcb717bb34c4927",
          "location": {
            "lng": 113.45169044837,
            "lat": 23.113697900932
          }
        },
        {
          "name": "广州市花都区老干部活动中心",
          "address": "新华路22",
          "uid": "a61d6cba676633daf72310ac",
          "location": {
            "lng": 113.21468960745,
            "lat": 23.378195570028
          }
        },
        {
          "name": "广州市荔湾区老干部活动中心",
          "address": "塞坝路12附近",
          "uid": "ef773a0f2b3aa33422022012",
          "location": {
            "lng": 113.22407815765,
            "lat": 23.115410247396
          }
        },
        {
          "name": "广州市番禺区老干部活动中心",
          "address": "海傍路69",
          "uid": "0609cdde8ff9c9721d5800ad",
          "telephone": "(020)83596623",
          "location": {
            "lng": 113.3686250362,
            "lat": 22.937635374434
          }
        },
        {
          "name": "广州驻军老干部台球活动中心",
          "address": "黄埔大道中144～152号海景中心E层",
          "uid": "07abf5aabd7d5f49bb17e7ea",
          "location": {
            "lng": 113.36185953808,
            "lat": 23.129919890816
          }
        },
        {
          "name": "广州市工商局老干部活动中心",
          "address": "广州市越秀区较场东路",
          "uid": "50ae18945f07ced698005085",
          "location": {
            "lng": 113.29132979964,
            "lat": 23.132218770629
          }
        },
        {
          "name": "广州市质量技术监督局老干部活动中心",
          "address": "六榕路65号六榕大厦7层南梯",
          "uid": "0da9d85276fd4975c1f1cf91",
          "location": {
            "lng": 113.26665155067,
            "lat": 23.133019119411
          }
        },
        {
          "name": "广州海运集团公司老干部活动中心(西南门)",
          "address": "保安前街9号",
          "uid": "3b0e895f74269d73f11937fe",
          "location": {
            "lng": 113.30668085266,
            "lat": 23.126544904528
          }
        },
        {
          "name": "广州市物价局老干活动中心",
          "address": "下塘西路481号之1",
          "uid": "7271d46dbeb487794afc8dc6",
          "location": {
            "lng": 113.27871489536,
            "lat": 23.159121981238
          }
        },
        {
          "name": "广州市审计局老干部文化活动中心",
          "address": "小北路113号华宇楼5层",
          "uid": "a9d90c1a778189e1b05c6a65",
          "location": {
            "lng": 113.27783796952,
            "lat": 23.139432037636
          }
        },
        {
          "name": "广州市老干部活动中心-停车场",
          "address": "越秀区麓景路1号",
          "uid": "b126ccacbd4c1dc4e812e4a9",
          "location": {
            "lng": 113.28352478238,
            "lat": 23.147142532081
          }
        },
        {
          "name": "老干部活动室",
          "address": "广州市天河区",
          "uid": "e4587f44f2b9bb3c72210b08",
          "location": {
            "lng": 113.36161501932,
            "lat": 23.146239005733
          }
        },
        {
          "name": "老干活动中心",
          "address": "东风西路158号广州国际经贸大厦11层",
          "uid": "14d2541fb9df98a482288a89",
          "location": {
            "lng": 113.26034652396,
            "lat": 23.138325493245
          }
        },
        {
          "name": "广州市新闻出版和广播电视局老干部活动中心",
          "address": "天润路87号广建大厦16层",
          "uid": "18e854e0cf6fb2093586f410",
          "location": {
            "lng": 113.34261307305,
            "lat": 23.14925511148
          }
        },
        {
          "name": "广东省老干部活动中心",
          "address": "广州市越秀区",
          "uid": "d7238f0a9dcc46ed29b97c82",
          "location": {
            "lng": 113.30346024775,
            "lat": 23.132082678453
          }
        },
        {
          "name": "老干活动中心",
          "address": "广东省广州市海珠区新港中路354号珠影大院内11栋",
          "uid": "f987aebfe0094829aecb66f8",
          "location": {
            "lng": 113.32901659034,
            "lat": 23.101394398953
          }
        },
        {
          "name": "永宁街永和老干部活动中心",
          "address": "广州市增城市",
          "uid": "60e75ed12430b38101294f7f",
          "location": {
            "lng": 113.59875006709,
            "lat": 23.184337444498
          }
        },
        {
          "name": "广州铁路(集团)公司老干部活动中心",
          "address": "广州市越秀区执信南路26号",
          "uid": "278a328d53f966b18605bfe8",
          "telephone": "(020)61324481",
          "location": {
            "lng": 113.30314188827,
            "lat": 23.130129183666
          }
        },
        {
          "name": "南航老干部活动中心",
          "address": "广东省广州市白云区松云街8号",
          "uid": "4eb3b533278e0b6c43024537",
          "location": {
            "lng": 113.26511095672,
            "lat": 23.18322496333
          }
        },
        {
          "name": "广东省农垦总局老干活动中心",
          "address": "广东省广州市天河区东莞庄路北街73号",
          "uid": "8d4d7371a4907314276e9832",
          "location": {
            "lng": 113.34174360314,
            "lat": 23.161088754595
          }
        },
        {
          "name": "广东省教育厅老干部活动室",
          "address": "广州市越秀区",
          "uid": "3f64e9b12a010eb581a12e22",
          "location": {
            "lng": 113.27305745709,
            "lat": 23.134096795164
          }
        },
        {
          "name": "广州市工商行政管理局荔湾分局老干活动中心",
          "address": "广州市荔湾区",
          "uid": "663d9bde0b7d5d51081cc73f",
          "location": {
            "lng": 113.23682277724,
            "lat": 23.104416427559
          }
        },
        {
          "name": "棠下街华景东区老干部活动中心",
          "address": "广州市天河区华景路62-68号海锦写字楼1层",
          "uid": "866a606ad1f87667102935d3",
          "location": {
            "lng": 113.36543730927,
            "lat": 23.144220919671
          }
        },
        {
          "name": "棠下街枫叶社区老干部活动室",
          "address": "广东省广州市天河区华景东路206号附近附近",
          "uid": "803065e68737ddc19222e0cb",
          "location": {
            "lng": 113.37273613136,
            "lat": 23.144939947354
          }
        },
        {
          "name": "广东省教育装备中心老干部职工活动中心",
          "address": "广州市越秀区",
          "uid": "234ea63db8165cf6cb213d82",
          "location": {
            "lng": 113.28392246223,
            "lat": 23.130592135951
          }
        },
        {
          "name": "五山街五所社区老干部活动室",
          "address": "广东省广州市天河区东莞庄路114附近",
          "uid": "8a178a14fe4f268eee74f870",
          "location": {
            "lng": 113.34466543164,
            "lat": 23.162060957995
          }
        },
        {
          "name": "新塘街新景社区老干部活动室",
          "address": "广东省广州市天河区西边坑大街上9巷3号附近",
          "uid": "4cd11d79a2983191cae33c3d",
          "location": {
            "lng": 113.41425401541,
            "lat": 23.163831987897
          }
        },
        {
          "name": "广东省老干部大学广东省老干部活动中心停车场-出入口",
          "address": "广州市越秀区",
          "uid": "08dc951eef3e56f9aa0dd8bd",
          "location": {
            "lng": 113.30243034048,
            "lat": 23.132443513508
          }
        },
        {
          "name": "广东省老干部大学广东省老干部活动中心停车场-出入口",
          "address": "广州市越秀区",
          "uid": "835c3a1a42c9611e3fe231b5",
          "location": {
            "lng": 113.30347318335,
            "lat": 23.132293463406
          }
        },
        {
          "name": "广东省老干部大学广东省老干部活动中心停车场",
          "address": "广州市越秀区",
          "uid": "c6cd73bcf555409638e4a650",
          "location": {
            "lng": 113.3032907375,
            "lat": 23.132143994725
          }
        },
        {
          "name": "十局广州分公司",
          "address": "中山一路小东园14号广铁集团老干部活动中心14楼",
          "uid": "823140efa76b50af1ef74dd0",
          "location": {
            "lng": 113.303166951,
            "lat": 23.130299841427
          }
        },
        {
          "name": "老友记饼屋",
          "address": "广州市白云区机场路松云街(南航老干部活动中心)",
          "uid": "d305db1fad5b7627932ca369",
          "telephone": "13539712228",
          "location": {
            "lng": 113.26538700601,
            "lat": 23.183160016399
          }
        }
      ]
    }
  }
}