{
  "status": 0,
  "message": "ok",
  "type": 1,
  "info": {
    "copyright": {
      "text": "@2016 Baidu - Data",
      "imageUrl": "http://api.map.baidu.com/images/copyright_logo.png"
    }
  },
  "result": {
    "originInfo": {
      "area_id": 257,
      "wd": "广东省广州市海珠区青凤大街9号",
      "uid": ""
    },
    "destinationInfo": {
      "area_id": 257,
      "wd": "天河南二路",
      "uid": ""
    },
    "origin": {
      "cityName": "海珠区",
      "listType": 0,
      "content": [
        {
          "name": "江南style休闲心情酒吧",
          "address": "江南西路青凤大街9号首层之三",
          "uid": "09053656da35314042d63ea2",
          "telephone": "(020)84416315",
          "location": {
            "lng": 113.27935799228,
            "lat": 23.101475009436
          }
        },
        {
          "name": "七品小厨",
          "address": "江南西路青凤大街9号首层",
          "uid": "8258da2fb0e7414801294f4c",
          "telephone": "13535305819",
          "location": {
            "lng": 113.27947800589,
            "lat": 23.10147999565
          }
        }
      ]
    },
    "destination": {
      "cityName": "广州市",
      "listType": 0,
      "content": [
        {
          "name": "天河南二路",
          "address": "广东省广州市天河区",
          "uid": "18d73217cc428d06b726559c",
          "location": {
            "lng": 113.34050043815,
            "lat": 23.137427888623
          }
        },
        {
          "name": "六运六街/天河南二路(路口)",
          "address": "广东省广州市天河区",
          "uid": "734b4afc4d42015b90114c8c",
          "location": {
            "lng": 113.33926670536,
            "lat": 23.137241288453
          }
        },
        {
          "name": "六运七街/天河南二路(路口)",
          "address": "广东省广州市天河区",
          "uid": "ef2206d963ccafada0d230a0",
          "location": {
            "lng": 113.33740209262,
            "lat": 23.137344225979
          }
        },
        {
          "name": "天河东路/天河南二路(路口)",
          "address": "广东省广州市天河区",
          "uid": "d5f93c0ea9eb165decdfcab6",
          "location": {
            "lng": 113.3405193924,
            "lat": 23.137266711288
          }
        },
        {
          "name": "天河南二路小区",
          "address": "广东省广州市天河区天河南二路",
          "uid": "46bbff018095e88bffa7786e",
          "location": {
            "lng": 113.33524813566,
            "lat": 23.137633680223
          }
        },
        {
          "name": "天河南二路垃圾转运站",
          "address": "天河南二路1号",
          "uid": "c33c740be43f5283e60738d3",
          "location": {
            "lng": 113.33674902451,
            "lat": 23.137519942394
          }
        },
        {
          "name": "有它小面（天河南二路店）",
          "address": "天河南二路21号宏发大厦(石牌桥B出口)",
          "uid": "a949513eb045ebf5734b87fd",
          "telephone": "(020)28165177",
          "location": {
            "lng": 113.33832402356,
            "lat": 23.137622048894
          }
        },
        {
          "name": "大裕置业(天河南二路)",
          "address": "广州市天河区天河南二路26-3号",
          "uid": "3c862f7abaa10cf18f55ecba",
          "telephone": "020-85510781|020-85515205",
          "location": {
            "lng": 113.33833453373,
            "lat": 23.137176900534
          }
        },
        {
          "name": "柏顿西餐厅(天河南二路店)",
          "address": "天河南二路22号(近创展中心)",
          "uid": "604aba5fe91e3e88725e802c",
          "telephone": "(020)82688663",
          "location": {
            "lng": 113.33754195878,
            "lat": 23.137222013621
          }
        },
        {
          "name": "茗扬甜品(天河南二路店)",
          "address": "广州市天河区",
          "uid": "32e304d96424fa0f15a19020",
          "location": {
            "lng": 113.33936596812,
            "lat": 23.136402747586
          }
        },
        {
          "name": "百分百健身中心(天河南二路)",
          "address": "天河南二路宏发大厦716-717（地铁石牌桥站B出口100米左右）",
          "uid": "a9596d283f2b1d02fb2d61b2",
          "telephone": "13926016311",
          "location": {
            "lng": 113.33832555068,
            "lat": 23.137732047997
          }
        },
        {
          "name": "老鸭粉丝馆（天河南二路店）",
          "address": "天河南二路24号-102房（乔汇大厦旁，嘴刁刁楼下）",
          "uid": "a6c4b4d27289332eeb56fa1a",
          "telephone": "(020)29843149",
          "location": {
            "lng": 113.3385508457,
            "lat": 23.13715338855
          }
        },
        {
          "name": "圣翔麻辣烫（天河南二路店）",
          "address": "广州市天河区",
          "uid": "df7ddbb5d5c4916a3fe23137",
          "telephone": "13168870824",
          "location": {
            "lng": 113.33895346623,
            "lat": 23.136931561502
          }
        },
        {
          "name": "失踪周末咖啡馆(天河南二路店)",
          "address": "天河南二路8号建丰大厦17D、门铃号1703",
          "uid": "7fdf3246d21252b61ce9992d",
          "telephone": "18028689486",
          "location": {
            "lng": 113.33663269395,
            "lat": 23.137270699183
          }
        },
        {
          "name": "老马家牛肉面(天河南二路店)",
          "address": "广州市天河区天河南二路26-4",
          "uid": "04115c97214d9d67b13c8195",
          "telephone": "18697146503",
          "location": {
            "lng": 113.33819700316,
            "lat": 23.137222013621
          }
        },
        {
          "name": "华泰证券(天河南二路)",
          "address": "广州市天河区天河东路65号华侨友谊酒店",
          "uid": "b3671549f09aebee5b109311",
          "telephone": "020-83918288",
          "location": {
            "lng": 113.33995274128,
            "lat": 23.137086092743
          }
        },
        {
          "name": "天河东路与天河南二路交叉口",
          "address": "广东省广州市天河区",
          "uid": "00526ec5871e4d12bfa82264",
          "location": {
            "lng": 113.34043638897,
            "lat": 23.137383274091
          }
        },
        {
          "name": "东北饺子坊(天河南二路店)",
          "address": "广州市天河区天河南二路36号花园大厦1-2楼(华润万家对面)",
          "uid": "631c41573f248f7830f71d94",
          "telephone": "(020)87501711,(020)87571507",
          "location": {
            "lng": 113.33900448998,
            "lat": 23.137132202837
          }
        },
        {
          "name": "广州市交通委员会(天河南二路)",
          "address": "广州市天河区天河南二路1号广州交通信息指挥中心18楼",
          "uid": "9b454ebcb05dc7f288b9884e",
          "telephone": "020-38180396",
          "location": {
            "lng": 113.33635224297,
            "lat": 23.137889236889
          }
        },
        {
          "name": "天河区体育东路小学(天河南二路校区)",
          "address": "广州市天河区天河南二路六运六街9号",
          "uid": "9656f849427dd26608ccddcf",
          "telephone": "020-85510796",
          "location": {
            "lng": 113.33817122179,
            "lat": 23.135526149753
          }
        },
        {
          "name": "家乐缘（天河南二路店）",
          "address": "广州市天河区天河南二路六运七街1号柏信商务中心写字楼",
          "uid": "e96b4420f6bc344082288ac2",
          "telephone": "13434102223",
          "location": {
            "lng": 113.33765703172,
            "lat": 23.136827045109
          }
        },
        {
          "name": "之乐夫(天河南二路分店)",
          "address": "天河中心天河南二路19-21南104铺位",
          "uid": "62d384e8dbfd9f3e2b3a9f52",
          "telephone": "18620772200",
          "location": {
            "lng": 113.33827102354,
            "lat": 23.137415011059
          }
        },
        {
          "name": "茶遇饭后(天河南二路店)",
          "address": "天河南二路26-9号自编102房",
          "uid": "d8053d08faa7121b3b221c45",
          "telephone": "15217312803",
          "location": {
            "lng": 113.33795293355,
            "lat": 23.136879718723
          }
        },
        {
          "name": "西贝莜面村(天河南二路店)",
          "address": "广州市天河区天河南二路34号花园大厦首层",
          "uid": "a1418eb4079b7966eae58282",
          "telephone": "020-87546939",
          "location": {
            "lng": 113.33864741354,
            "lat": 23.137145412752
          }
        },
        {
          "name": "金潮香(天河南二路店)",
          "address": "广州天河区天河南二路36号花园大厦之一(华润万家对面)",
          "uid": "cde9e2c7a81fb0ade81e97fd",
          "telephone": "(020)85260968",
          "location": {
            "lng": 113.33905317814,
            "lat": 23.137128962668
          }
        },
        {
          "name": "厨意饭店（天河南二路店）",
          "address": "广州市天河区天河南二路23-33号丰兴广场1楼(近万佳百货)",
          "uid": "0ed20a1544e9978e56bffff7",
          "telephone": "020-87500355",
          "location": {
            "lng": 113.33958533433,
            "lat": 23.137349293926
          }
        },
        {
          "name": "华辉拉肠(天河南二路店)",
          "address": "广州市天河区天河南二路36号1楼自编2号之一(近华润万家)",
          "uid": "1c50fcf20cd2da418433042b",
          "telephone": "020-87513309",
          "location": {
            "lng": 113.33893541029,
            "lat": 23.137152640819
          }
        },
        {
          "name": "海王星辰健康药房(天河南二路)",
          "address": "天河南二路12",
          "uid": "a74481d667f24d5ff503b8fd",
          "telephone": "(020)87546707",
          "location": {
            "lng": 113.33714158402,
            "lat": 23.137236386665
          }
        },
        {
          "name": "帮得首(天河南二路店)",
          "address": "天河区天河南二路19-21号宏发大厦1楼(近丰兴广场)",
          "uid": "7dcb79d9799af44978f79686",
          "telephone": "(020)85266644",
          "location": {
            "lng": 113.33868406441,
            "lat": 23.137514375967
          }
        },
        {
          "name": "鼎湖山泉(天河南二路店)",
          "address": "广州市天河区天河南二路26-5",
          "uid": "c075f1a2e6cf4c32c51e5114",
          "telephone": "020-87535506",
          "location": {
            "lng": 113.33796092847,
            "lat": 23.137054688022
          }
        },
        {
          "name": "蟹行天下(天河南二路店)",
          "address": "天河南二路56号（兴业银行向北50米）",
          "uid": "ab1c85b8e9c3a21be81e97f2",
          "telephone": "13816712177",
          "location": {
            "lng": 113.33945202579,
            "lat": 23.137793943223
          }
        },
        {
          "name": "芝心芝语(天河南二路店)",
          "address": "天河南二路31号华润万家超市1楼近华侨友谊酒店",
          "uid": "efb630b0117a1a4fc9c3db7e",
          "telephone": "13922727847",
          "location": {
            "lng": 113.33931799861,
            "lat": 23.13736399928
          }
        },
        {
          "name": "周六福(天河南二路店)",
          "address": "广东省广州市天河区天河南二路33号华润万家超市1楼",
          "uid": "fdd787410a6d6e1deaf85329",
          "location": {
            "lng": 113.33921487313,
            "lat": 23.137500750683
          }
        },
        {
          "name": "鞋垫健诺(天河南二路店)",
          "address": "天河区天河南一路22号(近天河城)",
          "uid": "b0876e18a60e1a653ce23126",
          "location": {
            "lng": 113.32936360576,
            "lat": 23.136744295983
          }
        },
        {
          "name": "粤顺粤德(天河南二路分店)",
          "address": "广东省广州市天河区天河南二路19-21号宏发大厦103(近丰兴广场)",
          "uid": "f44609186046db73b01e36e8",
          "telephone": "020-85263003",
          "location": {
            "lng": 113.33841798632,
            "lat": 23.137599035475
          }
        },
        {
          "name": "安利中国经销商(天河南二路)",
          "address": "广东省广州市天河区天河南二路19-21号宏发大厦6层633",
          "uid": "d33f8ba7c534eeec01897214",
          "telephone": "13928767349",
          "location": {
            "lng": 113.33839481003,
            "lat": 23.137515206777
          }
        },
        {
          "name": "西子港式茶餐(天河南二路店)",
          "address": "天河南二路19-21号宏发大厦二楼南区208-209铺",
          "uid": "9c54fd18d863cbad8e772774",
          "telephone": "(020)29808877",
          "location": {
            "lng": 113.3387219729,
            "lat": 23.13750299387
          }
        },
        {
          "name": "广东金叶(天河南二路专营店)",
          "address": "广州市天河区天河南二路34-1",
          "uid": "15a9381086e29ebe14c8f607",
          "telephone": "020-87532793",
          "location": {
            "lng": 113.33858489148,
            "lat": 23.137149151408
          }
        },
        {
          "name": "川街小巷(天河南二路分店)",
          "address": "天河南二路24号自编103号2楼全层",
          "uid": "cdfdbeb7d1d44bab0869d954",
          "location": {
            "lng": 113.33732995868,
            "lat": 23.137180888432
          }
        },
        {
          "name": "爱乐艺术培训中心(天河南二路)",
          "address": "广州市天河区南二路16号103房",
          "uid": "287d70f4916c3fb7f503b853",
          "telephone": "020-87537281",
          "location": {
            "lng": 113.33706352127,
            "lat": 23.137114921939
          }
        },
        {
          "name": "正宗桂林米粉(天河南二路分店)",
          "address": "天河区南二路36号(近东店)",
          "uid": "78266d3c18ba2152d5b74eef",
          "telephone": "(020)28988746",
          "location": {
            "lng": 113.33899451879,
            "lat": 23.137052278664
          }
        },
        {
          "name": "天河花园大厦",
          "address": "广州市天河区天河南二路32号",
          "uid": "becdfc470528d27fadcb663f",
          "location": {
            "lng": 113.33894241707,
            "lat": 23.137048623088
          }
        },
        {
          "name": "广州市新干线实业有限公司(天河南二路)",
          "address": "广州市天河区天河南二路19-21号宏发大厦北103",
          "uid": "26f58b047a669a700bf5eb7a",
          "location": {
            "lng": 113.33831548966,
            "lat": 23.137726066175
          }
        },
        {
          "name": "天河南邮政所",
          "address": "广州市天河区天河南二路8-2号",
          "uid": "0fd12a7237ea22e99f09f7ca",
          "telephone": "020-87596511",
          "location": {
            "lng": 113.33651600406,
            "lat": 23.136887029885
          }
        },
        {
          "name": "天河花园大厦-西门",
          "address": "广州市天河区天河南二路32号",
          "uid": "cd17a02ef380ad767ab55c03",
          "location": {
            "lng": 113.33851482365,
            "lat": 23.13704164426
          }
        },
        {
          "name": "天河花园大厦-正门",
          "address": "广州市天河区天河南二路32号",
          "uid": "669b06bc414bc4172bb97cfd",
          "location": {
            "lng": 113.33913061208,
            "lat": 23.137078283104
          }
        },
        {
          "name": "独家记忆（南二路店）",
          "address": "天河南二路19-21号一楼自编03号铺",
          "uid": "fe7c8a3649fd2739b5147fdd",
          "telephone": "15914388101",
          "location": {
            "lng": 113.3385670152,
            "lat": 23.137128962668
          }
        },
        {
          "name": "天河花园大厦-停车场",
          "address": "广州市天河区天河南二路32号天河花园大厦",
          "uid": "5c1b45fa73b0d71da8059d8f",
          "location": {
            "lng": 113.33853180162,
            "lat": 23.137122482332
          }
        },
        {
          "name": "好吃甜品千层蛋糕(天河南二路店)",
          "address": "天河南二路25号",
          "uid": "a4effaaff250b46e9e9d68a8",
          "telephone": "13660018832",
          "location": {
            "lng": 113.33857501012,
            "lat": 23.137843957867
          }
        },
        {
          "name": "天河花园大厦东塔栋苑",
          "address": "广州市天河区天河南二路",
          "uid": "59834a73a0a1ca71c61b754f",
          "location": {
            "lng": 113.33906252052,
            "lat": 23.137043721292
          }
        }
      ]
    }
  }
}