{
  "status": 0,
  "message": "ok",
  "type": 1,
  "info": {
    "copyright": {
      "text": "@2016 Baidu - Data",
      "imageUrl": "http://api.map.baidu.com/images/copyright_logo.png"
    }
  },
  "result": {
    "originInfo": {
      "area_id": 257,
      "wd": "广东省广州市海珠区荔福路27号",
      "uid": ""
    },
    "destinationInfo": {
      "area_id": 257,
      "wd": "员村山顶街",
      "uid": ""
    },
    "origin": {
      "cityName": "广州市",
      "listType": 0,
      "content": [
        {
          "name": "荔福路27号",
          "address": "海珠区",
          "location": {
            "lng": 113.26832150062,
            "lat": 23.097824718259
          }
        },
        {
          "name": "荔福路21号",
          "address": "海珠区",
          "location": {
            "lng": 113.26778081053,
            "lat": 23.097586370468
          }
        },
        {
          "name": "荔福路33号",
          "address": "海珠区",
          "location": {
            "lng": 113.2688621907,
            "lat": 23.098063065622
          }
        }
      ]
    },
    "destination": {
      "cityName": "广州市",
      "listType": 0,
      "content": [
        {
          "name": "员村山顶街",
          "address": "广东省广州市天河区",
          "uid": "1e7e0817cc428d06b6265537",
          "location": {
            "lng": 113.36385799835,
            "lat": 23.129882834565
          }
        },
        {
          "name": "越和国际建材中心-停车场",
          "address": "广州市天河区员村山顶街",
          "uid": "0cc8cb41eb6f45a8f02d83e6",
          "telephone": "(020)28030608",
          "location": {
            "lng": 113.36375487288,
            "lat": 23.128425502017
          }
        },
        {
          "name": "二恒路社区",
          "address": "广州市员村山顶街",
          "uid": "4ac6677926de06722cb908a8",
          "location": {
            "lng": 113.36437200876,
            "lat": 23.126916971483
          }
        },
        {
          "name": "恒安大厦地下停车场-入口",
          "address": "广州市天河区员村山顶街",
          "uid": "fabf3451f631bdf5fc0eb0ba",
          "location": {
            "lng": 113.36397172383,
            "lat": 23.12961039602
          }
        },
        {
          "name": "越和国际建材中心-西3门",
          "address": "广州市天河区员村山顶街",
          "uid": "38a6692e9d6e838c2b201a13",
          "telephone": "(020)28030605",
          "location": {
            "lng": 113.36362560672,
            "lat": 23.12742264187
          }
        },
        {
          "name": "安华卫浴",
          "address": "广东省广州市天河区员村山顶街",
          "uid": "d0ade76f8f3b2d22f7c59c45",
          "telephone": "13751873566,(020)85525411",
          "location": {
            "lng": 113.36360395755,
            "lat": 23.127648971533
          }
        },
        {
          "name": "越和国际建材中心-西1门",
          "address": "广州市天河区员村山顶街",
          "uid": "5c1a1263ef5b80e3f019379a",
          "telephone": "(020)28030608",
          "location": {
            "lng": 113.36374499152,
            "lat": 23.128145333401
          }
        },
        {
          "name": "君源布艺",
          "address": "广州市天河区员村山顶街",
          "uid": "b064df9c7c14bf7d0a5cb3fc",
          "location": {
            "lng": 113.36371004743,
            "lat": 23.128206817667
          }
        },
        {
          "name": "越和国际建材中心-西2门",
          "address": "广州市天河区员村山顶街",
          "uid": "cbba144541f7fd961df74d34",
          "telephone": "(020)28030608",
          "location": {
            "lng": 113.36367537284,
            "lat": 23.127694420211
          }
        },
        {
          "name": "越和国际建材中心管理处",
          "address": "广东省广州市天河区员村山顶街恒隆街1号",
          "uid": "c7f6660cebe68665e9f853d0",
          "location": {
            "lng": 113.36416351205,
            "lat": 23.128761254909
          }
        },
        {
          "name": "恒安大厦-地下停车场",
          "address": "广州市天河区员村山顶街",
          "uid": "457ff3db154fd839a20464a5",
          "location": {
            "lng": 113.36395384755,
            "lat": 23.129602170511
          }
        },
        {
          "name": "新岗栏东大院",
          "address": "员村山顶街与黄埔大道中交叉口北100米",
          "uid": "d05ca4690e67bf1c8f1a895e",
          "location": {
            "lng": 113.36396848993,
            "lat": 23.130744348195
          }
        },
        {
          "name": "天荟公馆",
          "address": "天河区黄埔大道中员村山顶街1号（家乐福旁）",
          "uid": "e86df3434ba0c99108f5ebd8",
          "telephone": "(020)85559888",
          "location": {
            "lng": 113.36338539982,
            "lat": 23.129800247276
          }
        },
        {
          "name": "广东耀南建筑有限公司",
          "address": "广东省广州市天河区员村山顶街1号",
          "uid": "7f17fc00ea8cc70743ab9a52",
          "location": {
            "lng": 113.36332575234,
            "lat": 23.129249470169
          }
        },
        {
          "name": "越和国际建材中心地下停车场-出入口",
          "address": "广州市天河区员村山顶街",
          "uid": "d74db58db07f589ba8f729bc",
          "location": {
            "lng": 113.3637637661,
            "lat": 23.12849355
          }
        },
        {
          "name": "恒安大厦停车场-入口",
          "address": "广州市天河区员村山顶街",
          "uid": "6e3a0623536705c625e0a066",
          "location": {
            "lng": 113.36398070688,
            "lat": 23.129785541083
          }
        },
        {
          "name": "家乐福-员工.厂商入口",
          "address": "广州市天河区员村山顶街",
          "uid": "4c428e4c89012a8d82288a1b",
          "location": {
            "lng": 113.363697022,
            "lat": 23.128161701512
          }
        },
        {
          "name": "超誉停车场",
          "address": "员村山顶隆街1号",
          "uid": "96844ac89fd040f71b94c680",
          "telephone": "(020)85675072",
          "location": {
            "lng": 113.36533175837,
            "lat": 23.129445137966
          }
        },
        {
          "name": "白马花园",
          "address": "天河区员村山顶白马岗街",
          "uid": "38dfcde63f11ae702fb17e4a",
          "location": {
            "lng": 113.361297109,
            "lat": 23.129393873862
          }
        },
        {
          "name": "天一庄",
          "address": "黄埔大道中员村山顶恒隆街33号",
          "uid": "8845f21c3454bb00c16c148a",
          "location": {
            "lng": 113.36427328499,
            "lat": 23.128581704904
          }
        },
        {
          "name": "瑞卡便利租车（广州员村家乐福店）",
          "address": "天河区黄埔大道中员村山顶恒隆街1号（家乐福超旁停车场内）",
          "uid": "cee6a873e77b8c879cf77991",
          "telephone": "18826279016",
          "location": {
            "lng": 113.36511050572,
            "lat": 23.129244900429
          }
        },
        {
          "name": "神州租车(员村便捷店)",
          "address": "广州市天河区黄埔大道中员村山顶恒隆街1号（家乐福超市与君利大酒家之间停车场员村山顶公交站旁）",
          "uid": "b067f8dfbf8b5e664102456f",
          "telephone": "4006166666",
          "location": {
            "lng": 113.36550728727,
            "lat": 23.129420876836
          }
        },
        {
          "name": "天一庄中英文艺术幼儿园",
          "address": "黄埔大道员村山顶恒隆街21号天一庄小区内(员村家乐福楼上)",
          "uid": "b46db519ce3196342806cedc",
          "telephone": "(020)85648313",
          "location": {
            "lng": 113.36435296469,
            "lat": 23.128813931728
          }
        },
        {
          "name": "广州易帆家具有限公司",
          "address": "广州市天河黄埔大道中员村山顶恒隆街11号1903A房",
          "uid": "51359692e95eb362dbd8913a",
          "telephone": "(020)86543729",
          "location": {
            "lng": 113.36466305975,
            "lat": 23.128794406411
          }
        },
        {
          "name": "红樱桃舞蹈中心",
          "address": "天河区员村山顶东璟街一巷5号二楼",
          "uid": "aba8cc9892bb0820276e98d6",
          "telephone": "18825187918,(020)22929498",
          "location": {
            "lng": 113.36710896599,
            "lat": 23.128837029758
          }
        },
        {
          "name": "宽途汽车靓车会洗车维修美容服务中心",
          "address": "黄埔大道中员村山顶恒隆街1号(家乐福旁边)",
          "uid": "3c15f4440403dcb3b2077dc2",
          "telephone": "4006666377",
          "location": {
            "lng": 113.36447953593,
            "lat": 23.128954763181
          }
        },
        {
          "name": "广东车德利汽车有限公司（员村店）",
          "address": "天河区黄埔大道中员村山顶恒隆街1号员村（家乐福隔壁员村山顶停车场内）(家乐福隔壁员村山顶停车场内)",
          "uid": "b4b86abef8e6395dd12dd63c",
          "telephone": "(020)28102209",
          "location": {
            "lng": 113.36511957861,
            "lat": 23.129097090038
          }
        },
        {
          "name": "广州国研生物科技有限公司",
          "address": "广东省广州市天河区员村山顶白马岗街21号艾琳大楼2楼",
          "uid": "c20f99d91185622a74026906",
          "location": {
            "lng": 113.36176000583,
            "lat": 23.129088698324
          }
        },
        {
          "name": "流行美(员村山顶店)",
          "address": "广东省广州市天河区员村山顶恒隆街3号家乐福超市1楼",
          "uid": "4235e98bc44ba223b020a882",
          "telephone": "4000209111",
          "location": {
            "lng": 113.36457026479,
            "lat": 23.129092021775
          }
        },
        {
          "name": "澳斯特门业",
          "address": "员村山顶康湖装饰材料街4号",
          "uid": "6a29721ec8b7764c2e47330b",
          "location": {
            "lng": 113.36500450567,
            "lat": 23.127737459347
          }
        },
        {
          "name": "亮晴眼镜(员村山顶店)",
          "address": "黄埔大道中路恒隆街3号家乐福1层",
          "uid": "c80fd22d3e9426a08a36ee0a",
          "telephone": "(020)85699228",
          "location": {
            "lng": 113.36475001572,
            "lat": 23.128938976772
          }
        },
        {
          "name": "鲷鱼烧与奶茶",
          "address": "黄埔大道中恒隆街3号员村山顶家乐福商场S04(员村)",
          "uid": "13bf8a6b6b5b861aab0dd8f6",
          "telephone": "13543496340",
          "location": {
            "lng": 113.36457224106,
            "lat": 23.129087119685
          }
        },
        {
          "name": "风行牛奶(百兴园店)",
          "address": "天河区员村二横路员村山顶家乐福超市内",
          "uid": "b1c556e851287d15b4265565",
          "location": {
            "lng": 113.36636588767,
            "lat": 23.1263530545
          }
        },
        {
          "name": "第一公主婚纱摄影",
          "address": "员村二横路1号东璟花园F栋21楼2106室(员村文化宫对面地铁5号线C出口公交员村山顶站或员村二横路站下车)",
          "uid": "b26f06de86271a10cd04ef06",
          "telephone": "(020)38818725",
          "location": {
            "lng": 113.36873930066,
            "lat": 23.126204908533
          }
        },
        {
          "name": "大班美容美发(员村分店)",
          "address": "广州市天河区员村二横路(近员村山顶)",
          "uid": "e96b4420e6e3444082288a17",
          "telephone": "(020)85538390",
          "location": {
            "lng": 113.36829706486,
            "lat": 23.127705470802
          }
        },
        {
          "name": "员村康湖装饰材料商业街",
          "address": "员村山顶康湖大街(近越和国际建材中心)",
          "uid": "00f1c7fb9a0cba06c056ac0b",
          "location": {
            "lng": 113.36506127858,
            "lat": 23.127822291271
          }
        },
        {
          "name": "大娘水饺(黄埔大道中路家乐福店)",
          "address": "黄埔大道中路恒隆街3号地下一层YC—A铺(员村山顶公交车站华侨医院天河区政府)",
          "uid": "8bbb7f27590beb501b11d50c",
          "telephone": "(020)88118177",
          "location": {
            "lng": 113.36461904278,
            "lat": 23.129056045414
          }
        },
        {
          "name": "福奈特(员村山顶店)",
          "address": "员村恒隆街3号家乐福(近黄埔大道中)",
          "uid": "bb4b9eaf12e4f8fa7369d379",
          "telephone": "(020)85649123",
          "location": {
            "lng": 113.36457026479,
            "lat": 23.129092021775
          }
        },
        {
          "name": "南熏摄影工作室",
          "address": "员村二横路1号东璟花园E2301(5号线员村地铁站，员村山顶公交站)",
          "uid": "588e13fcc29f06672afc4882",
          "location": {
            "lng": 113.36813123766,
            "lat": 23.128801801106
          }
        }
      ]
    }
  }
}