{
  "status": 0,
  "message": "ok",
  "type": 1,
  "info": {
    "copyright": {
      "text": "@2016 Baidu - Data",
      "imageUrl": "http://api.map.baidu.com/images/copyright_logo.png"
    }
  },
  "result": {
    "originInfo": {
      "area_id": 257,
      "wd": "海锦写字楼",
      "uid": ""
    },
    "destinationInfo": {
      "area_id": 257,
      "wd": "火村(法雨寺)",
      "uid": ""
    },
    "origin": {
      "cityName": "广州市",
      "listType": 0,
      "content": [
        {
          "name": "海锦写字楼",
          "address": "广州市天河区华景路62-68号",
          "uid": "9e562dd89218de847ab55cf9",
          "location": {
            "lng": 113.36543730927,
            "lat": 23.144220919671
          }
        },
        {
          "name": "海锦写字楼",
          "address": "雅墩街4/6号",
          "uid": "96b672aaca88ce74ce04ef04",
          "telephone": "(020)33477266",
          "location": {
            "lng": 113.29197747791,
            "lat": 23.103536211174
          }
        },
        {
          "name": "海锦写字楼(西南门)",
          "address": "雅敦街4、6号",
          "uid": "b1070eee3cff32f16b49f3d2",
          "location": {
            "lng": 113.29192843043,
            "lat": 23.103489424584
          }
        },
        {
          "name": "广州市倩影丽人减肥研究院",
          "address": "广东省广州市天河区华景路62-68海锦写字楼203",
          "uid": "af54730ee19026172bd7abfc",
          "location": {
            "lng": 113.36556989916,
            "lat": 23.14425190731
          }
        },
        {
          "name": "广州市斯蔓俪儿化妆品有限公司",
          "address": "华景路62-68号海锦写字楼288",
          "uid": "3aaaf6efe5607807754ff156",
          "location": {
            "lng": 113.36558184662,
            "lat": 23.144263039597
          }
        },
        {
          "name": "广州市党员干部远程教育终端接收站点",
          "address": "广州市天河区华景路62-68号海锦写字楼1层",
          "uid": "b940a434126de8a9f02d83b6",
          "location": {
            "lng": 113.36543730927,
            "lat": 23.144220919671
          }
        },
        {
          "name": "广州信翼贸易有限公司",
          "address": "华景路62-68号海锦写字楼212",
          "uid": "1678368023b3585d5b109312",
          "telephone": "38736262",
          "location": {
            "lng": 113.36558687713,
            "lat": 23.144265199593
          }
        },
        {
          "name": "广州市宏丹逊网络服务有限公司",
          "address": "华景路62-68号海锦写字楼228",
          "uid": "09f6f64bae7580e56b49f3f9",
          "location": {
            "lng": 113.365585889,
            "lat": 23.144259134989
          }
        },
        {
          "name": "棠下街华景社区文化室",
          "address": "广州市天河区华景路62-68号海锦写字楼1层",
          "uid": "4be6649369dd527e6e20b929",
          "location": {
            "lng": 113.36543730927,
            "lat": 23.144220919671
          }
        },
        {
          "name": "大福童装",
          "address": "广州市天河区华景路62-68号海锦写字楼1层",
          "uid": "df267c26399867c51f3894bd",
          "location": {
            "lng": 113.36597566376,
            "lat": 23.146288269511
          }
        },
        {
          "name": "粤安物业",
          "address": "广州市天河区华景路62-68号海锦写字楼1层",
          "uid": "48c5cb0c5751b47a2fb17ee8",
          "location": {
            "lng": 113.36543730927,
            "lat": 23.144220919671
          }
        },
        {
          "name": "广州矛鑫光电科技有限公司",
          "address": "华景路62-68号海锦写字楼209A",
          "uid": "64285712321d8e72c4f50d15",
          "location": {
            "lng": 113.36558786527,
            "lat": 23.144264119595
          }
        },
        {
          "name": "舞立方（华景店）",
          "address": "华景新城华景路62-68号海锦写字楼二楼268号",
          "uid": "480cdb720ca31c6f30621289",
          "telephone": "13825090415,(020)29079145",
          "location": {
            "lng": 113.36543901605,
            "lat": 23.144215935063
          }
        },
        {
          "name": "广东万禾投资有限公司",
          "address": "广州市天河区华景路62-68号海锦写字楼1层",
          "uid": "548aba54d6e6ef654d2fdfb7",
          "telephone": "020-38761060",
          "location": {
            "lng": 113.36587936541,
            "lat": 23.14509862307
          }
        },
        {
          "name": "广州挪亚广告有限公司",
          "address": "华景路62-68号海锦写字楼218",
          "uid": "c5d301de9779bf5fc6effb2f",
          "location": {
            "lng": 113.36558184662,
            "lat": 23.14426503344
          }
        },
        {
          "name": "棠下街华景社区青少年之家",
          "address": "广州市天河区华景路62-68号海锦写字楼1层",
          "uid": "ab962712cbfc17a09f09f7da",
          "location": {
            "lng": 113.36543730927,
            "lat": 23.144220919671
          }
        },
        {
          "name": "广州市鹏龙电气有限公司",
          "address": "华景路62-68号海锦写字楼216",
          "uid": "2710bbbae3f43a5e276e985b",
          "location": {
            "lng": 113.36558481103,
            "lat": 23.144264119595
          }
        },
        {
          "name": "Ting私家衣柜",
          "address": "广州市天河区华景路62-68号海锦写字楼1层",
          "uid": "1534be6beb501f93c3364413",
          "location": {
            "lng": 113.36543730927,
            "lat": 23.144220919671
          }
        },
        {
          "name": "农升昌烟茶酒",
          "address": "广州市天河区华景路62-68号海锦写字楼1层",
          "uid": "06fbd43676500b74eb1e9769",
          "location": {
            "lng": 113.36543730927,
            "lat": 23.144220919671
          }
        },
        {
          "name": "广州市俊粤通信科技有限公司",
          "address": "华景路62-68号海锦写字楼226",
          "uid": "968f309f3dcdf92874026901",
          "location": {
            "lng": 113.36558687713,
            "lat": 23.144257141147
          }
        },
        {
          "name": "广州斯科比欧文化发展有限公司(舞立方舞蹈培训中心)",
          "address": "华景新城华景路62-68号海锦写字楼二楼268号(华景新城)",
          "uid": "acb32c1eb96947f5c909f016",
          "telephone": "(020)29175505,13825090415",
          "location": {
            "lng": 113.36663789458,
            "lat": 23.146838477378
          }
        },
        {
          "name": "8090CoffeeCake简餐",
          "address": "广州市天河区华景路62-68号海锦写字楼1层",
          "uid": "35ad4b705a7c730fc8213d56",
          "location": {
            "lng": 113.36542320587,
            "lat": 23.144230224271
          }
        },
        {
          "name": "天河区棠下街华景东社区应急的应避难所",
          "address": "广州市天河区华景路62-68号海锦写字楼1层",
          "uid": "1a5f1e411503dd2af4eafccf",
          "location": {
            "lng": 113.36543730927,
            "lat": 23.144220919671
          }
        },
        {
          "name": "明达电力照明工程有限公司广州分公司",
          "address": "华景路62-68号海锦写字楼211C",
          "uid": "35f4ef83c23e2f10c51e51c3",
          "location": {
            "lng": 113.36557987035,
            "lat": 23.144259051913
          }
        },
        {
          "name": "辉正地产总公司",
          "address": "广州市天河区华景路62-68号海锦写字楼226室",
          "uid": "a69dd9ba13817d356cc02c17",
          "telephone": "(020)85560661",
          "location": {
            "lng": 113.36621910455,
            "lat": 23.142119641715
          }
        },
        {
          "name": "新视线美发(华景店)",
          "address": "广州市天河区华景北路255号华景新城海锦写字楼201室(近工商银行)",
          "uid": "8fa14fc390b53877f7eafc09",
          "telephone": "020-38760895",
          "location": {
            "lng": 113.36543730927,
            "lat": 23.144220919671
          }
        },
        {
          "name": "广州市世筑装饰设计有限公司",
          "address": "东晓路雅墩街4-6号海锦写字楼320室",
          "uid": "562515eb692a46c04207c1a4",
          "location": {
            "lng": 113.29194945078,
            "lat": 23.103483358116
          }
        },
        {
          "name": "广州益蓁贸易有限公司",
          "address": "广东省广州市海珠区东晓南路雅墩街海锦写字楼415",
          "uid": "e4b2f2ef0fd278988d1a8958",
          "location": {
            "lng": 113.29201664403,
            "lat": 23.103376072992
          }
        },
        {
          "name": "乐乐舞蹈艺术培训中心",
          "address": "广东省广州市海珠区雅墩街海锦写字楼",
          "uid": "64ba43d77fa28e2dd1f49ef1",
          "telephone": "15975645901",
          "location": {
            "lng": 113.29197298638,
            "lat": 23.103462000821
          }
        },
        {
          "name": "乐通物流",
          "address": "雅敦街海锦写字楼旁",
          "uid": "ee20dcd2c2ca503dca2915fe",
          "location": {
            "lng": 113.29166432861,
            "lat": 23.103344826495
          }
        },
        {
          "name": "广州天律机电科技有限公司",
          "address": "广州市海珠区东晓路雅敦街4,6号东晓大厦海锦写字楼218房",
          "uid": "eb847b5357a05b583a13fd0d",
          "telephone": "13650840661",
          "location": {
            "lng": 113.29197648977,
            "lat": 23.1035262389
          }
        },
        {
          "name": "广州锐想资讯有限公司",
          "address": "华景路62-68号海锦写字楼206",
          "uid": "1a38f8e3be421f575d0d0261",
          "location": {
            "lng": 113.365585889,
            "lat": 23.144263122674
          }
        },
        {
          "name": "立通无线",
          "address": "广州市天河区华景路62-68号海锦写字楼2层",
          "uid": "4bd05a03698cbc9f45572664",
          "location": {
            "lng": 113.36543730927,
            "lat": 23.144220919671
          }
        },
        {
          "name": "广州市励华网络服务有限公司",
          "address": "华景路62-68号海锦写字楼215、224",
          "uid": "edfebf54f0ce5123a10464db",
          "telephone": "85558233",
          "location": {
            "lng": 113.36558193645,
            "lat": 23.144264119595
          }
        },
        {
          "name": "广州翔晖通信科技有限公司",
          "address": "广州市天河区华景路62-68号海锦写字楼2层",
          "uid": "e6c68b7ad48b9c0972455bbc",
          "location": {
            "lng": 113.36543730927,
            "lat": 23.144220919671
          }
        },
        {
          "name": "广州信实交通科技有限公司",
          "address": "广州市天河区华景路62-68号海锦写字楼2层",
          "uid": "915dfc97bde92072bca822ca",
          "telephone": "18620667780",
          "location": {
            "lng": 113.36543730927,
            "lat": 23.144220919671
          }
        },
        {
          "name": "棠下街华景东区老干部活动中心",
          "address": "广州市天河区华景路62-68号海锦写字楼1层",
          "uid": "866a606ad1f87667102935d3",
          "location": {
            "lng": 113.36543730927,
            "lat": 23.144220919671
          }
        },
        {
          "name": "广州精诚网络科技有限公司",
          "address": "华景路62-68号海锦写字楼211B",
          "uid": "1b07b1471e76946c59bbbcf3",
          "location": {
            "lng": 113.36558687713,
            "lat": 23.144265116516
          }
        },
        {
          "name": "广州市宏脉计算机有限公司",
          "address": "广州市天河区华景路62-68号海锦写字楼2层",
          "uid": "e5594e18555de27abca2404a",
          "location": {
            "lng": 113.36543730927,
            "lat": 23.144220919671
          }
        },
        {
          "name": "妈邦亲子会所",
          "address": "华景新城华景路海锦写字楼二楼215即尊宝披萨楼上",
          "uid": "01317068b9e6b96010293525",
          "telephone": "18813204425",
          "location": {
            "lng": 113.36543596181,
            "lat": 23.144215021218
          }
        },
        {
          "name": "眼视光矫正中心",
          "address": "华景路66号华景新城海锦写字楼二楼",
          "uid": "7f892adcd9b51f59e60738d2",
          "telephone": "13795226089",
          "location": {
            "lng": 113.36547099572,
            "lat": 23.144198987396
          }
        },
        {
          "name": "中国体育彩票(华景北专卖店)",
          "address": "广州市天河区华景路62-68号海锦写字楼1层",
          "uid": "21f5606531d2bb987ec876f0",
          "location": {
            "lng": 113.36570698058,
            "lat": 23.144313051801
          }
        },
        {
          "name": "广州长城宽带网络服务有限公司",
          "address": "华景路62-68号海锦写字楼202、208、230-232",
          "uid": "861ef41d4dbe4f92bda24043",
          "location": {
            "lng": 113.36542140926,
            "lat": 23.144183701263
          }
        },
        {
          "name": "佛山市三水健力宝贸易有限公司",
          "address": "广州市天河区华景路62-68号海锦写字楼2层",
          "uid": "3528d452e358b9cbfd0eb0ed",
          "location": {
            "lng": 113.36543730927,
            "lat": 23.144220919671
          }
        },
        {
          "name": "茶之道(华景北路店)",
          "address": "广州市天河区华景路66号华景新城海锦写字楼2楼(工商银行斜对面)",
          "uid": "0dc3d82dced93f7574e5b6ae",
          "telephone": "020-85563325",
          "location": {
            "lng": 113.36544233978,
            "lat": 23.144221002747
          }
        },
        {
          "name": "上品珍云吞面专门店",
          "address": "广州市天河区华景路62-68号海锦写字楼1层",
          "uid": "895b33f86507512cbfa822d3",
          "telephone": "(020)38200244",
          "location": {
            "lng": 113.36560699918,
            "lat": 23.144588533965
          }
        },
        {
          "name": "时间海科学护肤中心(华景店)",
          "address": "华景新城华景路海锦写字楼205室(中山大道BRT华景新城站、南方通信大厦、华南师范大学、岗顶)",
          "uid": "d0f051d7468ca8cfe5e96569",
          "telephone": "(020)38681002",
          "location": {
            "lng": 113.36589301965,
            "lat": 23.145146973434
          }
        },
        {
          "name": "广州市育丰袋业有限公司",
          "address": "东晓路雅墩街4、6号海锦写字楼429(海印桥南)",
          "uid": "ca6522ebfaf44e12e9f853e1",
          "telephone": "(020)84160370",
          "location": {
            "lng": 113.29196642875,
            "lat": 23.103526322002
          }
        },
        {
          "name": "趣香提货点（元魁贸易）",
          "address": "海珠区东晓路雅敦街4、6号海锦写字楼3层自编318房",
          "uid": "83cb990a2da761cb8bf15d25",
          "telephone": "(020)22921362",
          "location": {
            "lng": 113.29200667284,
            "lat": 23.103376156094
          }
        },
        {
          "name": "深圳通海通物流有限公司广州分公司",
          "address": "广州市天河区华景路62-68号海锦写字楼2层",
          "uid": "fe901eb05c6cd5d11b94c627",
          "location": {
            "lng": 113.36543730927,
            "lat": 23.144220919671
          }
        }
      ]
    },
    "destination": {
      "cityName": "广州市",
      "listType": 0,
      "content": [
        {
          "name": "法雨寺",
          "address": "东区岗荔街，火村居委会旁",
          "uid": "006c4183a14624fcb13c813c",
          "location": {
            "lng": 113.50619702162,
            "lat": 23.157368997285
          }
        },
        {
          "name": "火村(法雨寺)",
          "address": "",
          "uid": "3731208f030b729f9e9d6872",
          "location": {
            "lng": 113.50665354048,
            "lat": 23.160019023569
          }
        },
        {
          "name": "火村鼎立源桶装水店",
          "address": "火村丛秀街(法雨寺，火村小学，广州农商银行，东荟城，加速器，火村村委)",
          "uid": "cceaee87b5e3a453cafa5fc7",
          "telephone": "15920376936,13610013630",
          "location": {
            "lng": 113.50632583863,
            "lat": 23.156116151529
          }
        }
      ]
    }
  }
}