{
  "status": 0,
  "message": "ok",
  "type": 1,
  "info": {
    "copyright": {
      "text": "@2016 Baidu - Data",
      "imageUrl": "http://api.map.baidu.com/images/copyright_logo.png"
    }
  },
  "result": {
    "originInfo": {
      "area_id": 257,
      "wd": "中山一立交桥",
      "uid": ""
    },
    "destinationInfo": {
      "area_id": 257,
      "wd": "培智学校",
      "uid": ""
    },
    "origin": {
      "cityName": "广州市",
      "listType": 0,
      "content": [
        {
          "name": "中山一立交桥",
          "address": "广东省广州市天河区",
          "uid": "d2206b1e6219d2b192114cd3",
          "location": {
            "lng": 113.32196291582,
            "lat": 23.135445144543
          }
        },
        {
          "name": "中山一立交",
          "address": "广东省广州市越秀区",
          "uid": "b533ea4a0fc56e414e6d4694",
          "location": {
            "lng": 113.32184999882,
            "lat": 23.135441987415
          }
        },
        {
          "name": "中山一路立交桥",
          "address": "广东省广州市",
          "uid": "663031056cf31073276e98e5",
          "location": {
            "lng": 113.32608667709,
            "lat": 23.133659860225
          }
        },
        {
          "name": "中山一路立交桥/天河立交(路口)",
          "address": "广东省广州市天河区",
          "uid": "22e11407d94cb5b5d5b74e3d",
          "location": {
            "lng": 113.32208221079,
            "lat": 23.135953856443
          }
        },
        {
          "name": "内环路与中山一路立交桥交叉口",
          "address": "广东省广州市天河区",
          "uid": "d23e36b25f5a94eb4e2fdf19",
          "location": {
            "lng": 113.32494016977,
            "lat": 23.134070790139
          }
        },
        {
          "name": "东风东路与中山一路立交桥交叉口",
          "address": "广东省广州市越秀区",
          "uid": "c44801ec7f34c71042e192b2",
          "location": {
            "lng": 113.32011348444,
            "lat": 23.136411969653
          }
        },
        {
          "name": "黄埔大道西与中山一路立交桥交叉口",
          "address": "广东省广州市天河区",
          "uid": "a9c50429b1edf443dbecedfa",
          "location": {
            "lng": 113.32582302443,
            "lat": 23.133766705449
          }
        },
        {
          "name": "酒店广州天悦·史丹尼国际公寓",
          "address": "天河区华强路3号富力盈力大厦南塔11楼1104（中山一立交桥旁）",
          "uid": "f59cdda0b5cef0541df74d19",
          "telephone": "(020)38012202",
          "location": {
            "lng": 113.3218526039,
            "lat": 23.135443898308
          }
        },
        {
          "name": "内环路入口",
          "address": "广州市天河区中山一立交桥",
          "uid": "62fdc1c59bec3954705e803f",
          "location": {
            "lng": 113.32190479545,
            "lat": 23.134366482753
          }
        },
        {
          "name": "7天连锁酒店(广州中山一立交店)",
          "address": "广州市越秀区广州大道中路361-365号(中山一立交桥,男科医院旁)",
          "uid": "3f9337d610dceaaaf7231062",
          "telephone": "(020)37858288",
          "location": {
            "lng": 113.32118695952,
            "lat": 23.134663005536
          }
        },
        {
          "name": "潮州皇都砂锅粥",
          "address": "广州市越秀区中山一路立交桥北侧路西",
          "uid": "bcaebff8bc49954dc8e33c84",
          "telephone": "(020)87384545",
          "location": {
            "lng": 113.32147836983,
            "lat": 23.137258403173
          }
        },
        {
          "name": "内环路(A线)出口(内环路出口)",
          "address": "广州市天河区中山一路立交桥",
          "uid": "cdcfe8a2db47765b8d7727b3",
          "location": {
            "lng": 113.32457276282,
            "lat": 23.134127619004
          }
        },
        {
          "name": "暨南大学明湖苑24栋之一",
          "address": "中山立交桥附近",
          "uid": "e061c49da8cbf733ac31e559",
          "location": {
            "lng": 113.35751066145,
            "lat": 23.136299477002
          }
        }
      ]
    },
    "destination": {
      "cityName": "广州市",
      "listType": 0,
      "content": [
        {
          "name": "培智学校",
          "address": "元岗路自编322号",
          "uid": "dffd631ccd40febc39221c89",
          "telephone": "(020)37086203",
          "location": {
            "lng": 113.3470313887,
            "lat": 23.178092396401
          }
        },
        {
          "name": "培智学校",
          "address": "",
          "uid": "31e89144f000d23ea8f729a3",
          "location": {
            "lng": 113.42541950374,
            "lat": 22.978873443909
          }
        },
        {
          "name": "番禺培智学校",
          "address": "新凌路文边村段10",
          "uid": "7aea43b7c46e68f87c29bdfe",
          "location": {
            "lng": 113.42480766786,
            "lat": 22.979036559982
          }
        },
        {
          "name": "兴华培智学校",
          "address": "鳌鱼岗大街19号",
          "uid": "7c5e480bb2c785b4acb22a89",
          "telephone": "(020)87088007,(020)87088307",
          "location": {
            "lng": 113.33827982693,
            "lat": 23.172464931425
          }
        },
        {
          "name": "越秀区培智学校",
          "address": "海珠南路濠畔街254号后座",
          "uid": "09a31af724a1bec09cf779a5",
          "telephone": "020-81886383",
          "location": {
            "lng": 113.26379287305,
            "lat": 23.122977229639
          }
        },
        {
          "name": "潮汕手工面",
          "address": "燕岭路595号（培智学校对面）",
          "uid": "fffc57f7a9a7d1da88db7342",
          "telephone": "13719191940",
          "location": {
            "lng": 113.34639197483,
            "lat": 23.176098051654
          }
        },
        {
          "name": "电白客家特色猪杂汤",
          "address": "天河客运站元岗路培智学校对面",
          "uid": "a77a65de6b49fce06fa3ccfe",
          "telephone": "(020)36090822",
          "location": {
            "lng": 113.34742799058,
            "lat": 23.178242976016
          }
        },
        {
          "name": "潮汕特色汤粉饭",
          "address": "元岗路595号培智学校对面",
          "uid": "71cbf66f0a12d48b2b06cee1",
          "telephone": "15915734898",
          "location": {
            "lng": 113.34738002106,
            "lat": 23.177844973705
          }
        }
      ]
    }
  }
}