{
  "status": 0,
  "message": "ok",
  "type": 1,
  "info": {
    "copyright": {
      "text": "@2016 Baidu - Data",
      "imageUrl": "http://api.map.baidu.com/images/copyright_logo.png"
    }
  },
  "result": {
    "originInfo": {
      "area_id": 257,
      "wd": "驰加汽车服务中心(江南西店)",
      "uid": ""
    },
    "destinationInfo": {
      "area_id": 257,
      "wd": "广州美术学院(昌岗东路)",
      "uid": ""
    },
    "origin": {
      "cityName": "广州市",
      "listType": 0,
      "content": [
        {
          "name": "驰加汽车服务中心(沙凤新村店)",
          "address": "沙凤新村H栋首层东区(部位:自编30号)",
          "uid": "3da282786367121409a8d451",
          "telephone": "(020)81774667",
          "location": {
            "lng": 113.21467496507,
            "lat": 23.155328901119
          }
        },
        {
          "name": "驰加汽车服务中心(南洲店)",
          "address": "海珠区南洲路怡居街111号首层",
          "uid": "5a56557d375940d4deee8b2d",
          "telephone": "(020)89619789",
          "location": {
            "lng": 113.3038200191,
            "lat": 23.073352944674
          }
        },
        {
          "name": "米其林驰加汽车服务中心(沙河捷龙店)",
          "address": "广园东路2133号大院首层(濂泉路口斜对面)",
          "uid": "af7ac7f284a3b50022026213",
          "telephone": "(020)87634085",
          "location": {
            "lng": 113.31920197384,
            "lat": 23.160895044042
          }
        },
        {
          "name": "驰加汽车服务中心(广园店)",
          "address": "广园东路2133号大院首层（濂泉路口斜对面）",
          "uid": "5d02cd18a3fc6c332dfaa741",
          "telephone": "(020)87791020",
          "location": {
            "lng": 113.31733295939,
            "lat": 23.16204799976
          }
        },
        {
          "name": "驰加汽车服务中心(骏苑店)",
          "address": "番禺区番禺洛浦街东乡村沿沙路水厂路口自编1号首层",
          "uid": "6ff69b55b4300e3776e5b661",
          "telephone": "(020)84582282",
          "location": {
            "lng": 113.29947895773,
            "lat": 23.045128989218
          }
        },
        {
          "name": "驰加汽车服务中心(东方三路店)",
          "address": "天河区天府路东辉南街13-19铺(天河公园西门正对面100米)",
          "uid": "d305db1f8e4a1940932ca33d",
          "telephone": "(020)85611120",
          "location": {
            "lng": 113.36786075787,
            "lat": 23.134837230016
          }
        },
        {
          "name": "驰加汽车服务中心（洛浦街洛溪新城店）",
          "address": "如意二马路2号",
          "uid": "a50391b199a309ec931fc971",
          "telephone": "(020)84582935",
          "location": {
            "lng": 113.30890397913,
            "lat": 23.045246048578
          }
        },
        {
          "name": "驰加汽车服务中心(下塘西路店)",
          "address": "广州市越秀区下塘西路51号",
          "uid": "92e55d93b179aa2be9f853b3",
          "telephone": "(020)83599689",
          "location": {
            "lng": 113.28068559799,
            "lat": 23.152145045599
          }
        },
        {
          "name": "驰加汽车服务中心(大石永英店)",
          "address": "石北工业路附近",
          "uid": "ac294103d6d012355fd4fef9",
          "telephone": "(020)39027805",
          "location": {
            "lng": 113.31897587034,
            "lat": 23.020418931042
          }
        },
        {
          "name": "驰加汽车服务中心(钟村店)",
          "address": "钟村街105国道谢村路段22号",
          "uid": "3a74944a2d8b878e5fbe8619",
          "telephone": "13332871165",
          "location": {
            "lng": 113.31920197384,
            "lat": 22.990352968619
          }
        },
        {
          "name": "驰加汽车服务中心（东圃路店）",
          "address": "中山大道中天河广场正对面",
          "uid": "9c563c50b07c08241d1d115f",
          "telephone": "(020)82314255",
          "location": {
            "lng": 113.40988097436,
            "lat": 23.129213992368
          }
        },
        {
          "name": "驰加汽车服务中心(黄石东路店)",
          "address": "白云区黄石东路540号",
          "uid": "8c090cdfaf9aebaf3904b126",
          "telephone": "(020)36312950",
          "location": {
            "lng": 113.28235797336,
            "lat": 23.210484991037
          }
        },
        {
          "name": "米其林驰加汽车服务中心（沙太店）",
          "address": "白云区沙太中路(近京溪大街)",
          "uid": "c8cba4e7d8af14feae04575b",
          "location": {
            "lng": 113.33916995786,
            "lat": 23.184818976931
          }
        },
        {
          "name": "驰加汽车服务中心(嘉禾街店)",
          "address": "白云区嘉禾街黄边北路569号C1栋1楼C2号",
          "uid": "00226bf1d0a7fab8f13cbaa4",
          "telephone": "(020)36298081",
          "location": {
            "lng": 113.29955800861,
            "lat": 23.226362026824
          }
        },
        {
          "name": "驰加汽车服务中心(南村店)",
          "address": "南村镇兴南路侧板桥中心城区805-6",
          "uid": "b0df9ded85ac49b8d13ce378",
          "telephone": "(020)62319156",
          "location": {
            "lng": 113.38685201431,
            "lat": 23.009009020496
          }
        },
        {
          "name": "驰加汽车服务中心（同和京溪街沙太路店）",
          "address": "沙太中路竹园小区1号",
          "uid": "166628fcd8b3e8b1b64f54cf",
          "telephone": "(020)87266250",
          "location": {
            "lng": 113.33920597991,
            "lat": 23.185076020518
          }
        },
        {
          "name": "驰加汽车服务中心(嘉禾望岗店)",
          "address": "嘉禾街望岗村望岗大道自编188号B栋（嘉禾望岗地铁A出口金煌汽配城13栋）",
          "uid": "3e2fce17fafd39d471455b42",
          "telephone": "(020)62319156",
          "location": {
            "lng": 113.28214857834,
            "lat": 23.240728591862
          }
        },
        {
          "name": "驰加汽车服务中心(广州市好车行店)",
          "address": "广州市动物卫生监督所附近金煌汽配城13栋",
          "uid": "e3d2a9691dcf5ccec61b75a3",
          "telephone": "020-23323685,13631478458",
          "location": {
            "lng": 113.29614759174,
            "lat": 23.239533153538
          }
        },
        {
          "name": "驰加汽车服务中心(广州隆贝昌店)",
          "address": "白云区太和镇大源村第三合作社黄庄商业楼111铺",
          "uid": "4cf8d24e48fe37fd9df779e7",
          "telephone": "(020)87235763",
          "location": {
            "lng": 113.35100396515,
            "lat": 23.243709004873
          }
        },
        {
          "name": "米其林驰加汽车服务中心(天河忠信店)",
          "address": "中山大道中天河广场正对面",
          "uid": "431b8efcde622115353a7162",
          "telephone": "(020)62319156",
          "location": {
            "lng": 113.41530117014,
            "lat": 23.126013722719
          }
        },
        {
          "name": "驰加汽车服务中心（增城新塘镇新墩村店）",
          "address": "广深大道西545号",
          "uid": "607f7695e74dda8046e274e7",
          "telephone": "(020)82799195",
          "location": {
            "lng": 113.56020898784,
            "lat": 23.120469048064
          }
        },
        {
          "name": "驰加汽车服务中心(新塘店)",
          "address": "增城区增城新塘卫深路15号首层(广深大道中91号)",
          "uid": "d7b23fef85dc89aae31103a5",
          "telephone": "(020)82708911",
          "location": {
            "lng": 113.61903003262,
            "lat": 23.127283969062
          }
        },
        {
          "name": "驰加连锁东圃店",
          "address": "中山大道中天河广场正对面",
          "uid": "8e87b274cd0cf9d095f08c23",
          "telephone": "(020)82314255",
          "location": {
            "lng": 113.40989453877,
            "lat": 23.129095843744
          }
        },
        {
          "name": "驰加汽车服务中心一好站汽车服务连锁",
          "address": "一零五国道谢村路段22",
          "uid": "4ea22f5044d84840d3ff23ee",
          "telephone": "(020)34633030",
          "location": {
            "lng": 113.31762697479,
            "lat": 22.993008404933
          }
        },
        {
          "name": "驰加汽车服务中心（番禺大道北店）",
          "address": "番禺区东环路108号领会国际1楼",
          "uid": "a6f4fece2b89e6f6b526558f",
          "telephone": "(020)39219269",
          "location": {
            "lng": 113.39190902518,
            "lat": 22.953364997041
          }
        },
        {
          "name": "驰加汽车服务中心（狮岭镇金狮大道店）",
          "address": "花都区狮岭镇金狮大道西80号",
          "uid": "152b7430eafc4f29cc06a4ce",
          "telephone": "(020)37721706",
          "location": {
            "lng": 113.16445402775,
            "lat": 23.474724050227
          }
        },
        {
          "name": "车友会汽车服务中心(米其林全球连锁驰加店)",
          "address": "广东省广州市花都区凤凰北路32号120-121商铺",
          "uid": "2dd8df34ba72d6de3a13fdeb",
          "telephone": "(020)37760928,13926212429",
          "location": {
            "lng": 113.24087781814,
            "lat": 23.406162604496
          }
        },
        {
          "name": "驰升汽车服务中心(米其林驰加店)",
          "address": "增城区菜园中路73号",
          "uid": "67f66c7494e03fbf88db7325",
          "telephone": "18664644100",
          "location": {
            "lng": 113.83329458143,
            "lat": 23.310652240965
          }
        },
        {
          "name": "广州市天河区明顺汽车维修中心(米其林驰加店)",
          "address": "天河区小新塘合景路16-18号A1栋106",
          "uid": "5f9d1c212b129b9e14c8f62d",
          "telephone": "4000838995",
          "location": {
            "lng": 113.41437798157,
            "lat": 23.162073002507
          }
        }
      ]
    },
    "destination": {
      "cityName": "广州市",
      "listType": 0,
      "content": [
        {
          "name": "广州美术学院(昌岗东路)",
          "address": "海珠区昌岗东路257号(近地铁昌岗站)",
          "uid": "c5bd9a5dca7d3b0708ccdd20",
          "telephone": "(020)84017011",
          "location": {
            "lng": 113.28498803223,
            "lat": 23.09942998115
          }
        },
        {
          "name": "广州美术学院美术馆(昌岗东路)",
          "address": "昌岗东路257号",
          "uid": "3fc4f3f39d98d1264afd3f2f",
          "telephone": "(020)39362149",
          "location": {
            "lng": 113.28486963556,
            "lat": 23.098651286468
          }
        },
        {
          "name": "广州美术学院-继续教育学院",
          "address": "昌岗东路257广州美术学院",
          "uid": "bca5fffcf7464ab9bea2400b",
          "telephone": "020-39362070",
          "location": {
            "lng": 113.28503303733,
            "lat": 23.098879992146
          }
        },
        {
          "name": "广州美术学院宿舍",
          "address": "广东省广州市海珠区昌岗东路257号",
          "uid": "c3f2f1c84ff4ddb2b21e36d6",
          "location": {
            "lng": 113.28499782376,
            "lat": 23.09943031357
          }
        },
        {
          "name": "胡一川美术馆",
          "address": "广州市海珠区昌岗东路257号广州美术学院",
          "uid": "f4460918fe3a3d6ab11e3674",
          "telephone": "(020)84017023",
          "location": {
            "lng": 113.28486864743,
            "lat": 23.098650289204
          }
        },
        {
          "name": "广州美术学院-教育系",
          "address": "昌岗东路257广州美术学院",
          "uid": "4d135ce898c6e0cdd0ff237b",
          "location": {
            "lng": 113.28530702052,
            "lat": 23.100210499563
          }
        },
        {
          "name": "广州美术学院-附属中等美术学校",
          "address": "昌岗东路257号广州美术学院",
          "uid": "04bdf4a3f9312131354aae07",
          "location": {
            "lng": 113.28683746361,
            "lat": 23.100640896329
          }
        },
        {
          "name": "广州美术学院-南门",
          "address": "广州市海珠区昌岗东路257",
          "uid": "c9dac30e07a0eb72b8df8fae",
          "location": {
            "lng": 113.28528159847,
            "lat": 23.098556795671
          }
        },
        {
          "name": "广州美术学院-停车场",
          "address": "海珠区昌岗东路257号",
          "uid": "75036835704356d25e0d02fb",
          "telephone": "(020)84017011",
          "location": {
            "lng": 113.28511666958,
            "lat": 23.098576574753
          }
        },
        {
          "name": "广州美术学院-设计教学综合大楼",
          "address": "广州市海珠区昌昌岗东路",
          "uid": "f52ff45ab892e750e0110366",
          "location": {
            "lng": 113.28643538207,
            "lat": 23.099639155881
          }
        },
        {
          "name": "广州例外服饰有限公司",
          "address": "广东省广州市海珠区昌岗东路257号广州美术学院新设计大楼12楼",
          "uid": "c2b581ba7b73770b9222e089",
          "location": {
            "lng": 113.28654811941,
            "lat": 23.098911322799
          }
        },
        {
          "name": "广州力凯展览策划有限公司",
          "address": "昌岗东路257广州美术学院(新设计大楼9023室)",
          "uid": "dd22021aded2478d6e20b9fc",
          "location": {
            "lng": 113.28502306614,
            "lat": 23.099232274576
          }
        },
        {
          "name": "广州市方所文化发展有限公司",
          "address": "广东省广州市海珠区昌岗东路257号广州美术学院新设计大楼12楼",
          "uid": "e63c65cf23763c59100daa64",
          "telephone": "02084498889",
          "location": {
            "lng": 113.28654811941,
            "lat": 23.098911322799
          }
        },
        {
          "name": "广州厚华装饰设计有限公司",
          "address": "昌岗东路257号广州美术学院内设计大厦9楼",
          "uid": "3fe7c8e6c39d55f86cc02c23",
          "telephone": "(020)84018285",
          "location": {
            "lng": 113.28643133969,
            "lat": 23.099739213919
          }
        },
        {
          "name": "广州美术学院设计师培养基地",
          "address": "广东省广州市海珠区昌岗东路257号",
          "uid": "83beb6d177eb13f42a11d1c8",
          "telephone": "(020)89447180",
          "location": {
            "lng": 113.28741201982,
            "lat": 23.100329006323
          }
        },
        {
          "name": "广州市青年设计师协会",
          "address": "海珠区昌岗路257号广州美术学院服装楼6楼",
          "uid": "49d8f73c79577ba302ff2d76",
          "location": {
            "lng": 113.28744804187,
            "lat": 23.10040504672
          }
        },
        {
          "name": "广州美术学院综合教学楼(北门)",
          "address": "广东省广州市海珠区昌岗东路附近",
          "uid": "bafd1870fa9322a2b817e7b9",
          "location": {
            "lng": 113.28505747124,
            "lat": 23.099770295055
          }
        },
        {
          "name": "广州美术学院昌岗校区(东南门)",
          "address": "昌岗东路264-之89号附近",
          "uid": "d4a52fb9e8821799283a9f59",
          "location": {
            "lng": 113.28624332435,
            "lat": 23.098763395514
          }
        },
        {
          "name": "广州医科大学附属第二医院",
          "address": "广州市海珠区昌岗东路250号(近广州美术学院对面)",
          "uid": "87248d96c6ab63aa2806cec1",
          "telephone": "020-34152282",
          "location": {
            "lng": 113.28493098983,
            "lat": 23.096329968036
          }
        },
        {
          "name": "联美店",
          "address": "昌岗东路257广州美术学院",
          "uid": "79cceb36cea7edf41e58003b",
          "telephone": "(020)34333861",
          "location": {
            "lng": 113.2835286451,
            "lat": 23.09919728738
          }
        },
        {
          "name": "幸福喜妆",
          "address": "海珠区昌岗东路257号广州美术学院内(近柏丽酒店)",
          "uid": "f95a6c005b38b84e3be4a6ba",
          "location": {
            "lng": 113.28517245435,
            "lat": 23.098689598021
          }
        },
        {
          "name": "广州美术学院附属中等美术学校少儿培训中心",
          "address": "工业大道132号昌岗路鹤洞桥脚花城往事创意园",
          "uid": "3b55f2ca333819747dc87690",
          "telephone": "(020)83310982",
          "location": {
            "lng": 113.26886272969,
            "lat": 23.090129226098
          }
        },
        {
          "name": "广东省集美设计工程公司",
          "address": "海珠区昌岗东路257号广州美术学院设计大厦9-11层",
          "uid": "4ce10ce6c2ae12a1441a321d",
          "telephone": "13560219354",
          "location": {
            "lng": 113.28589550045,
            "lat": 23.099578073902
          }
        },
        {
          "name": "美院饭堂",
          "address": "昌岗东路257号广州美术学院内35幢1楼",
          "uid": "13d5492af33bb4a44d2fdff2",
          "telephone": "(020)84018888",
          "location": {
            "lng": 113.28328834837,
            "lat": 23.09961854591
          }
        },
        {
          "name": "王子拉茶(昌岗东路店)",
          "address": "昌岗东路252号昌岗地铁B出口江南坊首层广州美术学院对面",
          "uid": "c2decb210ee2165958109396",
          "telephone": "13678948202",
          "location": {
            "lng": 113.28487601353,
            "lat": 23.097749008808
          }
        },
        {
          "name": "香逢小铺",
          "address": "昌岗东路252号江南坊1层(广州美术学院正对面，广医二院隔壁)",
          "uid": "f53b91c9ddd304b6a5da39b8",
          "telephone": "(020)87568090",
          "location": {
            "lng": 113.28462403884,
            "lat": 23.097680030896
          }
        },
        {
          "name": "广州市山田组设计院工程有限公司美院办公室",
          "address": "昌岗东路257号广州美术学院昌岗校区设计大楼1006",
          "uid": "233635429dec8e77b020a81c",
          "telephone": "(020)89027626",
          "location": {
            "lng": 113.2862158362,
            "lat": 23.099580567044
          }
        },
        {
          "name": "雅悦美妆工坊",
          "address": "海珠区昌岗东路270号晓港雅筑2309室(近广州美术学院)",
          "uid": "2e00c5ddc38c0305d7851f74",
          "telephone": "(020)34150449",
          "location": {
            "lng": 113.28787833021,
            "lat": 23.098910408642
          }
        },
        {
          "name": "御可贡茶(江南坊店)",
          "address": "昌岗东路252-5号江南坊首层17号铺（广州美术学院对面）",
          "uid": "d8672c9b8e20700c12882485",
          "telephone": "13054475559",
          "location": {
            "lng": 113.28493898475,
            "lat": 23.09786103551
          }
        },
        {
          "name": "粮山功夫(昌岗江南坊店)",
          "address": "昌岗东路252号自编8号106自编C2-0103B(广州美术学院对面)",
          "uid": "9c57348833ff8bb649fd3f4e",
          "telephone": "13802976637",
          "location": {
            "lng": 113.28452172184,
            "lat": 23.09761886491
          }
        },
        {
          "name": "世外江湖",
          "address": "昌岗东路252号江南坊六楼(昌岗地铁站B出口，广州美术学院对面)",
          "uid": "0731803a24b1b04281288a49",
          "telephone": "15320106565",
          "location": {
            "lng": 113.28496997629,
            "lat": 23.097847987895
          }
        },
        {
          "name": "千束刺青工作室",
          "address": "昌岗东路270号晓港雅筑1615(晓港地铁站c出口，广州美术学院旁)",
          "uid": "35882cdd651011c2ad080f2c",
          "telephone": "18565240412,18078840039",
          "location": {
            "lng": 113.28791866412,
            "lat": 23.098620371281
          }
        },
        {
          "name": "让馅饼飞",
          "address": "昌岗东路252号江南坊（昌岗地铁B出口往前走20米广州美术学院对面）",
          "uid": "308b95eabeebde3da11de9d7",
          "telephone": "15290053250",
          "location": {
            "lng": 113.28493898475,
            "lat": 23.09786103551
          }
        },
        {
          "name": "大参林(昌岗东路)",
          "address": "广州市昌岗东路252号(美术学院斜对面)",
          "uid": "a7c56ee05edf30aaa3acc4f9",
          "telephone": "020-89221293",
          "location": {
            "lng": 113.28456969135,
            "lat": 23.09760997257
          }
        },
        {
          "name": "四喜美食",
          "address": "广东省广州市海珠区昌岗东路细岗市场侧(美术学院对面)",
          "uid": "474cb6790b8689f26ca3cc0b",
          "location": {
            "lng": 113.288950368,
            "lat": 23.097188790775
          }
        }
      ]
    }
  }
}