{
  "status": 0,
  "message": "ok",
  "type": 1,
  "info": {
    "copyright": {
      "text": "@2016 Baidu - Data",
      "imageUrl": "http://api.map.baidu.com/images/copyright_logo.png"
    }
  },
  "result": {
    "originInfo": {
      "area_id": 257,
      "wd": "广东省广州市海珠区滨江东路7号",
      "uid": ""
    },
    "destinationInfo": {
      "area_id": 257,
      "wd": "广州市东升医院(人民中路)",
      "uid": ""
    },
    "origin": {
      "cityName": "广州市",
      "listType": 0,
      "content": [
        {
          "name": "中国民生银行24小时自助银行(怡趣街)",
          "address": "广东省广州市海珠区滨江东路嘉韵街7号103之2号(江怡路240附近)",
          "uid": "bd8d664dca19647411293585",
          "telephone": "95568",
          "location": {
            "lng": 113.3008661211,
            "lat": 23.106661484771
          }
        },
        {
          "name": "细工坊(嘉韵店)",
          "address": "广东省广州市海珠区滨江东路嘉韵街7号",
          "uid": "1ad5fc7ec18f78d41ce99969",
          "telephone": "13922122283",
          "location": {
            "lng": 113.30200104028,
            "lat": 23.10719299335
          }
        },
        {
          "name": "丝贝朗养生养发馆NO.180",
          "address": "广东省广州市海珠区滨江东路嘉韵街7号103房之5",
          "uid": "7e85f08f33eac22083a00c61",
          "telephone": "(020)34027557",
          "location": {
            "lng": 113.30087905669,
            "lat": 23.106727300207
          }
        }
      ]
    },
    "destination": {
      "cityName": "广州市",
      "listType": 0,
      "content": [
        {
          "name": "广州市东升医院(人民中路)",
          "address": "广州市荔湾区人民中路375号(近儿童医院)",
          "uid": "3810c87981fedf929c09f7f9",
          "telephone": "(020)81911115",
          "location": {
            "lng": 113.2591637251,
            "lat": 23.125184333699
          }
        },
        {
          "name": "广州市东升医院东川路门诊部",
          "address": "广州市越秀区东川路90号",
          "uid": "38e48037e904bf50373a71c6",
          "location": {
            "lng": 113.29304403604,
            "lat": 23.129503962877
          }
        },
        {
          "name": "广州市东升医院万寿路门诊部",
          "address": "万寿路南二街1",
          "uid": "a7c56ee0a45ed6b3a3acc466",
          "telephone": "(020)84436971",
          "location": {
            "lng": 113.28732838757,
            "lat": 23.108658952122
          }
        },
        {
          "name": "广州市东升医院(东南门)",
          "address": "人民中路375号",
          "uid": "b4b3508058e67535276e98bc",
          "location": {
            "lng": 113.25922849292,
            "lat": 23.125213497836
          }
        },
        {
          "name": "广州市东升医院-急诊",
          "address": "人民中路375",
          "uid": "f60a15ed28489b92bb17e715",
          "telephone": "(020)81911115",
          "location": {
            "lng": 113.2591637251,
            "lat": 23.125184333699
          }
        },
        {
          "name": "广州星辰公寓",
          "address": "人民中路347号(东升医院旁,老百姓大药房隔壁)",
          "uid": "f3abd72636a79cfb9d9d6827",
          "telephone": "(020)81193290",
          "location": {
            "lng": 113.25908602167,
            "lat": 23.12447400632
          }
        },
        {
          "name": "广东天泽阳光康众医疗投资管理有限公司(广州儿童医院天使站)",
          "address": "广东省广州市越秀区人民中路318号门诊大厅右边窗口(东升医院对面)",
          "uid": "094cb17064dc4926f6c59c16",
          "location": {
            "lng": 113.25988991527,
            "lat": 23.125579087625
          }
        },
        {
          "name": "纺织医院员村门诊部",
          "address": "员村二横路西街4号大院",
          "uid": "373cf75727eaff6e4254d79c",
          "telephone": "(020)85541010",
          "location": {
            "lng": 113.36357655923,
            "lat": 23.123791427065
          }
        }
      ]
    }
  }
}