{
  "status": 0,
  "message": "ok",
  "type": 1,
  "info": {
    "copyright": {
      "text": "@2016 Baidu - Data",
      "imageUrl": "http://api.map.baidu.com/images/copyright_logo.png"
    }
  },
  "result": {
    "originInfo": {
      "area_id": 257,
      "wd": "广百百货(新一城店)",
      "uid": ""
    },
    "destinationInfo": {
      "area_id": 257,
      "wd": "中海名都花园中门",
      "uid": ""
    },
    "origin": {
      "cityName": "广州市",
      "listType": 0,
      "content": [
        {
          "name": "广百百货(新一城店)",
          "address": "海珠区宝岗大道498号",
          "uid": "2fd2beab8398e04b7adbd24c",
          "telephone": "(020)84390288",
          "location": {
            "lng": 113.27264342808,
            "lat": 23.099967086679
          }
        },
        {
          "name": "广百百货(新一城店)",
          "address": "广州市花都区凤凰北路",
          "uid": "6b2c838ea53d93df0e3ddae0",
          "telephone": "(020)37712201",
          "location": {
            "lng": 113.23949793105,
            "lat": 23.404053064802
          }
        },
        {
          "name": "广百百货新一城店东一门",
          "address": "宝业路2号",
          "uid": "d77cec7d024ec6abc42ba190",
          "telephone": "(020)84390288",
          "location": {
            "lng": 113.27294382145,
            "lat": 23.099820573348
          }
        },
        {
          "name": "c\u0026d香薰护肤生活馆(广百百货新一城店)",
          "address": "宝岗大道498号广百百货新一城6楼",
          "uid": "70fc82a4487c3cc3b75f1ee0",
          "location": {
            "lng": 113.27278904341,
            "lat": 23.100185900671
          }
        },
        {
          "name": "粤膳和养生坊(宝岗新一城店)",
          "address": "宝岗大道498号广百百货（新一城店）B1",
          "uid": "538ad95891a32ec91f3894dc",
          "telephone": "13560089450",
          "location": {
            "lng": 113.2729839757,
            "lat": 23.099602091173
          }
        },
        {
          "name": "甜心皇冠",
          "address": "广州市海珠区宝岗大道498号广百百货（新一城店）4F",
          "uid": "33ab8466255cddea16c90549",
          "location": {
            "lng": 113.2726096518,
            "lat": 23.099822650963
          }
        },
        {
          "name": "敦奴",
          "address": "广州市海珠区宝岗大道498号广百百货(新一城店)3F",
          "uid": "44a4060480dca54c40afe6c1",
          "location": {
            "lng": 113.27295478077,
            "lat": 23.099815753281
          }
        },
        {
          "name": "三味珍果",
          "address": "广州市海珠区宝岗大道498号广百百货(新一城店)B1",
          "uid": "2cd6a51c257b817795ca07c1",
          "telephone": "13417756993",
          "location": {
            "lng": 113.27279110951,
            "lat": 23.09991880295
          }
        },
        {
          "name": "优家家纺",
          "address": "广州市海珠区宝岗大道498号广百百货（新一城店）5F",
          "uid": "663e62beda6edde0e60738f1",
          "location": {
            "lng": 113.27296277569,
            "lat": 23.099786832876
          }
        },
        {
          "name": "ELLE HOMME",
          "address": "广东省广州市海珠区宝岗大道498号广百百货(新一城店)4F",
          "uid": "1d4f5e05c87fe2fa54bfff4c",
          "location": {
            "lng": 113.27286414175,
            "lat": 23.099648712923
          }
        },
        {
          "name": "哈贝比",
          "address": "广州市海珠区宝岗大道498号广百百货（新一城店）4F",
          "uid": "0474a74bae589e476ca3cc2e",
          "location": {
            "lng": 113.27267145522,
            "lat": 23.099848413387
          }
        },
        {
          "name": "穗宝 SOMNOPRO",
          "address": "宝岗大道498号广百百货4F(新一城店)",
          "uid": "1f51e7b00a697bc5b35c6a36",
          "location": {
            "lng": 113.27277808408,
            "lat": 23.099971657427
          }
        },
        {
          "name": "MISSHA",
          "address": "宝岗大道498号广百百货1F(新一城店)",
          "uid": "7831528c00eae5f387154186",
          "location": {
            "lng": 113.27304398251,
            "lat": 23.099447848691
          }
        },
        {
          "name": "Discovery",
          "address": "宝岗大道498号广百百货4F(新一城店)",
          "uid": "f10a1f0e8bd213681811d5ca",
          "location": {
            "lng": 113.27215564819,
            "lat": 23.099880242438
          }
        },
        {
          "name": "sams nite",
          "address": "宝岗大道498号广百百货1F(新一城店)",
          "uid": "85744d7ecb762c99a11de99a",
          "location": {
            "lng": 113.2727140349,
            "lat": 23.100207840224
          }
        },
        {
          "name": "广百百货——花都广百新一城店",
          "address": "花都区新华街龙珠路41号广百新一城花都购物广场(近大润发)",
          "uid": "439b6ee46beedd339e82eaed",
          "telephone": "(020)36928848",
          "location": {
            "lng": 113.23981557188,
            "lat": 23.403417534741
          }
        },
        {
          "name": "李占记",
          "address": "宝岗大道498号广百百货1F(新一城店)",
          "uid": "1c4737ebe0e82366fbdc8510",
          "telephone": "020-62882431",
          "location": {
            "lng": 113.27248406869,
            "lat": 23.100704055421
          }
        },
        {
          "name": "Freshmix(广百店)",
          "address": "宝岗大道498号广百百货6F(新一城店)",
          "uid": "ab066d8b604d7361adb22a82",
          "location": {
            "lng": 113.27257219246,
            "lat": 23.100342053695
          }
        },
        {
          "name": "优衣库(广百新一城店)",
          "address": "广州市海珠区宝岗大道498号广百百货(新一城店)1-2F",
          "uid": "4bd073e3f07e2de095ca0734",
          "telephone": "020-34371637",
          "location": {
            "lng": 113.27233306353,
            "lat": 23.100036312717
          }
        },
        {
          "name": "雅戈尔(广百百货)",
          "address": "广州市海珠区宝岗大道498号广百百货(新一城店)2F",
          "uid": "c9eca533245da18816c90542",
          "location": {
            "lng": 113.27304775539,
            "lat": 23.099667827004
          }
        },
        {
          "name": "钻石世家(广百新一城店)",
          "address": "宝岗大道498号广百百货新一城1楼(近江南西路)",
          "uid": "a460f40fabccfce06ec02cbc",
          "telephone": "(020)34371429",
          "location": {
            "lng": 113.2729098655,
            "lat": 23.099868192276
          }
        },
        {
          "name": "Nike服饰鞋帽店(广百新一城店)",
          "address": "广州市海珠区宝岗大道498号广百百货(新一城店)4F",
          "uid": "1bc20d4b2a9ad958c51b75b3",
          "location": {
            "lng": 113.2723362076,
            "lat": 23.09993143484
          }
        },
        {
          "name": "olay-玉兰油(大润发花都店)",
          "address": "广州市花都区凤凰北路广百百货花都凤凰广场店1层",
          "uid": "961bca5ed83e2f4308f5eb85",
          "location": {
            "lng": 113.23939714117,
            "lat": 23.404040959496
          }
        },
        {
          "name": "ZA(广百新一城店)",
          "address": "宝岗大道498号广百新一城1楼(近江南西路)",
          "uid": "0cb9f21029502ccbb320a8a3",
          "telephone": "(020)83380426",
          "location": {
            "lng": 113.27318277071,
            "lat": 23.099318454401
          }
        },
        {
          "name": "好孩子(广百新一城店)",
          "address": "广州市花都区凤凰北路广百百货花都凤凰广场店2层",
          "uid": "cc008ceacf1f9b6300ff2d72",
          "telephone": "(020)38894005",
          "location": {
            "lng": 113.2396942108,
            "lat": 23.403780197674
          }
        },
        {
          "name": "万岁寿司(花都广百新一城店)",
          "address": "广州市花都区凤凰北路广百百货花都凤凰广场店3层",
          "uid": "5e53af1ad543a5464051c090",
          "telephone": "(020)37712128",
          "location": {
            "lng": 113.23985231257,
            "lat": 23.403298885539
          }
        },
        {
          "name": "诺诗兰(广百新一城店)",
          "address": "广州市海珠区宝岗路498广百百货",
          "uid": "8812bd0de1a5ac6ea8f7298e",
          "telephone": "13500027618",
          "location": {
            "lng": 113.28173706459,
            "lat": 23.095810632722
          }
        },
        {
          "name": "仙踪林广百新一城店",
          "address": "凤凰北路龙珠路39号来又来时尚购物广场中庭5楼5041",
          "uid": "1fc7d0828545fd0bd92f28ca",
          "telephone": "18026318909",
          "location": {
            "lng": 113.23927128857,
            "lat": 23.403907386494
          }
        },
        {
          "name": "周大福(广州花都广百新一城珠宝店)",
          "address": "广州市花都区凤凰北路广百百货花都凤凰广场店1层",
          "uid": "b5cf952959b6118ceddfca63",
          "telephone": "(020)37712413",
          "location": {
            "lng": 113.23958964804,
            "lat": 23.403936074438
          }
        },
        {
          "name": "彪马(广百百货)",
          "address": "广州市海珠区宝岗大道498号广百新一城店4层",
          "uid": "47e255d49485e380a5da3967",
          "location": {
            "lng": 113.27271358574,
            "lat": 23.10020700918
          }
        },
        {
          "name": "Nike Kids(广百新一城店)",
          "address": "龙珠路和凤凰交汇处广百新一城2楼小耐克专柜",
          "uid": "23dce630b766dba643024552",
          "telephone": "13710898083",
          "location": {
            "lng": 113.239456609,
            "lat": 23.403641483781
          }
        },
        {
          "name": "qenrgoed(浅古)(广州广百百货店)",
          "address": "宝岗大道498号广百新一城3f",
          "uid": "3347a84b45f5beb6cc04ef64",
          "telephone": "18650762603",
          "location": {
            "lng": 113.27252799583,
            "lat": 23.100081022912
          }
        },
        {
          "name": "JackJones男装店(广百百货店)",
          "address": "新华镇凤凰北路与龙珠路交汇处西北角广百新一城4楼",
          "uid": "c3c8a6b1b7a355b230169b94",
          "telephone": "(020)37712360",
          "location": {
            "lng": 113.23929087163,
            "lat": 23.403544641
          }
        },
        {
          "name": "森乐净水森乐净化（广百百货花都店）",
          "address": "新华镇龙珠路41号广百新一城5楼",
          "uid": "7318a43831a31acd34b06cf7",
          "telephone": "18588895218",
          "location": {
            "lng": 113.23984332952,
            "lat": 23.403295734825
          }
        }
      ]
    },
    "destination": {
      "cityName": "广州市",
      "listType": 0,
      "content": [
        {
          "name": "中海名都花园",
          "address": "纺织路1街5号",
          "uid": "94e6fae546d0fa730ab93a68",
          "location": {
            "lng": 113.28265899553,
            "lat": 23.115781016064
          }
        },
        {
          "name": "中海名都花园-中门",
          "address": "纺织路1号",
          "uid": "a9560370014f23e2465726f8",
          "telephone": "(020)34240436",
          "location": {
            "lng": 113.28297133636,
            "lat": 23.117082188186
          }
        },
        {
          "name": "中海名都会所(中海锦苑)",
          "address": "滨江东路957、959、961号",
          "uid": "81d6a5095c94d8406e20b977",
          "telephone": "(020)89033310",
          "location": {
            "lng": 113.3202889235,
            "lat": 23.110542212967
          }
        }
      ]
    }
  }
}