{
  "status": 0,
  "message": "ok",
  "type": 1,
  "info": {
    "copyright": {
      "text": "@2016 Baidu - Data",
      "imageUrl": "http://api.map.baidu.com/images/copyright_logo.png"
    }
  },
  "result": {
    "originInfo": {
      "area_id": 257,
      "wd": "广州大道中天河立交(路口)",
      "uid": ""
    },
    "destinationInfo": {
      "area_id": 257,
      "wd": "中山大学第一附属医院",
      "uid": ""
    },
    "origin": {
      "cityName": "广州市",
      "listType": 0,
      "content": [
        {
          "name": "广州大道中/天河立交(路口)",
          "address": "广东省广州市天河区",
          "uid": "7bfa08fc37f45c7e24d2bbb5",
          "location": {
            "lng": 113.32180732931,
            "lat": 23.136634545304
          }
        },
        {
          "name": "广州大道中与天河立交桥交叉口",
          "address": "广东省广州市天河区",
          "uid": "5e7a9b02993cc355fea77835",
          "location": {
            "lng": 113.32175037674,
            "lat": 23.142413987128
          }
        },
        {
          "name": "黄埔大道中与黄埔立交交叉口",
          "address": "广东省广州市天河区",
          "uid": "373acd404fdbf1044e5547e5",
          "location": {
            "lng": 113.36205887208,
            "lat": 23.130412505339
          }
        },
        {
          "name": "黄埔大道中与科韵路黄埔大道立交交叉口",
          "address": "广东省广州市天河区",
          "uid": "f4194e0e5e2e3d7fb34c4990",
          "location": {
            "lng": 113.38412646557,
            "lat": 23.125149602609
          }
        },
        {
          "name": "轻微道路交通事故快撤理赔服务点(中山一立交)",
          "address": "天河区广州大道中金穗路路口北侧外商大酒店正对面",
          "uid": "0613d76e83b6a69b3617dc42",
          "telephone": "18902239825",
          "location": {
            "lng": 113.32204097857,
            "lat": 23.130299010572
          }
        }
      ]
    },
    "destination": {
      "cityName": "广州市",
      "listType": 0,
      "content": [
        {
          "name": "中山大学第一附属医院",
          "address": "越秀区中山二路58号(近执信南路)",
          "uid": "2c0bd6c57965d7b343ab9ac4",
          "telephone": "(020)87332200",
          "location": {
            "lng": 113.296499997,
            "lat": 23.13187604739
          }
        },
        {
          "name": "中山大学附属第一医院-1号楼",
          "address": "广州市越秀区中山二路58号中山大学附属第一医院",
          "uid": "88df00c351459936eedfca16",
          "location": {
            "lng": 113.29637998338,
            "lat": 23.131794042935
          }
        },
        {
          "name": "中山大学附属第一医院东山院区",
          "address": "越秀区中山二路1号(近地铁站东山口站)",
          "uid": "d6c5d9917ee288f130169bc4",
          "telephone": "(020)62732213",
          "location": {
            "lng": 113.29987924266,
            "lat": 23.130379354242
          }
        },
        {
          "name": "中山大学附属第一医院黄埔院区",
          "address": "广东省广州市黄埔区黄埔东路183号",
          "uid": "6113ef77ab106b148f772781",
          "telephone": "(020)82377155",
          "location": {
            "lng": 113.46047345083,
            "lat": 23.108024323015
          }
        },
        {
          "name": "中山大学附属第一医院-何善衡楼",
          "address": "中山二路58号",
          "uid": "7aea43b73d1181867c29bd07",
          "location": {
            "lng": 113.29793746547,
            "lat": 23.133405957078
          }
        },
        {
          "name": "中山大学附属第一医院-检验楼",
          "address": "广州市越秀区中山二路74号中山医科大学内",
          "uid": "a020cec8f496c1d8abf0cd62",
          "location": {
            "lng": 113.29701176165,
            "lat": 23.132752918608
          }
        },
        {
          "name": "中山大学附属第一医院-行政楼",
          "address": "广州市越秀区",
          "uid": "058bc7ce32b6ff0aafee7a81",
          "location": {
            "lng": 113.29813482319,
            "lat": 23.133597963069
          }
        },
        {
          "name": "中山大学附属第一医院-3号楼",
          "address": "广州市越秀区",
          "uid": "28d3622b9523a11bf8f0cb96",
          "location": {
            "lng": 113.29682338698,
            "lat": 23.132483726242
          }
        },
        {
          "name": "中山大学附属第一医院-曾宪梓大楼",
          "address": "中山二路58号",
          "uid": "d219bb1d336ca6f5f50e7717",
          "location": {
            "lng": 113.29710204135,
            "lat": 23.132301190243
          }
        },
        {
          "name": "中山大学附属第一医院-肿瘤科",
          "address": "广州市越秀区",
          "uid": "0f778020702668a8b05c6a2a",
          "location": {
            "lng": 113.29818405034,
            "lat": 23.132752503188
          }
        },
        {
          "name": "中山大学附属第一医院-手术科大楼",
          "address": "广州市越秀区",
          "uid": "73a8640f8c788b20d5b74e4c",
          "location": {
            "lng": 113.2972542143,
            "lat": 23.132575700362
          }
        },
        {
          "name": "中山大学附属第一医院-8号楼(邱德根)",
          "address": "广州市越秀区",
          "uid": "b98b0e8355e878114054d70b",
          "location": {
            "lng": 113.2981260198,
            "lat": 23.132360096972
          }
        },
        {
          "name": "中山大学附属第一医院-停车场",
          "address": "广州市越秀区中山二路58号中山大学附属第一医院",
          "uid": "94ecfbb540ae8c6286420e69",
          "location": {
            "lng": 113.29643990036,
            "lat": 23.131908284184
          }
        },
        {
          "name": "中山大学附属第一医院-肾三区",
          "address": "广州市越秀区",
          "uid": "60cbff732d58731a6fa3ccbb",
          "location": {
            "lng": 113.29679131747,
            "lat": 23.132446006033
          }
        },
        {
          "name": "中山大学附属第一医院-病理科",
          "address": "广州市越秀区",
          "uid": "f432d3dfa2f6d83733169bd5",
          "location": {
            "lng": 113.29720310072,
            "lat": 23.133082180009
          }
        },
        {
          "name": "中山大学附属第一医院-南1门",
          "address": "广州市越秀区",
          "uid": "036b7a2cf5ff5d8f5e0d022b",
          "location": {
            "lng": 113.29680362426,
            "lat": 23.131571043734
          }
        },
        {
          "name": "中山大学附属第一医院-南2门",
          "address": "广州市越秀区中山二路58号",
          "uid": "0547d069d5d14149d72ce207",
          "location": {
            "lng": 113.29636480202,
            "lat": 23.131727990677
          }
        },
        {
          "name": "中山大学附属第一医院-东南门",
          "address": "广州市越秀区",
          "uid": "1347e652ecba052c3617dcff",
          "location": {
            "lng": 113.2970207447,
            "lat": 23.132865912772
          }
        },
        {
          "name": "中山大学附属第一医院-急诊CT",
          "address": "曾宪梓大楼3楼",
          "uid": "16f81ac2f0c5f9bd85420e8a",
          "location": {
            "lng": 113.29710195152,
            "lat": 23.132303184265
          }
        },
        {
          "name": "中山大学附属第一医院行政楼9",
          "address": "广东省广州市越秀区执信南路105号",
          "uid": "1633b0e0f7c1612225d2bbb8",
          "location": {
            "lng": 113.29815790964,
            "lat": 23.133580764794
          }
        },
        {
          "name": "中山大学附属第一医院-东门",
          "address": "广州市越秀区",
          "uid": "cdb43c78a6c82005581093da",
          "location": {
            "lng": 113.29744222965,
            "lat": 23.133724997603
          }
        },
        {
          "name": "中山大学附属第一医院-急诊",
          "address": "中山二路58号",
          "uid": "5508504dd63443b6c6f025b4",
          "telephone": "(020)87755766",
          "location": {
            "lng": 113.29670139709,
            "lat": 23.131697914041
          }
        },
        {
          "name": "中山大学附属第一医院-东一门",
          "address": "广州市越秀区",
          "uid": "ee413984b38eb3137ab55c48",
          "location": {
            "lng": 113.29898677614,
            "lat": 23.133008069263
          }
        },
        {
          "name": "中山大学附属第一医院-急诊CR",
          "address": "曾宪梓大楼2楼",
          "uid": "0d700d1b95814f68250bd068",
          "location": {
            "lng": 113.29710204135,
            "lat": 23.132302187254
          }
        },
        {
          "name": "中山大学附属第一医院-北门",
          "address": "中山二路58",
          "uid": "f5ce230e6d157d7d21f017f6",
          "location": {
            "lng": 113.29871701499,
            "lat": 23.133982888134
          }
        },
        {
          "name": "中山大学附属第一医院(黄埔院区)-1号住院楼",
          "address": "广州市黄埔区",
          "uid": "0d76984e85064f92f02d83a2",
          "location": {
            "lng": 113.46049420169,
            "lat": 23.108232154617
          }
        },
        {
          "name": "中山大学附属第一医院工会委员会",
          "address": "马棚北街3号",
          "uid": "dec4f46590fa52bbcd04efc0",
          "location": {
            "lng": 113.29918539149,
            "lat": 23.132143911641
          }
        },
        {
          "name": "中山大学附属第一医院-内镜中心",
          "address": "曾宪梓大楼5楼",
          "uid": "0647e95ecc6d979cf50e778a",
          "location": {
            "lng": 113.29710195152,
            "lat": 23.132303184265
          }
        },
        {
          "name": "中山大学附属第一医院-高压氧科",
          "address": "广州市越秀区",
          "uid": "170dd01a4528607d22f017cd",
          "location": {
            "lng": 113.2981260198,
            "lat": 23.132393081405
          }
        },
        {
          "name": "中山大学附属第一医院-超声介入科",
          "address": "广州市越秀区",
          "uid": "daf53a9dc03226543a13fd82",
          "location": {
            "lng": 113.29818405034,
            "lat": 23.132752503188
          }
        },
        {
          "name": "中山大学附属第一医院-病案管理科",
          "address": "广州市越秀区",
          "uid": "255cfb30928cf531d92f28fc",
          "location": {
            "lng": 113.29720202275,
            "lat": 23.13308109992
          }
        },
        {
          "name": "中山大学附属第一医院-乳腺摄影室",
          "address": "曾宪梓大楼2楼",
          "uid": "a29ee5f4ab1a73648bfc0667",
          "location": {
            "lng": 113.29710195152,
            "lat": 23.132303184265
          }
        },
        {
          "name": "中山大学附属第一医院-超声波科",
          "address": "曾宪梓大楼6楼",
          "uid": "5c5b7b27002e4a27902ca36b",
          "location": {
            "lng": 113.29710195152,
            "lat": 23.132303184265
          }
        },
        {
          "name": "中山大学附属第一医院-胃肠检查室",
          "address": "曾宪梓大楼3楼",
          "uid": "2f9e1906e7d5cb4b9de3210e",
          "location": {
            "lng": 113.29710195152,
            "lat": 23.132303184265
          }
        },
        {
          "name": "中山大学附属第一医院-学生公寓",
          "address": "广州市越秀区",
          "uid": "d27c5f80df50821adc1e5236",
          "location": {
            "lng": 113.2992033576,
            "lat": 23.132134689276
          }
        },
        {
          "name": "中山大学附属第一医院-特内二区",
          "address": "广州市越秀区",
          "uid": "0c08bc75ad0fe62ab34c491c",
          "location": {
            "lng": 113.29818414017,
            "lat": 23.13275150618
          }
        },
        {
          "name": "中山大学附属第一医院-儿科急诊",
          "address": "广州市越秀区",
          "uid": "fb8915adc586ef94c9e33ca9",
          "location": {
            "lng": 113.29729957873,
            "lat": 23.132108268445
          }
        },
        {
          "name": "中山大学附属第一医院-特种门诊",
          "address": "广州市越秀区",
          "uid": "895e82d45c531742a80dd834",
          "location": {
            "lng": 113.29652083768,
            "lat": 23.132468521842
          }
        },
        {
          "name": "中山大学附属第一医院-特内一区",
          "address": "广州市越秀区",
          "uid": "353ef7cf39a8c2346c3e1bfa",
          "location": {
            "lng": 113.29818414017,
            "lat": 23.13275150618
          }
        },
        {
          "name": "中山大学附属第一医院-肿瘤介入科",
          "address": "广州市越秀区",
          "uid": "658f582dbf9b68ddb817e774",
          "location": {
            "lng": 113.29818405034,
            "lat": 23.132752503188
          }
        },
        {
          "name": "中山大学附属第一医院北校区-门诊部",
          "address": "广州市越秀区中山二路74号",
          "uid": "f2f15ffb4aa09c88631c672e",
          "location": {
            "lng": 113.29468065885,
            "lat": 23.133125632816
          }
        },
        {
          "name": "中山大学附属第一医院磁共振检查室",
          "address": "中山二路58号附近",
          "uid": "a9acaeda8b261f5458f6be0e",
          "location": {
            "lng": 113.29703287182,
            "lat": 23.132176813044
          }
        },
        {
          "name": "中山大学附属第一医院-CR/DR照片室",
          "address": "曾宪梓大楼2楼",
          "uid": "b41453e9ad94378c2bb97c2b",
          "location": {
            "lng": 113.29710195152,
            "lat": 23.132303184265
          }
        },
        {
          "name": "中山大学附属第一医院(东山院区)-南门",
          "address": "中山二路与东华北路交叉口附近",
          "uid": "4eb2f0b30485af889122e04e",
          "telephone": "(020)62732213",
          "location": {
            "lng": 113.29961792559,
            "lat": 23.129996163517
          }
        },
        {
          "name": "中山大学附属第一医院8号楼(西南门)",
          "address": "马棚岗4号附近",
          "uid": "1f4b6beba9c028e72fb96de7",
          "location": {
            "lng": 113.29804993332,
            "lat": 23.132330934405
          }
        },
        {
          "name": "中山大学附属第一医院-头颅神经骨髓写片室",
          "address": "曾宪梓大楼1楼",
          "uid": "f5002a95bd7acf0dd42ce238",
          "location": {
            "lng": 113.29710195152,
            "lat": 23.132303184265
          }
        },
        {
          "name": "中山大学附属第一医院-造血干细胞移植病区",
          "address": "广州市越秀区",
          "uid": "f441ff1f3ae788e86240a9c0",
          "location": {
            "lng": 113.29679239544,
            "lat": 23.132446006033
          }
        },
        {
          "name": "中山大学附属第一医院-门急诊静脉输液中心",
          "address": "广州市越秀区中山二路",
          "uid": "25a0535ab804e7b197031922",
          "location": {
            "lng": 113.29721226343,
            "lat": 23.131922159296
          }
        },
        {
          "name": "中山大学附属第一医院中大东校区门诊部",
          "address": "广州市番禺区外环东路中山大学大学城校区",
          "uid": "dfc496b6a95beaaf8936eef3",
          "location": {
            "lng": 113.39617265262,
            "lat": 23.068823678975
          }
        },
        {
          "name": "中山大学附属第一医院东山院区-爱华楼",
          "address": "中山二路1",
          "uid": "3e9806eaedc7297825d2bb16",
          "location": {
            "lng": 113.30029201404,
            "lat": 23.13009104736
          }
        }
      ]
    }
  }
}