{
  "status": 0,
  "message": "ok",
  "type": 1,
  "info": {
    "copyright": {
      "text": "@2016 Baidu - Data",
      "imageUrl": "http://api.map.baidu.com/images/copyright_logo.png"
    }
  },
  "result": {
    "originInfo": {
      "area_id": 257,
      "wd": "广东省广州市海珠区江丽路125号",
      "uid": ""
    },
    "destinationInfo": {
      "area_id": 257,
      "wd": "广州市海珠区新港中路小学",
      "uid": ""
    },
    "origin": {
      "cityName": "广州市",
      "listType": 0,
      "content": [
        {
          "name": "江丽路125号",
          "address": "海珠区",
          "location": {
            "lng": 113.32512881393,
            "lat": 23.110355408779
          }
        },
        {
          "name": "江丽路125",
          "address": "海珠区",
          "location": {
            "lng": 113.32512881393,
            "lat": 23.110355408779
          }
        }
      ]
    },
    "destination": {
      "cityName": "海珠区",
      "listType": 0,
      "content": [
        {
          "name": "新港中路小学",
          "address": "新市头路19号",
          "uid": "15ed53ce6dd296549222e062",
          "telephone": "020-84217532",
          "location": {
            "lng": 113.32637979418,
            "lat": 23.103244023251
          }
        },
        {
          "name": "荷塘食府",
          "address": "新港中路375号自编辑部5号（丽影商业广场对面，公交车珠影战下车，地铁客村站B出口转左往新市头路直行50米即到，新港中路小学旁）",
          "uid": "7d5f3a0a6aab66522db908e6",
          "telephone": "(020)84118551",
          "location": {
            "lng": 113.32581395154,
            "lat": 23.103261807176
          }
        },
        {
          "name": "粉艺源正宗桂林人米粉店",
          "address": "新市头路新港中路小学附近",
          "uid": "c3f91c2a0ed7e602a21de926",
          "telephone": "18664807101",
          "location": {
            "lng": 113.32640728233,
            "lat": 23.102822693119
          }
        },
        {
          "name": "澳泰美食客村店",
          "address": "海珠区客村新市头路新港中路小学北侧",
          "uid": "0d534f04b71d5db72d47336c",
          "telephone": "(020)82439658,13533360636",
          "location": {
            "lng": 113.32638689079,
            "lat": 23.103663108288
          }
        },
        {
          "name": "惠城美食店",
          "address": "广州海珠区新市头路19号新港中路小学附近",
          "uid": "8ffa1f614978419c441a3224",
          "telephone": "(020)84213931,13422210728",
          "location": {
            "lng": 113.32635616875,
            "lat": 23.102803496388
          }
        },
        {
          "name": "广东省中小学德育研究与指导中心",
          "address": "新港中路351大院",
          "uid": "532b729afe5c9a8548cc4a1b",
          "location": {
            "lng": 113.32370221495,
            "lat": 23.10210077781
          }
        },
        {
          "name": "广东省中小学-校本培训项目管理办公室",
          "address": "新港中路351大院",
          "uid": "c7ae586e6186a3f68bfc06cc",
          "location": {
            "lng": 113.32370230478,
            "lat": 23.10210077781
          }
        },
        {
          "name": "广东省中小学-教师教育技术能力建设项目办公室",
          "address": "新港中路351大院",
          "uid": "4ad35ee70def4fc6077ce88c",
          "location": {
            "lng": 113.32370230478,
            "lat": 23.10210077781
          }
        }
      ]
    }
  }
}