{
  "status": 0,
  "message": "ok",
  "type": 1,
  "info": {
    "copyright": {
      "text": "@2016 Baidu - Data",
      "imageUrl": "http://api.map.baidu.com/images/copyright_logo.png"
    }
  },
  "result": {
    "originInfo": {
      "area_id": 257,
      "wd": "广东省广州市天河区富华新街二巷1号",
      "uid": ""
    },
    "destinationInfo": {
      "area_id": 257,
      "wd": "富力盈信大厦",
      "uid": ""
    },
    "origin": {
      "cityName": "广州市",
      "listType": 0,
      "content": [
        {
          "name": "菜鸟驿站(棠东丰乐园二巷1号和鞋人生)",
          "address": "棠下街道棠东丰乐园二巷1号和鞋人生",
          "uid": "d5cc1ab16ac34b8b471a3254",
          "location": {
            "lng": 113.38976584789,
            "lat": 23.134594628388
          }
        },
        {
          "name": "明兴快餐(棠下店)",
          "address": "棠下牌坊东闸大街二巷1号（丰骏楼北100米路东）",
          "uid": "9e9a676e144c5d33f50e77f9",
          "telephone": "15813782282",
          "location": {
            "lng": 113.39002303276,
            "lat": 23.133720012601
          }
        },
        {
          "name": "重庆名小吃老麻抄手",
          "address": "棠东丰乐园二巷1号102铺",
          "uid": "7ef4c9f9b2ddbaf61ce999dd",
          "telephone": "18898631668",
          "location": {
            "lng": 113.38977788519,
            "lat": 23.134552754637
          }
        },
        {
          "name": "花冠美容美体",
          "address": "棠东牌坊龙门路龙愉二巷一号(礼加成超市隔壁棠东牌坊进入200m)",
          "uid": "bb1d38e47a993e540c0a7009",
          "telephone": "(020)38275396",
          "location": {
            "lng": 113.39134461983,
            "lat": 23.13719044277
          }
        },
        {
          "name": "潮汕(兄弟)汤粉世家正宗隆江猪脚饭",
          "address": "棠东丰乐园二巷1号102房",
          "uid": "86ed0f6f4f2e5753715e80ff",
          "telephone": "13418867998",
          "location": {
            "lng": 113.38971105126,
            "lat": 23.134593880642
          }
        },
        {
          "name": "嘉盛超市棠东分店",
          "address": "天河区棠东富华新街二巷1号",
          "uid": "0ed20a15448b978e57bfff51",
          "telephone": "(020)85541361",
          "location": {
            "lng": 113.39609988987,
            "lat": 23.135581731761
          }
        },
        {
          "name": "惠昌美食餐厅",
          "address": "广州市天河区车陂北街大岗二巷1号5",
          "uid": "779c42ce022740b5d13ce395",
          "telephone": "(020)85652919",
          "location": {
            "lng": 113.40263551161,
            "lat": 23.134071537888
          }
        },
        {
          "name": "蔚然锦和连锁超市好运来店",
          "address": "广州市天河区车陂北街大岗二巷1号8",
          "uid": "c99dc186bc4021ecc7f50db6",
          "location": {
            "lng": 113.40250058612,
            "lat": 23.134059075414
          }
        },
        {
          "name": "同航学车-南门",
          "address": "广州市天河区棠东富华新街2巷1号附近",
          "uid": "56d4649c25f69d09c2f1cfb0",
          "location": {
            "lng": 113.39618468991,
            "lat": 23.136542407837
          }
        },
        {
          "name": "味奇佳大鱿鱼店",
          "address": "广州天河区棠下村大片北路2巷1号（味奇佳大鱿鱼店）(广州天河区棠下村安安幼儿园附近)",
          "uid": "9f70448770a1efc8ae045737",
          "telephone": "15113815759",
          "location": {
            "lng": 113.38640780224,
            "lat": 23.13597146982
          }
        },
        {
          "name": "广州市同航驾驶员培训咨询有限公司",
          "address": "棠东富华新街2巷1号附近",
          "uid": "a40cf118494b66ec9d9d682a",
          "telephone": "18649795686",
          "location": {
            "lng": 113.39644627648,
            "lat": 23.136973849908
          }
        },
        {
          "name": "和鞋人生",
          "address": "棠东村丰乐路2巷1号",
          "uid": "41d25132bed3c7e03010afdf",
          "location": {
            "lng": 113.3898217225,
            "lat": 23.134711276623
          }
        },
        {
          "name": "老四川",
          "address": "棠下村大片路北2巷1号（瑞康门诊斜对面）",
          "uid": "24f7a64fd721a355f8f0cbe7",
          "telephone": "15017552950",
          "location": {
            "lng": 113.38647760058,
            "lat": 23.136252452719
          }
        },
        {
          "name": "海豚湾美甲(棠下店)",
          "address": "广州市天河区棠下大片北一巷1号2号铺(安安幼儿园斜对面)",
          "uid": "fc5947c1dd040a07bb17e7fc",
          "telephone": "13434157157",
          "location": {
            "lng": 113.3863680073,
            "lat": 23.136250043347
          }
        }
      ]
    },
    "destination": {
      "cityName": "广州市",
      "listType": 0,
      "content": [
        {
          "name": "富力盈信大厦",
          "address": "广州市天河区珠江新城华夏路28号",
          "uid": "83e23752ec36fdaf276e9875",
          "telephone": "020-82454682",
          "location": {
            "lng": 113.32848667992,
            "lat": 23.131027834723
          }
        }
      ]
    }
  }
}