{
  "status": 0,
  "message": "ok",
  "type": 1,
  "info": {
    "copyright": {
      "text": "@2016 Baidu - Data",
      "imageUrl": "http://api.map.baidu.com/images/copyright_logo.png"
    }
  },
  "result": {
    "originInfo": {
      "area_id": 257,
      "wd": "宝华路多宝路(路口)",
      "uid": ""
    },
    "destinationInfo": {
      "area_id": 257,
      "wd": "广州市公用事业高级技工学校",
      "uid": ""
    },
    "origin": {
      "cityName": "广州市",
      "listType": 0,
      "content": [
        {
          "name": "宝华路口",
          "address": "",
          "uid": "65bbee3b01e25119b05c6a02",
          "location": {
            "lng": 113.24726701608,
            "lat": 23.122354052399
          }
        },
        {
          "name": "宝华路/多宝路(路口)",
          "address": "广东省广州市荔湾区",
          "uid": "4704abcf234286f3ca213d14",
          "location": {
            "lng": 113.24843328612,
            "lat": 23.122310346792
          }
        },
        {
          "name": "宝华路/第十甫路(路口)",
          "address": "广东省广州市荔湾区",
          "uid": "56f2f696ec2d42810aa8d4f1",
          "location": {
            "lng": 113.24813675547,
            "lat": 23.119293129476
          }
        },
        {
          "name": "恩宁路/宝华路(路口)",
          "address": "广东省广州市荔湾区",
          "uid": "374787645992c29440afe6df",
          "location": {
            "lng": 113.24813971988,
            "lat": 23.119288974855
          }
        },
        {
          "name": "宝源路/宝华路(路口)",
          "address": "广东省广州市荔湾区",
          "uid": "eb367503de5e6a1a00ec0174",
          "location": {
            "lng": 113.24861150994,
            "lat": 23.12445896718
          }
        },
        {
          "name": "宝华路/长寿西路(路口)",
          "address": "广东省广州市荔湾区",
          "uid": "0853cb5b615b4f8ab34c49da",
          "location": {
            "lng": 113.24854225058,
            "lat": 23.123869032723
          }
        },
        {
          "name": "宝华路与十六甫西三巷交叉口",
          "address": "广东省广州市荔湾区",
          "uid": "fa1e2ac7cc0a4f08f4b9161d",
          "location": {
            "lng": 113.24822577755,
            "lat": 23.120204400816
          }
        }
      ]
    },
    "destination": {
      "cityName": "广州市",
      "listType": 0,
      "content": [
        {
          "name": "广州市公用事业高级技工学校",
          "address": "东华南路162",
          "uid": "1dc074e7c7b350a3130daa5a",
          "telephone": "(020)83781062",
          "location": {
            "lng": 113.2936090702,
            "lat": 23.125862252841
          }
        },
        {
          "name": "广州市公用事业高级技工学校(金盘岭校区)",
          "address": "大源路38号",
          "uid": "09185c564c819c5df1193749",
          "telephone": "020-87488992",
          "location": {
            "lng": 113.35522312647,
            "lat": 23.236549242405
          }
        },
        {
          "name": "广州市公用事业高级技工学校石牌校区",
          "address": "广州市天河区石牌东路99号",
          "uid": "dffd631ccd5dfebc39221c9a",
          "telephone": "020-22325216",
          "location": {
            "lng": 113.34969001368,
            "lat": 23.138040526868
          }
        },
        {
          "name": "广州市公用事业高级技工学校(西北门)",
          "address": "广东省广州市越秀区",
          "uid": "779ec9962036ba4bbca82224",
          "location": {
            "lng": 113.29351861084,
            "lat": 23.12592116243
          }
        },
        {
          "name": "广州市公用事业高级技工学校(西北门)",
          "address": "大源南路38号广州市公用事业技校",
          "uid": "ab15581d293e6d956fa3ccae",
          "location": {
            "lng": 113.35510293319,
            "lat": 23.236921249142
          }
        },
        {
          "name": "广州市公用事业高级技工学校(广钢校区)",
          "address": "荔湾区白鹤洞鹤洞路153号(近鹤洞大桥)",
          "uid": "8995b2723dcc80cc3fe231be",
          "telephone": "(020)81550672",
          "location": {
            "lng": 113.25055050238,
            "lat": 23.079888101695
          }
        },
        {
          "name": "广州市公用事业高级技工学校纵横校区",
          "address": "新城大道388",
          "uid": "acb3a46ded19acb1a1a934c0",
          "location": {
            "lng": 113.83273808117,
            "lat": 23.247752569355
          }
        },
        {
          "name": "广州市公用事业技师学院纵横校区",
          "address": "广州市增城区新城大道388号",
          "uid": "f7d7c4f861d37f26e8e58267",
          "location": {
            "lng": 113.83275604728,
            "lat": 23.24788771242
          }
        },
        {
          "name": "广州市公用事业高级职业技术培训学院",
          "address": "广州市天河区石牌东路",
          "uid": "d9f0f079dfb5e1dc33169b15",
          "location": {
            "lng": 113.34964500858,
            "lat": 23.137871457605
          }
        }
      ]
    }
  }
}