{
  "status": 0,
  "message": "ok",
  "type": 1,
  "info": {
    "copyright": {
      "text": "@2016 Baidu - Data",
      "imageUrl": "http://api.map.baidu.com/images/copyright_logo.png"
    }
  },
  "result": {
    "originInfo": {
      "area_id": 257,
      "wd": "富力海珠城广场",
      "uid": ""
    },
    "destinationInfo": {
      "area_id": 257,
      "wd": "嘉华海鲜酒家（革新路店）",
      "uid": ""
    },
    "origin": {
      "cityName": "广州市",
      "listType": 0,
      "content": [
        {
          "name": "富力海珠城广场",
          "address": "江南大道与江南西路交界西南",
          "uid": "04ed0008571fe37e0ab93a4f",
          "telephone": "(020)89626888",
          "location": {
            "lng": 113.27984415522,
            "lat": 23.102029641474
          }
        },
        {
          "name": "富力海珠城广场b区",
          "address": "广东省广州市海珠区江南西路30号711室",
          "uid": "02c377e13e79b1761e1d1183",
          "location": {
            "lng": 113.28053504199,
            "lat": 23.101855041497
          }
        },
        {
          "name": "皇庭皇茶(海珠富力城店)",
          "address": "江南中街道富力海珠城广场A区负二层B201-5",
          "uid": "e36f1751ab8ac236f02d831f",
          "telephone": "13808872562",
          "location": {
            "lng": 113.27970401956,
            "lat": 23.101886039035
          }
        },
        {
          "name": "金逸海珠城IMAX店",
          "address": "广州市海珠区江南大道中180号富力海珠商业广场B区七层703号",
          "uid": "0ab8367565c690f658f6bef3",
          "telephone": "(020)89623235",
          "location": {
            "lng": 113.28010987399,
            "lat": 23.102664216133
          }
        },
        {
          "name": "金逸国际影城(海珠城店)",
          "address": "广州江南大道中180号富力海珠商业广场B区七层703号",
          "uid": "ec74ec68abd2e61ac33644d9",
          "telephone": "(020)89623235",
          "location": {
            "lng": 113.27966251784,
            "lat": 23.101916537945
          }
        },
        {
          "name": "活力无限ktv(富力海珠城店)",
          "address": "海珠区江南西路11号富力城广场内",
          "uid": "5d5ee679a3180364b72655f9",
          "location": {
            "lng": 113.28031100459,
            "lat": 23.101770026766
          }
        },
        {
          "name": "got churros(富力海珠城店)",
          "address": "广东省广州市海珠区江南中街道富力海珠城广场A区B203A",
          "uid": "267a0323138a7bcd4bcc4a6d",
          "telephone": "18588548872",
          "location": {
            "lng": 113.27963952122,
            "lat": 23.101949446844
          }
        },
        {
          "name": "潜音唱歌培训俱乐部(富力海珠城店)",
          "address": "江南西路11号富力海珠城广场B区8楼",
          "uid": "deb018e1fc470f559222e03c",
          "telephone": "18589248884",
          "location": {
            "lng": 113.27885700729,
            "lat": 23.10164404198
          }
        }
      ]
    },
    "destination": {
      "cityName": "广州市",
      "listType": 0,
      "content": [
        {
          "name": "嘉华海鲜酒家（革新路店）",
          "address": "革新路129号（金碧湾正对面）",
          "uid": "8acfee3007eb197516a19009",
          "telephone": "(020)84434918",
          "location": {
            "lng": 113.26078399875,
            "lat": 23.096816972903
          }
        },
        {
          "name": "嘉华海鲜酒家 万寿路店",
          "address": "广州海珠区万寿路7-19号后座(近蟠龙市场)",
          "uid": "72aa251306f2055e067ce8bd",
          "telephone": "(020)34289916",
          "location": {
            "lng": 113.28614783447,
            "lat": 23.109179234375
          }
        },
        {
          "name": "东海堂饼屋(革新路店)",
          "address": "革新路129号(近嘉华海鲜酒家)",
          "uid": "925c550f87fa0aab5b3ac8f5",
          "telephone": "(020)34489986",
          "location": {
            "lng": 113.26086358861,
            "lat": 23.096587931246
          }
        },
        {
          "name": "靓点(万寿北路店)",
          "address": "万寿北街9号(近嘉华海鲜酒家)",
          "uid": "a61aeb4282f7ceb093114c05",
          "telephone": "15018772130",
          "location": {
            "lng": 113.28358802309,
            "lat": 23.109696356848
          }
        }
      ]
    }
  }
}