{
  "status": 0,
  "message": "ok",
  "type": 1,
  "info": {
    "copyright": {
      "text": "@2016 Baidu - Data",
      "imageUrl": "http://api.map.baidu.com/images/copyright_logo.png"
    }
  },
  "result": {
    "originInfo": {
      "area_id": 257,
      "wd": "荔福西基西51号大院",
      "uid": ""
    },
    "destinationInfo": {
      "area_id": 257,
      "wd": "广州轻工高级技工学校",
      "uid": ""
    },
    "origin": {
      "cityName": "广州市",
      "listType": 0,
      "content": [
        {
          "name": "荔福西基西51号大院",
          "address": "宝业路与荔宝街交叉口南50米",
          "uid": "da37433edd6f9e9ff4eafc0b",
          "location": {
            "lng": 113.27185112262,
            "lat": 23.09813578309
          }
        }
      ]
    },
    "destination": {
      "cityName": "广州市",
      "listType": 0,
      "content": [
        {
          "name": "广州轻工高级技工学校",
          "address": "广东省广州市海珠区滨江中路272",
          "uid": "56f2f69637aee7800aa8d474",
          "telephone": "(020)84423747",
          "location": {
            "lng": 113.27475184095,
            "lat": 23.118076900283
          }
        },
        {
          "name": "广州市轻工高级技工学校(北校区)",
          "address": "钟落潭镇竹料管理区东凤南路38号",
          "uid": "cc31d0c7b37d9ecb58f6be77",
          "telephone": "(020)87481623",
          "location": {
            "lng": 113.37233602609,
            "lat": 23.362829921044
          }
        },
        {
          "name": "广州市轻工技师学院",
          "address": "荣华北16",
          "uid": "af5b188f85d3b1ca79f796e5",
          "telephone": "020-84423747",
          "location": {
            "lng": 113.28630135488,
            "lat": 23.132875882841
          }
        },
        {
          "name": "广州市轻工高级职业技术学校(长福路)",
          "address": "天河区长福路173号",
          "uid": "335672f053859c7e14948e32",
          "telephone": "(020)87058592",
          "location": {
            "lng": 113.35234297934,
            "lat": 23.172255705447
          }
        },
        {
          "name": "广州市轻工高级职业技术学校",
          "address": "赤岗西路28-32",
          "uid": "d7fd2ad3da746d550bccdd28",
          "location": {
            "lng": 113.33198369344,
            "lat": 23.098096889638
          }
        },
        {
          "name": "广州市轻工高级技工学校(北门)",
          "address": "滨江中路272",
          "uid": "e2aed6c201c3b7c64207c1bb",
          "telephone": "(020)84423747",
          "location": {
            "lng": 113.27472587992,
            "lat": 23.118117615931
          }
        },
        {
          "name": "广州市轻工高级技工学校(南门)",
          "address": "南华东路555号",
          "uid": "6a4a4f40b3687e458a36eec3",
          "location": {
            "lng": 113.27488029863,
            "lat": 23.117244304082
          }
        },
        {
          "name": "广州市轻工技师学院(西北门)",
          "address": "滨江中路272号",
          "uid": "4c0d4151d3c289db2fb96d36",
          "location": {
            "lng": 113.2747049494,
            "lat": 23.118149440603
          }
        },
        {
          "name": "广州市轻工高级技工学校南校区招生就业处",
          "address": "广东省广州市海珠区滨江中路",
          "uid": "399c0d33661c03a2f6c59c27",
          "location": {
            "lng": 113.27442755266,
            "lat": 23.118034522758
          }
        },
        {
          "name": "广州市轻工技师学院-东门",
          "address": "荣华北16",
          "uid": "972bee87c85f331743ab9a6f",
          "location": {
            "lng": 113.28643133969,
            "lat": 23.132885852908
          }
        },
        {
          "name": "广州市轻工技师学院(东凤南路)",
          "address": "东凤南路38号",
          "uid": "ea3ccc3d4b4a7cc65cd4fefd",
          "telephone": "(020)87481623",
          "location": {
            "lng": 113.37323199601,
            "lat": 23.363433053093
          }
        },
        {
          "name": "靓房租房",
          "address": "天河区广汕一路广州轻工技师学院东北70米",
          "uid": "1a1f3eb26227cf409d82ea3b",
          "telephone": "18202010154",
          "location": {
            "lng": 113.39334802078,
            "lat": 23.199297019338
          }
        },
        {
          "name": "广州数字化学习中心（市轻工技师学院）",
          "address": "广州市越秀区",
          "uid": "068db6f75420c0bcf82d617a",
          "location": {
            "lng": 113.28651802617,
            "lat": 23.132581017743
          }
        },
        {
          "name": "广州数学化学习中心（市轻工技师学院）",
          "address": "广州市越秀区",
          "uid": "deb25a4f76605a85f7231031",
          "location": {
            "lng": 113.28652602109,
            "lat": 23.132873971911
          }
        },
        {
          "name": "广东省轻工职业技术学校南校区",
          "address": "市广路288",
          "uid": "0523a141b4230a60b23c8105",
          "telephone": "020-29063001",
          "location": {
            "lng": 113.34513695221,
            "lat": 22.977322625158
          }
        },
        {
          "name": "广东省轻工业高级技工学校(中邦商务中心东)",
          "address": "广东省广州市天河区大观南路广东省轻工业技师学校附近",
          "uid": "0c85329ddd84d0d95d0d0241",
          "location": {
            "lng": 113.4136559236,
            "lat": 23.135322099611
          }
        },
        {
          "name": "广东省轻工业高级技工学校北校区(西北门)",
          "address": "广东省广州市天河区轻工业高级技工学校北校区附近",
          "uid": "004932e0ce085bdb1d58000b",
          "location": {
            "lng": 113.35028765634,
            "lat": 23.193180319556
          }
        },
        {
          "name": "谷味坊糖水店",
          "address": "广州白云区东凤南路38号轻工技师学院(近京港澳高速东凤村)",
          "uid": "9231344ab6a187255fd4fe1c",
          "telephone": "13678915882",
          "location": {
            "lng": 113.37256940586,
            "lat": 23.362447488105
          }
        },
        {
          "name": "广东省轻工业高级技工学校西校区",
          "address": "广州市海珠区新港西路160号",
          "uid": "f0b996a765dfa12f4107c170",
          "telephone": "(020)84450980",
          "location": {
            "lng": 113.30917113519,
            "lat": 23.09916736958
          }
        },
        {
          "name": "广州市穗平实业有限公司",
          "address": "广东省轻工业高级技工学校北校区附近",
          "uid": "aa79dc8216abbc626c476065",
          "location": {
            "lng": 113.35016566645,
            "lat": 23.192845892612
          }
        },
        {
          "name": "广东省轻工业技师学院招生服务大厅",
          "address": "广东省广州市海珠区新港西路160附近",
          "uid": "f654205048586af417948e05",
          "location": {
            "lng": 113.30911103855,
            "lat": 23.099179004281
          }
        },
        {
          "name": "广东省轻工业高级技工学校宿舍区",
          "address": "广东省广州市海珠区石榴岗路七星岗1-9号",
          "uid": "b1bbf1c98b262052d42ce2e5",
          "location": {
            "lng": 113.35078648539,
            "lat": 23.096649928773
          }
        },
        {
          "name": "广东省轻工业技师学院东校区-系部办公楼",
          "address": "广州市海珠区",
          "uid": "3b0d62528bec38f6bb17e7cd",
          "location": {
            "lng": 113.31197807042,
            "lat": 23.098765057619
          }
        },
        {
          "name": "广东省轻工业技师学院东校区工业实训楼-A区",
          "address": "广州市海珠区",
          "uid": "07d87276532b3374f90cad09",
          "location": {
            "lng": 113.31372096277,
            "lat": 23.097959848302
          }
        },
        {
          "name": "广东省轻工业技师学院东校区-工业实训楼",
          "address": "广州市海珠区鹭江西街",
          "uid": "625dc726f4cfd98ef4231097",
          "location": {
            "lng": 113.31381932722,
            "lat": 23.09795910035
          }
        },
        {
          "name": "广东省轻工业技师学院东校区-汽车实训室",
          "address": "广州市海珠区",
          "uid": "9b02f580dfdd4ef63686f412",
          "location": {
            "lng": 113.31015397125,
            "lat": 23.097544401932
          }
        },
        {
          "name": "广东省轻工业技师学院东校区工业实训楼-B区",
          "address": "广州市海珠区",
          "uid": "9078400ec61ec49ee311032c",
          "location": {
            "lng": 113.31354040336,
            "lat": 23.097901009407
          }
        },
        {
          "name": "广东省轻工业技师学院东校区-东门",
          "address": "广州市海珠区鹭江西街",
          "uid": "1b76281ef0998c969122e0ee",
          "location": {
            "lng": 113.31416912739,
            "lat": 23.098391914472
          }
        },
        {
          "name": "广东省轻工业技师学院东校区-办公楼",
          "address": "广州市海珠区",
          "uid": "e5dea04c0d1a2a3641d63e68",
          "location": {
            "lng": 113.31075520713,
            "lat": 23.098342051166
          }
        },
        {
          "name": "广东省轻工业技师学院东校区-学生公寓小区2号楼",
          "address": "广州市海珠区鹭江西街",
          "uid": "0a2b721a5a6a85e9a2a9346d",
          "location": {
            "lng": 113.31345093213,
            "lat": 23.099123323917
          }
        }
      ]
    }
  }
}