{
  "status": 0,
  "message": "ok",
  "type": 1,
  "info": {
    "copyright": {
      "text": "@2016 Baidu - Data",
      "imageUrl": "http://api.map.baidu.com/images/copyright_logo.png"
    }
  },
  "result": {
    "originInfo": {
      "area_id": 257,
      "wd": "儿童乐园",
      "uid": ""
    },
    "destinationInfo": {
      "area_id": 257,
      "wd": "蓝港国际珠宝交易中心",
      "uid": ""
    },
    "origin": {
      "cityName": "广州市",
      "listType": 0,
      "content": [
        {
          "name": "棉花糖欢乐堡儿童乐园",
          "address": "侨兴路56号2楼(近富家超市)",
          "uid": "947600400e4fd997f11937c8",
          "location": {
            "lng": 113.29929543391,
            "lat": 23.075449991737
          }
        },
        {
          "name": "嘻哈乐儿童主题乐园",
          "address": "新市南街45号新市天地F栋一层",
          "uid": "cc0b87aee73314ff2d4733e7",
          "location": {
            "lng": 113.27255359753,
            "lat": 23.198319525671
          }
        },
        {
          "name": "哈比熊儿童乐园",
          "address": "中山三路33号中华广场三楼（近烈士陵园地铁站A出口）",
          "uid": "1716b30485a90ee3dbd89159",
          "telephone": "(020)83738016",
          "location": {
            "lng": 113.28839395757,
            "lat": 23.131690187169
          }
        },
        {
          "name": "奇乐儿儿童主题公园(海珠新都荟店)",
          "address": "广州市海珠区东晓南路1290号海珠新都荟广场3层",
          "uid": "6d23b60703ca319a1d5800c4",
          "telephone": "13640281429",
          "location": {
            "lng": 113.29832203006,
            "lat": 23.079267381977
          }
        },
        {
          "name": "欢乐城堡儿童乐园(时代城店)",
          "address": "广州市黄埔区宏明路263号时代城2层",
          "uid": "aa612d3e93dc069c2b3a9f29",
          "telephone": "18027355868",
          "location": {
            "lng": 113.54996111859,
            "lat": 23.118393318707
          }
        },
        {
          "name": "贝童乐儿童乐园",
          "address": "洛溪新城渔人码头1号门内",
          "uid": "8d3e6eedcc772bef1d1d1162",
          "location": {
            "lng": 113.310232034,
            "lat": 23.037269980411
          }
        },
        {
          "name": "悠游堂儿童乐园(奥园广场店)",
          "address": "广州市番禺区南华路奥园广场二期2层",
          "uid": "7d5b1ca9ab5caba72bb97cf2",
          "telephone": "(020)31149251",
          "location": {
            "lng": 113.36431559518,
            "lat": 22.930398108693
          }
        },
        {
          "name": "儿童乐园",
          "address": "越秀区医灵直街11号",
          "uid": "b69952e4f5f36d2a43ab9a0f",
          "location": {
            "lng": 113.27595242626,
            "lat": 23.143227234437
          }
        },
        {
          "name": "好又多儿童乐园(大石)",
          "address": "番禺区大涌路好又多超市一楼",
          "uid": "d3f07423dc61b2cff4b91643",
          "location": {
            "lng": 113.32635302468,
            "lat": 23.02909703733
          }
        },
        {
          "name": "梦幻王国儿童乐园",
          "address": "中山四路199号悦尚城3楼梦幻王国旁边儿童体验区",
          "uid": "f1844cff32764e9c430245ca",
          "telephone": "(020)83721000",
          "location": {
            "lng": 113.27994503493,
            "lat": 23.132446006033
          }
        },
        {
          "name": "动感地球村儿童乐园",
          "address": "里仁洞兴业大道西永相隆超市二楼电梯对面",
          "uid": "410e0df2755f5fe6bfa822e3",
          "telephone": "13710192009",
          "location": {
            "lng": 113.35687798488,
            "lat": 22.997096045104
          }
        },
        {
          "name": "美 纷儿童乐园",
          "address": "广州市花都区新华街龙珠路39号来又来时尚购物广场F3",
          "uid": "3037a05cdfc4d1bafbf0cbcc",
          "location": {
            "lng": 113.23843855936,
            "lat": 23.404286713564
          }
        },
        {
          "name": "嘻哈乐儿童乐园",
          "address": "芳信路120号华裕购物广场2楼",
          "uid": "1dfbd22c8b232853593ac85f",
          "telephone": "(020)81634399",
          "location": {
            "lng": 113.21767099361,
            "lat": 23.113344992114
          }
        },
        {
          "name": "开心哈乐儿童乐园",
          "address": "横滘大道30号（横滘牌坊商业街196公交总站对面三楼）",
          "uid": "06c9e3f44b9f5a783be4a6bc",
          "telephone": "13826001549",
          "location": {
            "lng": 113.24580978488,
            "lat": 23.179286480565
          }
        },
        {
          "name": "探险岛儿童乐园",
          "address": "开发区东区开创大道百事佳亨晖广场一楼",
          "uid": "923108c6a8dff9f0aeb22a18",
          "telephone": "15920352696",
          "location": {
            "lng": 113.5497079761,
            "lat": 23.115101051127
          }
        },
        {
          "name": "知了岛iknow儿童成长主题乐园(财智店)",
          "address": "广州市白云区庆丰广场路6号庆丰财智广场2层",
          "uid": "d412ef47d842deae2806ce9a",
          "telephone": "18922703606",
          "location": {
            "lng": 113.23278390584,
            "lat": 23.217689758497
          }
        },
        {
          "name": "宝贝去哪玩（童幻世界儿童乐园（喜悦天地店））",
          "address": "桥光明北路223号喜悦天地301",
          "uid": "23a3b977bab54b088b2fb535",
          "telephone": "(020)31129479",
          "location": {
            "lng": 113.37235264474,
            "lat": 22.947509785876
          }
        },
        {
          "name": "水手宝宝婴幼儿水育早教乐园",
          "address": "江湾桥南富基路商铺(富基广场)",
          "uid": "059166067768793ed52ce275",
          "telephone": "18902301684",
          "location": {
            "lng": 113.27928100749,
            "lat": 23.114983887075
          }
        },
        {
          "name": "童乐坊儿童乐园",
          "address": "金鹏路66号（近金碧一期21栋）",
          "uid": "3bcb19e011240bbbddee8be2",
          "telephone": "15361296637",
          "location": {
            "lng": 113.29523751843,
            "lat": 23.074538579531
          }
        },
        {
          "name": "九色葵花儿童乐园",
          "address": "新塘广场华润万家三楼",
          "uid": "6c2f63801fe501cde81e9789",
          "telephone": "13353795695",
          "location": {
            "lng": 113.61960297187,
            "lat": 23.123139005972
          }
        },
        {
          "name": "海洋王国儿童乐园",
          "address": "大岗镇阳光城市广场二楼",
          "uid": "8444004e7e00477102294f7b",
          "telephone": "13544586606",
          "location": {
            "lng": 113.40717204426,
            "lat": 22.801505031288
          }
        },
        {
          "name": "宝宝乐园",
          "address": "广州市白云区",
          "uid": "9eebb63790249762a1a9345e",
          "location": {
            "lng": 113.30658185939,
            "lat": 23.339659572315
          }
        }
      ]
    },
    "destination": {
      "cityName": "广州市",
      "listType": 0,
      "content": [
        {
          "name": "蓝港国际珠宝交易中心",
          "address": "荔湾区康王中路300号华林国际誉品轩一至5楼",
          "uid": "49b0b9f11fe7c17221f01767",
          "location": {
            "lng": 113.25406871591,
            "lat": 23.124270770064
          }
        },
        {
          "name": "蓝港国际珠宝交易中心(正门)",
          "address": "广州市荔湾区",
          "uid": "04f42ea11d0c1dcd250bd065",
          "location": {
            "lng": 113.25381961579,
            "lat": 23.124275256886
          }
        },
        {
          "name": "蓝港(国际)珠宝交易中心A区",
          "address": "广州市荔湾区康王中路302、304号",
          "uid": "52d558443723b7a275e5b6fb",
          "location": {
            "lng": 113.25446172457,
            "lat": 23.124218756157
          }
        },
        {
          "name": "蓝港国际珠宝交易中心-南门",
          "address": "康王中路300",
          "uid": "03a70b3d48b860482b3a9f5d",
          "location": {
            "lng": 113.2540828193,
            "lat": 23.123984028603
          }
        },
        {
          "name": "蓝港(国际)珠宝交易中心C区",
          "address": "广州市荔湾区康王中路312、316、318、320号",
          "uid": "0cb41aa378aaf53af6c59c69",
          "location": {
            "lng": 113.25433461434,
            "lat": 23.124700424104
          }
        },
        {
          "name": "蓝港(国际)珠宝交易中心B区",
          "address": "广州市荔湾区康王中路306、308、310号",
          "uid": "aef02362e9ad01b1d13ce3d7",
          "location": {
            "lng": 113.25429589737,
            "lat": 23.124426728576
          }
        },
        {
          "name": "蓝港(国际)珠宝交易中心-东门",
          "address": "广州市荔湾区",
          "uid": "09c6fdcacbe276b31a94c65a",
          "location": {
            "lng": 113.25415333629,
            "lat": 23.124484226287
          }
        },
        {
          "name": "蓝港(国际)珠宝交易中心-北二门",
          "address": "广州市荔湾区",
          "uid": "60cd9f65f5ee277e0bf5eb71",
          "location": {
            "lng": 113.25392085482,
            "lat": 23.124941963678
          }
        },
        {
          "name": "蓝港(国际)珠宝交易中心-南一门",
          "address": "广州市荔湾区",
          "uid": "e5fc386130371def15a19050",
          "location": {
            "lng": 113.25401885995,
            "lat": 23.124268775921
          }
        },
        {
          "name": "蓝港(国际)珠宝交易中心-西一门",
          "address": "广州市荔湾区",
          "uid": "537ab4dbfbb3769f94ec8430",
          "location": {
            "lng": 113.25392911923,
            "lat": 23.124442183166
          }
        },
        {
          "name": "蓝港(国际)珠宝交易中心-南三门",
          "address": "广州市荔湾区",
          "uid": "7646dbb549cc9326c8213dbb",
          "location": {
            "lng": 113.25416645155,
            "lat": 23.124124449738
          }
        },
        {
          "name": "蓝港(国际)珠宝交易中心-西三门",
          "address": "广州市荔湾区",
          "uid": "808fa7d7a47be9906168580e",
          "location": {
            "lng": 113.25389300735,
            "lat": 23.124775536561
          }
        },
        {
          "name": "蓝港(国际)珠宝交易中心-西二门",
          "address": "广州市荔湾区康王中路",
          "uid": "7daa2d70db4dc95d9cec2bca",
          "location": {
            "lng": 113.25390217007,
            "lat": 23.124492701381
          }
        },
        {
          "name": "蓝港(国际)珠宝交易中心-东一门",
          "address": "广州市荔湾区",
          "uid": "52cd094b24491ccf102935bd",
          "location": {
            "lng": 113.25435653299,
            "lat": 23.12450649418
          }
        },
        {
          "name": "蓝港(国际)珠宝交易中心-北一门",
          "address": "广州市荔湾区",
          "uid": "43ce4b345d30abec26e0a026",
          "location": {
            "lng": 113.25403646674,
            "lat": 23.124925013547
          }
        },
        {
          "name": "蓝港(国际)珠宝交易中心-南二门",
          "address": "广州市荔湾区康王中路300号",
          "uid": "da0fcf843bbad52e871541d0",
          "location": {
            "lng": 113.25413554984,
            "lat": 23.124127856403
          }
        },
        {
          "name": "蓝港(国际)珠宝交易中心地面停车场",
          "address": "广东省广州市荔湾区康王中路322号",
          "uid": "a4151f069c9b9c275d17c301",
          "location": {
            "lng": 113.25443854829,
            "lat": 23.124415345356
          }
        },
        {
          "name": "东旺珠宝",
          "address": "广州市荔湾区人民南路蓝港国际珠宝交易中心1层",
          "uid": "c42daed9c598ac9aab175ace",
          "location": {
            "lng": 113.25559897934,
            "lat": 23.121681017691
          }
        },
        {
          "name": "虹蝴珠宝",
          "address": "广州市荔湾区人民南路蓝港国际珠宝交易中心1层",
          "uid": "fd94735a96eba02fcae33c67",
          "location": {
            "lng": 113.25383255139,
            "lat": 23.124199479432
          }
        },
        {
          "name": "卡禄珠宝",
          "address": "康王中路蓝港国际珠宝交易中心二楼2027",
          "uid": "da29d8bfa268fb7b1d580074",
          "telephone": "13507095897,(020)81534918",
          "location": {
            "lng": 113.25400601418,
            "lat": 23.124246923435
          }
        },
        {
          "name": "宏程珠宝",
          "address": "广州市荔湾区人民南路蓝港国际珠宝交易中心1层",
          "uid": "1fb2812618fe32f4344aaeaf",
          "location": {
            "lng": 113.25383255139,
            "lat": 23.124199479432
          }
        },
        {
          "name": "非凡珠宝",
          "address": "广州市荔湾区人民南路蓝港国际珠宝交易中心1层",
          "uid": "7c0c86fe15867a892b11d1e7",
          "location": {
            "lng": 113.25383264122,
            "lat": 23.124199562521
          }
        },
        {
          "name": "天禄珠宝",
          "address": "广州市荔湾区人民南路蓝港国际珠宝交易中心1层",
          "uid": "991b5c3d3d7165a45cd4fec0",
          "location": {
            "lng": 113.25383255139,
            "lat": 23.124199479432
          }
        },
        {
          "name": "美宝珠宝",
          "address": "康王中路300蓝港国际珠宝交易中心2099美宝珠宝",
          "uid": "f79c73fd8cf5eb8b0bf5eba9",
          "telephone": "15989244252",
          "location": {
            "lng": 113.25347466647,
            "lat": 23.124553190272
          }
        },
        {
          "name": "万峦珠宝",
          "address": "广州市荔湾区人民南路蓝港国际珠宝交易中心1层",
          "uid": "8db229b326e4b236b31e366f",
          "location": {
            "lng": 113.25383255139,
            "lat": 23.124199479432
          }
        },
        {
          "name": "聚富珠宝",
          "address": "广州市荔湾区人民南路蓝港国际珠宝交易中心1层",
          "uid": "28ba76e0d979505a02294f12",
          "location": {
            "lng": 113.25383255139,
            "lat": 23.124199479432
          }
        },
        {
          "name": "集利珠宝",
          "address": "广州市荔湾区人民南路蓝港国际珠宝交易中心1层",
          "uid": "96f35e5994373996dbd89155",
          "location": {
            "lng": 113.25383255139,
            "lat": 23.124199479432
          }
        },
        {
          "name": "琴泰珠宝",
          "address": "广州市荔湾区人民南路蓝港国际珠宝交易中心1层",
          "uid": "a520b6f1bdabc8b9fb2d611b",
          "location": {
            "lng": 113.25383255139,
            "lat": 23.124199479432
          }
        },
        {
          "name": "一卡珠宝",
          "address": "康王中路300号蓝港国际珠宝交易中心2楼A255",
          "uid": "84dd5de8e77036dc4107c10d",
          "telephone": "(020)81533480",
          "location": {
            "lng": 113.25396711755,
            "lat": 23.124319958917
          }
        },
        {
          "name": "日昇珠宝",
          "address": "广州市荔湾区人民南路蓝港国际珠宝交易中心1层",
          "uid": "ddb59ffe91e889401d1d11fd",
          "location": {
            "lng": 113.25383255139,
            "lat": 23.124199479432
          }
        },
        {
          "name": "龙浩珠宝",
          "address": "广州市荔湾区人民南路蓝港国际珠宝交易中心1层",
          "uid": "c4ba628d143c2e6e7adbd284",
          "location": {
            "lng": 113.25383255139,
            "lat": 23.124199479432
          }
        },
        {
          "name": "盈兴珠宝",
          "address": "广东省广州市荔湾区康王中路蓝港国际珠宝交易中心1020",
          "uid": "ee025aeb1c5601daf822131c",
          "location": {
            "lng": 113.254092521,
            "lat": 23.124434040425
          }
        },
        {
          "name": "艾黛珠宝",
          "address": "康王中路320号蓝港国际珠宝交易中心誉品轩C区C801",
          "uid": "a090c4df31e04d9d7adbd262",
          "telephone": "18817639516",
          "location": {
            "lng": 113.2539569667,
            "lat": 23.124116971693
          }
        },
        {
          "name": "爱宝珠宝",
          "address": "广州市荔湾区人民南路蓝港国际珠宝交易中心1层",
          "uid": "2afd1e5249bae63895ca07d7",
          "location": {
            "lng": 113.25383255139,
            "lat": 23.124199479432
          }
        },
        {
          "name": "金锋珠宝",
          "address": "广州市荔湾区人民南路蓝港国际珠宝交易中心1层",
          "uid": "76f4c4df1fe918fc882fb525",
          "location": {
            "lng": 113.25383255139,
            "lat": 23.124199479432
          }
        },
        {
          "name": "简爱珠宝",
          "address": "康王南路300号蓝港国际珠宝交易中心3002",
          "uid": "50f461cdedfd9866b9df8fb4",
          "location": {
            "lng": 113.2541421973,
            "lat": 23.124815003819
          }
        },
        {
          "name": "雅嘉蕾珠宝",
          "address": "广州市荔湾区人民南路蓝港国际珠宝交易中心1层",
          "uid": "06aa149f64ceef548b2fb525",
          "location": {
            "lng": 113.25383255139,
            "lat": 23.124199479432
          }
        },
        {
          "name": "钰隆盛珠宝",
          "address": "广东省广州市荔湾区康王中路300号蓝港国际珠宝交易中心",
          "uid": "48ec29aa528b10fba8059d24",
          "location": {
            "lng": 113.25382500562,
            "lat": 23.124608029077
          }
        },
        {
          "name": "一佳.珠宝行",
          "address": "广州市荔湾区人民南路蓝港国际珠宝交易中心1层",
          "uid": "3cb2418fb4882e1d276e9804",
          "location": {
            "lng": 113.25383255139,
            "lat": 23.124199479432
          }
        },
        {
          "name": "永发珠宝工艺",
          "address": "广州市荔湾区人民南路蓝港国际珠宝交易中心1层",
          "uid": "caf42f42a723e49826d2bb79",
          "location": {
            "lng": 113.25383255139,
            "lat": 23.124199479432
          }
        },
        {
          "name": "香港时代珠宝",
          "address": "广州市荔湾区人民南路蓝港国际珠宝交易中心1层",
          "uid": "58bf080261ecef523ae4a68a",
          "location": {
            "lng": 113.25383255139,
            "lat": 23.124199479432
          }
        },
        {
          "name": "广州卡咔尚珠宝有限公司",
          "address": "康王中路300号蓝港国际珠宝交易中心2楼",
          "uid": "a6bc24bd12602851ede4a51e",
          "telephone": "15626245755",
          "location": {
            "lng": 113.25407401591,
            "lat": 23.124265036903
          }
        },
        {
          "name": "广州色沙芭珠宝有限公司",
          "address": "荔湾区康王中路300号蓝港国际珠宝交易中心2065铺",
          "uid": "37db6c0c3e20fad7c42ba198",
          "telephone": "(020)86534625",
          "location": {
            "lng": 113.25445696355,
            "lat": 23.124215017137
          }
        },
        {
          "name": "北京中维京宝珠宝玉石鉴定有限公司（广州分公司）",
          "address": "广东省广州市荔湾区康王中路300号蓝港国际珠宝交易中心四楼4112-4118室",
          "uid": "6ccc311f9b27319928201a5f",
          "telephone": "(020)81619766",
          "location": {
            "lng": 113.2537858395,
            "lat": 23.124049669271
          }
        },
        {
          "name": "金宝隆",
          "address": "康王中路300-322号蓝港国际珠宝交易中心",
          "uid": "63b1e6ec8d7665780c0a70dd",
          "location": {
            "lng": 113.25396271586,
            "lat": 23.124891777989
          }
        },
        {
          "name": "九点琥珀",
          "address": "广州市荔湾区人民南路蓝港国际珠宝交易中心1层",
          "uid": "3b31b6577dc706bfb8bd6347",
          "location": {
            "lng": 113.25383264122,
            "lat": 23.124199562521
          }
        },
        {
          "name": "明辉线绳",
          "address": "康王中路300-322号蓝港国际珠宝交易中心3楼",
          "uid": "74b6ac1b1e24af5e7c29bd8d",
          "location": {
            "lng": 113.25395310399,
            "lat": 23.124281654761
          }
        },
        {
          "name": "广州市中维珠宝玉石质量检测中心有限公司",
          "address": "广东省广州市荔湾区康王中路300号蓝港国际珠宝交易中心四楼4113室",
          "uid": "b152b729820c113597031969",
          "telephone": "(020)81619766",
          "location": {
            "lng": 113.25415441425,
            "lat": 23.124186185137
          }
        },
        {
          "name": "明宇宝石",
          "address": "广州市荔湾区人民南路蓝港国际珠宝交易中心1层",
          "uid": "55326ccb3b43d8e03904b134",
          "location": {
            "lng": 113.25383255139,
            "lat": 23.124199479432
          }
        },
        {
          "name": "星火琥珀",
          "address": "广州市荔湾区人民南路蓝港国际珠宝交易中心1层",
          "uid": "940fa86537e594868c55ec7d",
          "location": {
            "lng": 113.25383255139,
            "lat": 23.124199479432
          }
        }
      ]
    }
  }
}