{
  "status": 0,
  "message": "ok",
  "type": 1,
  "info": {
    "copyright": {
      "text": "@2016 Baidu - Data",
      "imageUrl": "http://api.map.baidu.com/images/copyright_logo.png"
    }
  },
  "result": {
    "originInfo": {
      "area_id": 257,
      "wd": "润南花园幼儿园",
      "uid": ""
    },
    "destinationInfo": {
      "area_id": 257,
      "wd": "江南菜馆江南大道店",
      "uid": ""
    },
    "origin": {
      "cityName": "广州市",
      "listType": 1,
      "content": [
        {
          "name": "焦作市",
          "number": 2
        },
        {
          "name": "桂林市",
          "number": 1
        },
        {
          "name": "济南市",
          "number": 1
        }
      ]
    },
    "destination": {
      "cityName": "广州市",
      "listType": 0,
      "content": [
        {
          "name": "江南菜馆江南大道店",
          "address": "海珠区江南大道中255号(近摩登百货)",
          "uid": "74c933fb8aab6a479f82ea90",
          "telephone": "(020)84019615,(020)84017406",
          "location": {
            "lng": 113.28288923124,
            "lat": 23.098985369484
          }
        },
        {
          "name": "新兴饭店(江南大道店)",
          "address": "广州海珠区前进路92-100号(近嘉汇华庭)",
          "uid": "4ea3f2f1b3c12eb3afcb66bd",
          "telephone": "(020)84414338",
          "location": {
            "lng": 113.28389865714,
            "lat": 23.106947765062
          }
        },
        {
          "name": "广饮讲食饭店(江南大道店)",
          "address": "江南大道南363号(晓园北路口走进来10米)",
          "uid": "aa2fe7d7ad214cb5eedfcab4",
          "telephone": "(020)84496358",
          "location": {
            "lng": 113.2847383033,
            "lat": 23.094573826955
          }
        },
        {
          "name": "常湘汇(江南大道店)",
          "address": "江南大道中232号B座6楼",
          "uid": "1d441797d55140b7ebe582d0",
          "telephone": "(020)84418369",
          "location": {
            "lng": 113.28133911525,
            "lat": 23.100448011602
          }
        },
        {
          "name": "肯德基 江南西店",
          "address": "广州海珠区江南大道中168号海洋石油大厦1楼(近 江南西地铁站)",
          "uid": "e2c734e41f3e234414a19086",
          "telephone": "(020)84440858",
          "location": {
            "lng": 113.28023150455,
            "lat": 23.103248593886
          }
        },
        {
          "name": "卡朋西餐馆(江南大道店)",
          "address": "广州海珠区江南大道中255号(近摩登百货)",
          "uid": "d6c5d9917e1688f131169bf8",
          "telephone": "(020)34042630",
          "location": {
            "lng": 113.28312871948,
            "lat": 23.098333408191
          }
        },
        {
          "name": "淇乐多菜馆",
          "address": "广州市海珠区江南大道中84号(地铁二号线市二宫出口左侧)",
          "uid": "46e86fddb0c01c76d03ce3bf",
          "telephone": "(020)84438929,(020)84418845",
          "location": {
            "lng": 113.27667987406,
            "lat": 23.110850505782
          }
        },
        {
          "name": "大西豪江南大道中店",
          "address": "广州海珠区江南大道中332号2楼(近地铁昌岗站C2出口)",
          "uid": "5b25f44634496af3112935ab",
          "telephone": "(020)84190009",
          "location": {
            "lng": 113.28256063108,
            "lat": 23.097734548381
          }
        },
        {
          "name": "粤潮牛肉火锅店(江南大道店)",
          "address": "广州市海珠区江南大道中84号(近新疆证券大厦)",
          "uid": "101bc61b7a47edbac52ba1ba",
          "telephone": "020-84473676",
          "location": {
            "lng": 113.27659992487,
            "lat": 23.11098071981
          }
        },
        {
          "name": "麦当劳(江南大道南店)",
          "address": "广州市海珠区江南大道南408号华忆百货入口东侧首层及2层部分商铺",
          "uid": "925c550fe9ee70ab5b3ac8e1",
          "telephone": "(020)34214114",
          "location": {
            "lng": 113.28509502041,
            "lat": 23.092112979728
          }
        },
        {
          "name": "自鱿人(江南大道中店)",
          "address": "江南大道中路246号A13铺（华海大厦公交站，蓝天商场）",
          "uid": "cde9e2c7b3b9cfade81e975f",
          "telephone": "(020)84412511",
          "location": {
            "lng": 113.27999021969,
            "lat": 23.103785185358
          }
        },
        {
          "name": "麦当劳(江南大道中店)",
          "address": "广州市海珠区江南大道中",
          "uid": "25ec69fcc88ca764c36c14a5",
          "location": {
            "lng": 113.28078099804,
            "lat": 23.103154688078
          }
        },
        {
          "name": "十八楼C座(江南大道店)",
          "address": "江南大道中150号丽日商业广场首层",
          "uid": "aa1b6942f18d86c68bf15db8",
          "telephone": "13544471609",
          "location": {
            "lng": 113.27784452715,
            "lat": 23.103487513231
          }
        },
        {
          "name": "盛泓茗点园(江南大道店)",
          "address": "江南大道中217-1号2层",
          "uid": "b3c12d7f208329f4d0ff2352",
          "telephone": "(020)84493888",
          "location": {
            "lng": 113.28154868992,
            "lat": 23.101670718188
          }
        },
        {
          "name": "旺源骆驼奶(江南大道店)",
          "address": "江南大道中171号101房",
          "uid": "062f2663de26ef1d2ffaa7b8",
          "telephone": "13826267966,13580374996",
          "location": {
            "lng": 113.28013996722,
            "lat": 23.104636979353
          }
        },
        {
          "name": "小港月亮湾(江南大道店)",
          "address": "江南大道北小港路口",
          "uid": "ab94ecc26e6036f44d2fdf2e",
          "telephone": "(020)31455998,(020)29063331",
          "location": {
            "lng": 113.27658537232,
            "lat": 23.113580070873
          }
        },
        {
          "name": "铭记牛肉(江南大道南店)",
          "address": "江南大道1234号",
          "uid": "6de4328bfa24a8f0afb22a75",
          "telephone": "13729836188",
          "location": {
            "lng": 113.29860346918,
            "lat": 23.072077361324
          }
        },
        {
          "name": "朱仔记食府(江南大道店)",
          "address": "海珠区海珠区江南大道南",
          "uid": "2a7a25ec76dee07a6d3e1b9a",
          "location": {
            "lng": 113.2858929852,
            "lat": 23.091461898912
          }
        },
        {
          "name": "荣轩(江南大道店)",
          "address": "江南大道南118号",
          "uid": "7dbfb6fac0bf1dc1b1077dd3",
          "telephone": "(020)84301729",
          "location": {
            "lng": 113.28577899023,
            "lat": 23.091966042187
          }
        },
        {
          "name": "愉园美食(江南大道店)",
          "address": "海珠区江南大道中163号(电信局营业厅对面)",
          "uid": "2fd2beab83cce04b7bdbd280",
          "telephone": "020-84245290",
          "location": {
            "lng": 113.27975576196,
            "lat": 23.105459433208
          }
        },
        {
          "name": "唐宴酒家(江南大道店)",
          "address": "广州海珠区江南大道348号珀丽酒店3楼(近美术学院)",
          "uid": "cde9e2c7b818c0ade81e97fc",
          "telephone": "(020)84427118,(020)84426889",
          "location": {
            "lng": 113.28225188348,
            "lat": 23.096693559722
          }
        },
        {
          "name": "天成川菜馆 江南大道店",
          "address": "广州海珠区江南大道中332号2楼(近地铁昌岗站C2出口)",
          "uid": "15a93810b445cca415c8f6bc",
          "telephone": "(020)84259474",
          "location": {
            "lng": 113.28259171245,
            "lat": 23.097645708138
          }
        },
        {
          "name": "北江食府(江南大道店)",
          "address": "广州市海珠区江南大道南435～439号(单)",
          "uid": "14076dee30391eed03294f8a",
          "telephone": "(020)84428783,13632496973",
          "location": {
            "lng": 113.28614729549,
            "lat": 23.090920354154
          }
        },
        {
          "name": "小港月亮湾(江南大道店)",
          "address": "广东省广州市海珠区宝岗大道143恒龙电脑城东行20米",
          "uid": "2ba710cc9be4ef097fc8762e",
          "telephone": "18022353301",
          "location": {
            "lng": 113.2683164701,
            "lat": 23.109297068341
          }
        },
        {
          "name": "淼鑫猪肚鸡(江南大道店)",
          "address": "江南大道中117号",
          "uid": "7bc49575a6ff8de7c2364455",
          "telephone": "(020)89627159",
          "location": {
            "lng": 113.27835701045,
            "lat": 23.108465995944
          }
        },
        {
          "name": "大家乐酸菜鱼(江南大道中店)",
          "address": "江南大道中南昌大街40号(近摩登百货，近昌岗地铁站C2出口)",
          "uid": "5fc325e701ab1ada6cc02cc7",
          "telephone": "(020)84256879",
          "location": {
            "lng": 113.28137998815,
            "lat": 23.098204012815
          }
        },
        {
          "name": "皇茶（江南大道中店）",
          "address": "江南大道中255号前座首层自编12",
          "uid": "95041ee426be47b59868b414",
          "telephone": "18680551106",
          "location": {
            "lng": 113.28304104487,
            "lat": 23.098430974049
          }
        },
        {
          "name": "广州酒家(利口福江南大道店)",
          "address": "江南大道中154-156号首层10号",
          "uid": "1653b86b6f4b0764ae0457e9",
          "telephone": "(020)84242765",
          "location": {
            "lng": 113.27973402296,
            "lat": 23.104078036905
          }
        },
        {
          "name": "妯娌老鸭粉丝汤(江南大道店)",
          "address": "江南大道中112号首层之自编三号（万国广场旁天桥下）",
          "uid": "9ef28d16f8a192422b201a91",
          "telephone": "(020)34400647",
          "location": {
            "lng": 113.27837273079,
            "lat": 23.107308751581
          }
        },
        {
          "name": "一把手开心花甲(江南大道店)",
          "address": "江南大道中（公交南村站，地铁江南西D出口）",
          "uid": "0778e930265e853901294f7b",
          "telephone": "13560319539",
          "location": {
            "lng": 113.2816009713,
            "lat": 23.100031991285
          }
        },
        {
          "name": "九龙冰室(江南大道南店)",
          "address": "江南大道南689-709(单号）第二层自编2B05号",
          "uid": "851a6f7f27690de2eedfca5e",
          "telephone": "(020)89888234",
          "location": {
            "lng": 113.293492021,
            "lat": 23.08004303182
          }
        },
        {
          "name": "聚宝堂港式茶餐厅(江南大道店)",
          "address": "江南大道中272号（近聚宝堂茶餐厅）",
          "uid": "fa835ce20d78c0afe912e4f7",
          "telephone": "(020)84489778",
          "location": {
            "lng": 113.28213007325,
            "lat": 23.098692756022
          }
        },
        {
          "name": "香岛小筑 江南大道中店",
          "address": "广州市海珠区江南大道中257号B1楼(近摩登百货)",
          "uid": "13adda226f684f93aeb22a2d",
          "telephone": "(020)84477966",
          "location": {
            "lng": 113.28243935984,
            "lat": 23.100223630051
          }
        },
        {
          "name": "渔意川菜大家乐(广医二院店)",
          "address": "江南大道南367号(省口腔医院对面)",
          "uid": "afa25e9d16fc33bc9d95de29",
          "telephone": "(020)84478773",
          "location": {
            "lng": 113.28463131511,
            "lat": 23.094486812973
          }
        },
        {
          "name": "永盈茶餐厅(江南大道中店)",
          "address": "广州海珠区江南大道中322号(近昌江东路路口北侧)",
          "uid": "91c13f932cec3ce320f01782",
          "telephone": "13392464137",
          "location": {
            "lng": 113.28259072431,
            "lat": 23.097694740647
          }
        },
        {
          "name": "赛牛灸烧牛扒(江南大道中店)",
          "address": "江南大道中148号丽日广场1楼",
          "uid": "4fcab7ac51c33a0552e5c584",
          "telephone": "(020)84240829,(020)84244275",
          "location": {
            "lng": 113.27966593141,
            "lat": 23.104484072345
          }
        },
        {
          "name": "大家乐酸菜鱼(江南大道中店)",
          "address": "广州海珠区江南大道中南昌大街40号(近天成川菜)",
          "uid": "2848ffd60439781649cc4abd",
          "telephone": "(020)84256879",
          "location": {
            "lng": 113.28138223391,
            "lat": 23.098204594555
          }
        },
        {
          "name": "小禾回转寿司(江南大道中店)",
          "address": "广州市海珠区海江南大道中118号海逸花园1楼(近南田路口)",
          "uid": "eef2d5289dd426be3ae4a68f",
          "telephone": "(020)84428330",
          "location": {
            "lng": 113.2779872679,
            "lat": 23.107347891635
          }
        },
        {
          "name": "润泰便利店",
          "address": "江南大道南湘宾湘菜馆旁",
          "uid": "fab40da029e4d3550869d970",
          "location": {
            "lng": 113.29504707766,
            "lat": 23.079010050082
          }
        },
        {
          "name": "张记土菜馆(海珠店)",
          "address": "广州海珠区江南大道南华东路(海珠桥南小港路)",
          "uid": "f5ee41a8c650ab542bd7ab50",
          "location": {
            "lng": 113.27584822282,
            "lat": 23.117368362909
          }
        },
        {
          "name": "圣苑菜馆(江南店)",
          "address": "广东省广州市海珠区江南大道南473号",
          "uid": "61b534428936255f1e5800d3",
          "telephone": "(020)34376888",
          "location": {
            "lng": 113.28706698067,
            "lat": 23.089230048781
          }
        },
        {
          "name": "潮都汕头牛肉店江南大道南分店",
          "address": "海珠区江南大道南482号地铁江泰路C出口",
          "uid": "3aff14116ccc92be2fb17e83",
          "telephone": "13533348754",
          "location": {
            "lng": 113.28656635501,
            "lat": 23.088672953063
          }
        },
        {
          "name": "圆味拉肠店",
          "address": "昌岗街道江南大道南405-1号西(满堂红旁边)",
          "uid": "cee65ba0e6e7becda8f0cdd2",
          "telephone": "(020)84490682",
          "location": {
            "lng": 113.28550698332,
            "lat": 23.092322082872
          }
        },
        {
          "name": "潮牛火锅店",
          "address": "海珠区江南大道南450-452号(地铁江泰站B2出口)",
          "uid": "3ae0c519d56842eeecdfcab0",
          "telephone": "(020)81888968,13556193281",
          "location": {
            "lng": 113.28742702152,
            "lat": 23.088245010874
          }
        },
        {
          "name": "渔意火锅店",
          "address": "江南大道中南昌大街40号(昌岗地铁站C2出口)",
          "uid": "37a91cf97929d375a2d230d6",
          "telephone": "(020)84256879",
          "location": {
            "lng": 113.28174101713,
            "lat": 23.097838015194
          }
        },
        {
          "name": "品味海鲜店",
          "address": "广东省广州市海珠区江南大道中(近地铁站)",
          "uid": "ab7822cc03f4b11032870af6",
          "location": {
            "lng": 113.28198346979,
            "lat": 23.105500817535
          }
        },
        {
          "name": "晓港肠粉店",
          "address": "江南大道南365号",
          "uid": "d1d3f9425f0c40c88f1a89ee",
          "location": {
            "lng": 113.28457238627,
            "lat": 23.094580558694
          }
        },
        {
          "name": "昌和美食店",
          "address": "广东省广州市海珠区江南大道中245附近",
          "uid": "dbe1fcfc309166c1f5c59c16",
          "location": {
            "lng": 113.28173059679,
            "lat": 23.098551144504
          }
        },
        {
          "name": "花影町寿司店",
          "address": "江南大道玫瑰园玫瑰二街33号（近十香园）",
          "uid": "56f2f696baea7c990ba8d490",
          "telephone": "(020)84444173",
          "location": {
            "lng": 113.27905319722,
            "lat": 23.098977225182
          }
        },
        {
          "name": "麦当劳甜品店",
          "address": "广东省广州市海珠区江南大道中",
          "uid": "2f4ee7c86b6180c3d0ff2350",
          "location": {
            "lng": 113.28078701668,
            "lat": 23.10316599002
          }
        }
      ]
    }
  }
}