{
  "status": 0,
  "message": "ok",
  "type": 1,
  "info": {
    "copyright": {
      "text": "@2016 Baidu - Data",
      "imageUrl": "http://api.map.baidu.com/images/copyright_logo.png"
    }
  },
  "result": {
    "originInfo": {
      "area_id": 257,
      "wd": "中华国际中心",
      "uid": ""
    },
    "destinationInfo": {
      "area_id": 257,
      "wd": "江南大道中南田路(路口)",
      "uid": ""
    },
    "origin": {
      "cityName": "广州市",
      "listType": 0,
      "content": [
        {
          "name": "中华国际中心",
          "address": "广州市越秀区中山三路33号",
          "uid": "4642844a3fa90ed9c9fa5f39",
          "location": {
            "lng": 113.28885101541,
            "lat": 23.132165098151
          }
        },
        {
          "name": "中华国际中心-A塔",
          "address": "广州市中山三路33号",
          "uid": "2f72996e7aa6fe8af42310a2",
          "location": {
            "lng": 113.28892817986,
            "lat": 23.131676062779
          }
        },
        {
          "name": "中华国际中心-B座",
          "address": "广州市越秀区东昌南路",
          "uid": "b8ea808a1704d33e88db73f8",
          "telephone": "(020)28821777,(020)83338888",
          "location": {
            "lng": 113.28900220023,
            "lat": 23.131681878705
          }
        },
        {
          "name": "中華國際金融中心",
          "address": "广东省广州市越秀区中山三路33号",
          "uid": "ac87e1e09e92c3003517dc20",
          "location": {
            "lng": 113.28949231572,
            "lat": 23.132341486104
          }
        },
        {
          "name": "中华国际中心(东南门)",
          "address": "中山三路33号",
          "uid": "3b6c4d6d57409220734b87e2",
          "location": {
            "lng": 113.28884320015,
            "lat": 23.131655208529
          }
        },
        {
          "name": "中华国际中心停车场",
          "address": "广州市越秀区较场西路33",
          "uid": "593850fbed57be20df1e5237",
          "location": {
            "lng": 113.28953246997,
            "lat": 23.131771443927
          }
        },
        {
          "name": "中华国际中心-西门",
          "address": "中山三路33号",
          "uid": "8fa14fc380932810f7eafc16",
          "location": {
            "lng": 113.28826190666,
            "lat": 23.131884355843
          }
        },
        {
          "name": "中华国际中心-地下停车场",
          "address": "广州市越秀区",
          "uid": "11b2ae1a213257f11e5800fd",
          "location": {
            "lng": 113.28928633426,
            "lat": 23.131688110053
          }
        },
        {
          "name": "中华国际中心地下停车场-入口",
          "address": "广州市越秀区中山三路33号中华广场B2",
          "uid": "5b71c217c6c0409ffea77874",
          "location": {
            "lng": 113.28922938169,
            "lat": 23.131679219996
          }
        },
        {
          "name": "中华国际中心地下停车场-出口",
          "address": "广州市越秀区",
          "uid": "e486961e61bc3754b13c815e",
          "location": {
            "lng": 113.28816363204,
            "lat": 23.132452486598
          }
        },
        {
          "name": "创富港中华国际中心服务分中心",
          "address": "广州市中山三路33号中华国际中心10楼b座",
          "uid": "4f009cb459e28cfef503b8ca",
          "telephone": "(020)28821777",
          "location": {
            "lng": 113.28891910697,
            "lat": 23.132019035787
          }
        },
        {
          "name": "盛世中华百货有限公司",
          "address": "广州市越秀区中山三路33号中华国际中心26层",
          "uid": "5ffcc1062f3dd2d4a2d230d4",
          "location": {
            "lng": 113.28900220023,
            "lat": 23.131682792636
          }
        },
        {
          "name": "小吉美甲（中华国际中心店）",
          "address": "中山三路33号中华广场3楼3388铺(地铁一号线烈士陵园)",
          "uid": "d17e9347812e1852e6073809",
          "telephone": "13560250319",
          "location": {
            "lng": 113.28910406807,
            "lat": 23.132915513856
          }
        },
        {
          "name": "雅田少年儿童艺术培训中心",
          "address": "越秀区中山三路33号中华国际中心B座47楼20室(中华广场)",
          "uid": "2c37a23cc3a452982bd7ab1f",
          "telephone": "13760679341",
          "location": {
            "lng": 113.28898396463,
            "lat": 23.131773022535
          }
        },
        {
          "name": "票务中心",
          "address": "广州市越秀区中山三路33号中华国际中心1层",
          "uid": "dc4e50f9f0d7cd3c9e82eae1",
          "location": {
            "lng": 113.28892800019,
            "lat": 23.131675979694
          }
        },
        {
          "name": "百合网广州国际中心VIP服务中心",
          "address": "广州市越秀区较场东路中华国际中心B栋5501室",
          "uid": "6ce4b834d02ff7703686f468",
          "location": {
            "lng": 113.28909921722,
            "lat": 23.131883608082
          }
        },
        {
          "name": "爱亲华南运营中心",
          "address": "广州市越秀区中山三路33号中华国际中心60层",
          "uid": "ec166be5c27eda37dbd891b4",
          "location": {
            "lng": 113.28892817986,
            "lat": 23.131675979694
          }
        },
        {
          "name": "欧亚美创美容中心",
          "address": "中山三路33号中华国际中心2楼大堂",
          "uid": "04d278dd4ebbf2d44c6d4648",
          "location": {
            "lng": 113.28827583039,
            "lat": 23.132035320337
          }
        },
        {
          "name": "NR新境界国际物流",
          "address": "广州市越秀区中山三路33号中华国际中心56层",
          "uid": "c2c6fcacc3176552203bf24d",
          "location": {
            "lng": 113.28892817986,
            "lat": 23.131675979694
          }
        },
        {
          "name": "广州市邦威财务有限公司 中华广场分公司",
          "address": "广州市越秀区中山三路33号中华国际中心47层",
          "uid": "793fa58c26086b033310af2e",
          "location": {
            "lng": 113.28892817986,
            "lat": 23.131675979694
          }
        },
        {
          "name": "广州福竹客户体验中心",
          "address": "广州市越秀区中山三路33号中华国际中心50层",
          "uid": "898c465be9ba8e01a7c75677",
          "location": {
            "lng": 113.28892817986,
            "lat": 23.131676062779
          }
        },
        {
          "name": "唯美国际广告有限公司",
          "address": "中华国际中心南门b座24层2404,2405",
          "uid": "528d8650fe1781d9c3364477",
          "telephone": "020-37612079",
          "location": {
            "lng": 113.28900255955,
            "lat": 23.131682460297
          }
        },
        {
          "name": "岭南国际旅行社东山营业部",
          "address": "中华国际中心B座15层1508",
          "uid": "ca07d2c0d29e63e7b34c4998",
          "location": {
            "lng": 113.28900220023,
            "lat": 23.13168287572
          }
        },
        {
          "name": "捷士国际货运代理有限公司",
          "address": "中华国际中心B座14层1401",
          "uid": "0e30faae356fb76ad518b7db",
          "location": {
            "lng": 113.28900220023,
            "lat": 23.131682792636
          }
        },
        {
          "name": "澳洲粮油食品国际有限公司",
          "address": "中华国际中心A座22层2208",
          "uid": "0444b5dbffbc64381b11d581",
          "location": {
            "lng": 113.28826181683,
            "lat": 23.131884355843
          }
        },
        {
          "name": "广州凌沃国际货运代理有限公司",
          "address": "广州市越秀区中山三路33号中华国际中心50层",
          "uid": "0bf33a36db040e9cc4f02527",
          "telephone": "18617358357",
          "location": {
            "lng": 113.28892817986,
            "lat": 23.131676062779
          }
        },
        {
          "name": "广州市顺永国际货运代理有限公司",
          "address": "中华国际中心B座36层3608",
          "uid": "0fa4256a166cdc1f2fb17eb0",
          "telephone": "13825132932",
          "location": {
            "lng": 113.28900220023,
            "lat": 23.13168287572
          }
        },
        {
          "name": "美夏国际贸易有限公司广州分公司",
          "address": "中华国际中心B座24层2409/2410",
          "uid": "cbf7b9434bd1389688fc06b7",
          "location": {
            "lng": 113.28900220023,
            "lat": 23.131682792636
          }
        },
        {
          "name": "环美国际货运有限公司广州分公司",
          "address": "中华国际中心B座40层4008",
          "uid": "02a83bc8a6b2799fb23c8104",
          "location": {
            "lng": 113.28900220023,
            "lat": 23.13168179562
          }
        },
        {
          "name": "先达国际货运有限公司广州分公司",
          "address": "中华国际中心B座37层3705",
          "uid": "2aed6833b9963e4b5e17c30c",
          "location": {
            "lng": 113.28900220023,
            "lat": 23.13168179562
          }
        },
        {
          "name": "捷爱士国际货物运输代理(上海)有限公司广州分公司",
          "address": "广州市越秀区中山三路33号中华国际中心14层",
          "uid": "c2bc7f9977168fc8ab059d66",
          "location": {
            "lng": 113.28892817986,
            "lat": 23.131675979694
          }
        },
        {
          "name": "派瑞丝蒂国际婚蜜",
          "address": "越秀区中山三路33号中华国际中心B座5115室",
          "uid": "16b303ecd5f76906b34c49da",
          "location": {
            "lng": 113.28875202214,
            "lat": 23.132003415912
          }
        },
        {
          "name": "中外运-敦豪国际航空快件有限公司",
          "address": "中华国际中心A座24层",
          "uid": "3496ab6e2bd0f9a76ca3cc54",
          "telephone": "64665566",
          "location": {
            "lng": 113.28832002703,
            "lat": 23.131992033342
          }
        },
        {
          "name": "中国民生银行(广州分行信用卡营销中心)",
          "address": "中华国际中心A座25层2504-2514",
          "uid": "91f56f223f6025bf77026984",
          "location": {
            "lng": 113.28235357166,
            "lat": 23.137063162312
          }
        },
        {
          "name": "广东菁橙汇电子商务有限公司广州运营中心",
          "address": "广州市越秀区中山三路中华国际中心B座5411室",
          "uid": "eeb7293fe7bdf989f33cba46",
          "location": {
            "lng": 113.289127963,
            "lat": 23.13169700011
          }
        },
        {
          "name": "ITRIM瑞爱轻体重管理中心(中华广场店)",
          "address": "中山三路33号中华国际中心B座1201室",
          "uid": "dba38c8e5ac5cad4f8221332",
          "telephone": "(020)29067199",
          "location": {
            "lng": 113.28918527489,
            "lat": 23.131893412056
          }
        },
        {
          "name": "长生鸟珍珠美白体验中心(奈瑞儿中华广场店)",
          "address": "中山三路叁拾叁号中华国际中心B座12楼(近地王广场)",
          "uid": "a20ec3ae261e84282ffaa7eb",
          "location": {
            "lng": 113.28900220023,
            "lat": 23.13168287572
          }
        },
        {
          "name": "广东曼维力装饰设计工程有限公司",
          "address": "中山三路33号中华国际中心B塔5708",
          "uid": "3a981a901414c925c42ba107",
          "telephone": "(020)38049055,4001168368",
          "location": {
            "lng": 113.28900920701,
            "lat": 23.131671825461
          }
        },
        {
          "name": "广州新赢家商贸有限公司",
          "address": "中山三路33号中华国际中心B塔32层3206-07厅",
          "uid": "06847dda152881716b49f3b1",
          "telephone": "(020)83818718,4008788018",
          "location": {
            "lng": 113.28864099158,
            "lat": 23.131668003567
          }
        },
        {
          "name": "TasTe香港百佳旗下超市",
          "address": "广州市越秀区中山三路33号中华国际中心3层",
          "uid": "7d3ba59544fa1837cc06a46b",
          "location": {
            "lng": 113.28896312394,
            "lat": 23.131951903544
          }
        },
        {
          "name": "长城证券",
          "address": "广州市越秀区中山三路33号中华国际中心55层",
          "uid": "659af159492b75b02d473320",
          "location": {
            "lng": 113.28949231572,
            "lat": 23.132341486104
          }
        },
        {
          "name": "卫材(苏州)制药有限公司广州办事处",
          "address": "广州市中山三路33号中华国际中心B塔2301-2307室",
          "uid": "9eae1469a2cbfad62b3a9fbd",
          "telephone": "(020)83831118",
          "location": {
            "lng": 113.28845396438,
            "lat": 23.131562984516
          }
        },
        {
          "name": "JISE",
          "address": "广州市越秀区中山三路33号中华国际中心5层",
          "uid": "5b14e05f27f10652f4eafce0",
          "location": {
            "lng": 113.28892800019,
            "lat": 23.131675979694
          }
        },
        {
          "name": "Annil",
          "address": "广州市越秀区中山三路33号中华国际中心5层",
          "uid": "06845368aaed59a5cc06a482",
          "location": {
            "lng": 113.28827888463,
            "lat": 23.131870314558
          }
        },
        {
          "name": "talasa",
          "address": "广州市越秀区中山三路33号中华国际中心1层",
          "uid": "045be1712e50bd3e8605bf98",
          "location": {
            "lng": 113.28908313756,
            "lat": 23.132217607448
          }
        },
        {
          "name": "BAIQI",
          "address": "广州市越秀区中山三路33号中华国际中心5层",
          "uid": "5ae99c5f2b20f7f3095cb3ba",
          "location": {
            "lng": 113.28894219342,
            "lat": 23.131818968307
          }
        },
        {
          "name": "真柔美皮具",
          "address": "广州市越秀区中山三路33号中华国际中心1层",
          "uid": "e22f2c414e464dc0fda7780b",
          "location": {
            "lng": 113.28884607473,
            "lat": 23.132199162729
          }
        },
        {
          "name": "EVE\u0027S TEMPTATION",
          "address": "广州市越秀区中山三路33号中华国际中心1层",
          "uid": "a72d5742f3fd4d46fbf0cb72",
          "location": {
            "lng": 113.28920422914,
            "lat": 23.13212829178
          }
        },
        {
          "name": "希心亚宝",
          "address": "广州市越秀区中山三路33号中华国际中心1层",
          "uid": "14bc5969a4757421f32d839e",
          "location": {
            "lng": 113.28910613418,
            "lat": 23.132347551253
          }
        },
        {
          "name": "广州匡宇建筑设计顾问有也公司 香港蒋匡文建筑师事务所代办处",
          "address": "广州市越秀区中山三路33号中华国际中心50层",
          "uid": "020bece82c3f7a62ede4a5dc",
          "location": {
            "lng": 113.28892817986,
            "lat": 23.131675979694
          }
        }
      ]
    },
    "destination": {
      "cityName": "广州市",
      "listType": 0,
      "content": [
        {
          "name": "中南田路",
          "address": "海珠区",
          "location": {
            "lng": 113.26921459595,
            "lat": 23.105657546015
          }
        }
      ]
    }
  }
}