{
  "status": 0,
  "message": "ok",
  "type": 1,
  "info": {
    "copyright": {
      "text": "@2016 Baidu - Data",
      "imageUrl": "http://api.map.baidu.com/images/copyright_logo.png"
    }
  },
  "result": {
    "originInfo": {
      "area_id": 257,
      "wd": "暨南大学附属口腔医院",
      "uid": ""
    },
    "destinationInfo": {
      "area_id": 257,
      "wd": "广东美术馆",
      "uid": ""
    },
    "origin": {
      "cityName": "广州市",
      "listType": 0,
      "content": [
        {
          "name": "暨南大学·附属口腔医院",
          "address": "广州市天河区天河东路179-181号",
          "uid": "84e033464ce872ce52e5c5b6",
          "telephone": "(020)38818388",
          "location": {
            "lng": 113.33939695966,
            "lat": 23.145592011951
          }
        },
        {
          "name": "暨南大学附属穗华口腔医院",
          "address": "黄埔大道西413号",
          "uid": "176147333c0604b71911d559",
          "telephone": "(020)62266666",
          "location": {
            "lng": 113.34589197799,
            "lat": 23.132688030004
          }
        },
        {
          "name": "广州初印象家庭旅馆",
          "address": "天河东路260号德荣小区(暨南大学附属口腔医院正对面)临近地铁3号线石牌桥站B出口",
          "uid": "6b51f094b99f66a535b06c3d",
          "telephone": "13352872625",
          "location": {
            "lng": 113.34069402299,
            "lat": 23.145627900749
          }
        },
        {
          "name": "暨南大学附属第一医院东圃分院口腔医疗中心",
          "address": "广州市天河区中山大道中245号",
          "uid": "1eaee1a0c446e631902ca3ec",
          "telephone": "(020)37650599,(020)38688010,(020)38688888",
          "location": {
            "lng": 113.40696471535,
            "lat": 23.131344222255
          }
        }
      ]
    },
    "destination": {
      "cityName": "广州市",
      "listType": 0,
      "content": [
        {
          "name": "广东美术馆",
          "address": "广州市越秀区二沙岛烟雨路38号(近华侨博物馆)",
          "uid": "cd9d05dd06fbf5b685420e3c",
          "telephone": "020-87351468",
          "location": {
            "lng": 113.31363301866,
            "lat": 23.114307989734
          }
        },
        {
          "name": "广东美术馆-南门",
          "address": "广州市越秀区晴波路",
          "uid": "a53ec60ff731338832870a3e",
          "location": {
            "lng": 113.31336433548,
            "lat": 23.113435733063
          }
        },
        {
          "name": "广东美术馆-北门",
          "address": "广州市越秀区二沙岛烟雨路38号(近华侨博物馆)广东美术馆内",
          "uid": "5f62f7b10e019d22abf0cd6a",
          "location": {
            "lng": 113.3138813103,
            "lat": 23.114405460758
          }
        },
        {
          "name": "广东美术馆-正门",
          "address": "广州市越秀区二沙岛烟雨路38号(近华侨博物馆)广东美术馆内",
          "uid": "880ed5c9626d09dc42d63e55",
          "telephone": "(020)87351468",
          "location": {
            "lng": 113.31340574737,
            "lat": 23.114180853508
          }
        },
        {
          "name": "广东美术馆-停车场",
          "address": "广州市越秀区二沙岛烟雨路38号",
          "uid": "ec0dd0614c24143c8605bf8c",
          "location": {
            "lng": 113.31422140877,
            "lat": 23.114494455978
          }
        },
        {
          "name": "广东美术馆(东北2门)",
          "address": "二沙岛烟雨路38号",
          "uid": "f661d931019387868b2fb5dc",
          "location": {
            "lng": 113.31418520706,
            "lat": 23.114545061077
          }
        },
        {
          "name": "广东美术馆停车场(渔唱街)",
          "address": "广东省广州市越秀区烟雨路32号广东华侨博物馆",
          "uid": "95b373598bf75e7214c8f638",
          "location": {
            "lng": 113.31258739105,
            "lat": 23.114757037232
          }
        },
        {
          "name": "广东美术馆停车场-出入口",
          "address": "广州市越秀区烟雨路",
          "uid": "32954d8f05b9b69ab2077d65",
          "location": {
            "lng": 113.31428653592,
            "lat": 23.114538247255
          }
        },
        {
          "name": "星海音乐厅-东门",
          "address": "广州市越秀区二沙岛晴波路33号(近广东美术馆)星海音乐厅内",
          "uid": "96b42557719d4e92a8f729cb",
          "location": {
            "lng": 113.312589008,
            "lat": 23.113990065846
          }
        },
        {
          "name": "向日葵西餐厅宴会厅",
          "address": "广州越秀区二沙岛烟雨路38号广东美术馆东门",
          "uid": "a76f2922f7cf66d5f90cad46",
          "telephone": "(020)87351351",
          "location": {
            "lng": 113.31417083417,
            "lat": 23.113757480689
          }
        },
        {
          "name": "ONESPA",
          "address": "二沙岛烟雨路38号广东美术馆一楼",
          "uid": "768d85568b64fad2931fc9ee",
          "telephone": "18926189803",
          "location": {
            "lng": 113.31336199989,
            "lat": 23.114387013562
          }
        },
        {
          "name": "平成混媒銷售集團",
          "address": "二沙岛烟雨路38号广东美术馆一楼",
          "uid": "3967dcdc57e8a298b23c812a",
          "telephone": "(020)87381480",
          "location": {
            "lng": 113.31331025749,
            "lat": 23.114311479746
          }
        },
        {
          "name": "星海音乐厅-北门",
          "address": "广州市越秀区二沙岛晴波路33号(近广东美术馆)星海音乐厅内",
          "uid": "6aa57b12c4badda735b06c25",
          "location": {
            "lng": 113.31210410268,
            "lat": 23.11423046158
          }
        },
        {
          "name": "星海音乐厅-西门",
          "address": "广州市越秀区二沙岛晴波路33号(近广东美术馆)星海音乐厅内",
          "uid": "d40c5bd26f24fe25bd48423d",
          "location": {
            "lng": 113.31180631441,
            "lat": 23.113980676028
          }
        },
        {
          "name": "DreamGarden 梦幻花园 宴会厅",
          "address": "广州越秀区烟雨路38号南门广东美术馆江堤1楼自编A",
          "uid": "65d4289a658d7bce704b87d1",
          "telephone": "(020)10107777,(020)87320488",
          "location": {
            "lng": 113.31385391198,
            "lat": 23.114623835477
          }
        },
        {
          "name": "三彩画廊",
          "address": "越秀区二沙岛烟雨路38号广东美术馆东门",
          "uid": "abe8a21033d67c1f2a02e13a",
          "telephone": "(020)87351283",
          "location": {
            "lng": 113.3139771595,
            "lat": 23.113807919877
          }
        },
        {
          "name": "塞纳河饼屋(星海店)",
          "address": "广州市越秀区二沙岛晴波路33号星海音乐厅1楼(近广东美术馆)",
          "uid": "d82d6697cef2bebfd418b79a",
          "telephone": "020-87352531",
          "location": {
            "lng": 113.31226750445,
            "lat": 23.113431827547
          }
        },
        {
          "name": "向日葵西餐厅",
          "address": "广州市越秀区二沙岛烟雨路38号广东美术馆东门(近星海音乐厅)",
          "uid": "3a0fbba85a9de9589fe321e7",
          "telephone": "020-87351351",
          "location": {
            "lng": 113.31418430875,
            "lat": 23.113753575183
          }
        },
        {
          "name": "外广场雕塑园",
          "address": "广州市越秀区二沙岛烟雨路38号(近华侨博物馆)广东美术馆内",
          "uid": "adc5f56b7ee6e6c3b5147f59",
          "location": {
            "lng": 113.3136402051,
            "lat": 23.113541846713
          }
        },
        {
          "name": "星海音乐厅-正门",
          "address": "广州市越秀区二沙岛晴波路33号(近广东美术馆)星海音乐厅内",
          "uid": "67c44b900cf00cced1f49eda",
          "telephone": "(020)87353869",
          "location": {
            "lng": 113.31214084338,
            "lat": 23.113607908026
          }
        },
        {
          "name": "星海便民驿站",
          "address": "广州市越秀区二沙岛晴波路33号(近广东美术馆)星海音乐厅内",
          "uid": "9ed14a0dee0bed483686f460",
          "location": {
            "lng": 113.3129527319,
            "lat": 23.11359585911
          }
        },
        {
          "name": "星海音乐厅",
          "address": "广州市越秀区二沙岛晴波路33号(近广东美术馆)",
          "uid": "803708f1ae57057901897202",
          "telephone": "020-87352222",
          "location": {
            "lng": 113.3117645432,
            "lat": 23.11365344461
          }
        }
      ]
    }
  }
}