{
  "status": 0,
  "message": "ok",
  "type": 1,
  "info": {
    "copyright": {
      "text": "@2016 Baidu - Data",
      "imageUrl": "http://api.map.baidu.com/images/copyright_logo.png"
    }
  },
  "result": {
    "originInfo": {
      "area_id": 257,
      "wd": "中国移动(拓盟通讯指定专营店)",
      "uid": ""
    },
    "destinationInfo": {
      "area_id": 257,
      "wd": "太平洋电脑城",
      "uid": ""
    },
    "origin": {
      "cityName": "广州市",
      "listType": 0,
      "content": [
        {
          "name": "中国移动通信拓盟广商指定专营店",
          "address": "仓头路12号附近",
          "uid": "346c941e4f849834e856face",
          "location": {
            "lng": 113.36098997835,
            "lat": 23.093739836725
          }
        },
        {
          "name": "中国移动通信华展通讯",
          "address": "新港中路304号新港商业城首层",
          "uid": "4c533774ca6be264a6da39ac",
          "telephone": "18825050222",
          "location": {
            "lng": 113.33256579541,
            "lat": 23.088590423243
          }
        },
        {
          "name": "中国移动(芳村拓盟指定专营店)",
          "address": "花蕾路28",
          "uid": "cd9d05ddb8fdbfcb85420e39",
          "location": {
            "lng": 113.23595950565,
            "lat": 23.096101424181
          }
        }
      ]
    },
    "destination": {
      "cityName": "广州市",
      "listType": 0,
      "content": [
        {
          "name": "太平洋电脑城",
          "address": "石牌西路8号展望数码广场",
          "uid": "60890501a785725809b93ac2",
          "telephone": "(020)87590226",
          "location": {
            "lng": 113.34422463313,
            "lat": 23.13926961654
          }
        },
        {
          "name": "广州太平洋电脑城-二期",
          "address": "广东省广州市天河区石牌西路13号",
          "uid": "2ba92b4e5d95f69251e5c54e",
          "location": {
            "lng": 113.34423963483,
            "lat": 23.139317553631
          }
        },
        {
          "name": "太平洋电脑城十五年老店（森海科技.洛溪社区服务店）",
          "address": "广州市番禺区",
          "uid": "619b92d79505ddd09e82ea6a",
          "location": {
            "lng": 113.30945392177,
            "lat": 23.045973094641
          }
        },
        {
          "name": "联想专卖太平洋二期电脑城店(太平洋科技广场)",
          "address": "石牌西路1-7号太平洋科技广场G168号(近太平洋科技广场)",
          "uid": "490ad09dbf98e22a11882422",
          "telephone": "(020)87574709",
          "location": {
            "lng": 113.34425948739,
            "lat": 23.138278469681
          }
        },
        {
          "name": "广州总统大酒店",
          "address": "广州市天河区天河路586号(岗顶地铁口近太平洋电脑城岗顶站)",
          "uid": "0ce65c2df5868f402d47331d",
          "telephone": "(020)85512988",
          "location": {
            "lng": 113.34485991479,
            "lat": 23.139590387629
          }
        },
        {
          "name": "广州市汇佳信息技术有限公司",
          "address": "广州市天河路560号太平洋电脑城一期611",
          "uid": "9f052ed53191dbd3c056ace2",
          "telephone": "87549016",
          "location": {
            "lng": 113.34407955679,
            "lat": 23.139058842678
          }
        },
        {
          "name": "捷硕科技",
          "address": "石牌西路太平洋电脑城B场G406",
          "uid": "f4a33da998f082103110aff5",
          "telephone": "(020)87511755",
          "location": {
            "lng": 113.34482604867,
            "lat": 23.138968451577
          }
        },
        {
          "name": "广州加加二手电脑回收部",
          "address": "石牌西路太平洋电脑城1楼",
          "uid": "4770d6e963ce9bbc04026fea",
          "telephone": "13697498867",
          "location": {
            "lng": 113.34430871453,
            "lat": 23.139420406465
          }
        },
        {
          "name": "i\u0026CAFE意式小馆",
          "address": "广州天河区龙口西路86号天龙大厦1楼8铺(太平洋电脑城对面)",
          "uid": "e6ee2fd2e7e3ed512a11d1b0",
          "telephone": "(020)85293550",
          "location": {
            "lng": 113.34326227844,
            "lat": 23.142545084029
          }
        },
        {
          "name": "自由空间餐厅酒吧",
          "address": "广州市天河区中山大道西10号(摩登百货;太平洋电脑城)",
          "uid": "4642844a962bf7c0c8fa5f96",
          "location": {
            "lng": 113.35036535976,
            "lat": 23.141462907635
          }
        },
        {
          "name": "影驰名人堂华南旗舰店",
          "address": "天河区石牌西路太平洋电脑城2期3楼",
          "uid": "6dbc91ba66345c6026d2bb46",
          "location": {
            "lng": 113.34423963483,
            "lat": 23.139308497926
          }
        },
        {
          "name": "AFFOGATO Coffee Bar",
          "address": "天河路586号总统大酒店一楼大堂内(近太平洋电脑城岗顶地铁站)",
          "uid": "6a569e5d8a5cfeb095f08c79",
          "telephone": "(020)85512988",
          "location": {
            "lng": 113.34489503853,
            "lat": 23.139555992631
          }
        },
        {
          "name": "广州鑫蓉数码电子有限公司",
          "address": "石牌西路1-7号太平洋电脑城二期2楼g285,天河路与石牌西路路口东南角(太平洋数码广场)",
          "uid": "3cb80662af1700da72455bea",
          "telephone": "020-87566391",
          "location": {
            "lng": 113.34482775545,
            "lat": 23.138978421187
          }
        },
        {
          "name": "骏凌电脑科技",
          "address": "天河区石牌西路1-7号太平洋电脑城二期322室",
          "uid": "bda23e9d02659ab2f32d83fc",
          "telephone": "(020)33062737",
          "location": {
            "lng": 113.34484985377,
            "lat": 23.138967288456
          }
        },
        {
          "name": "广州鸿润镜头回收中心",
          "address": "石牌西路太平洋电脑城1楼",
          "uid": "bd5de9bf9c7b037240024535",
          "telephone": "13697498867",
          "location": {
            "lng": 113.34397652115,
            "lat": 23.139428132886
          }
        },
        {
          "name": "太平洋电脑城写字楼",
          "address": "广东省广州市天河区石牌西路1-7号",
          "uid": "a4661f79d833ff135cbe8636",
          "telephone": "4006066969",
          "location": {
            "lng": 113.34482982155,
            "lat": 23.139457376971
          }
        },
        {
          "name": "广州市天河石牌奇强电脑经营部",
          "address": "石牌西路1-7号太平洋电脑城二期G245号",
          "uid": "43920a0a522b255e9c09f7d7",
          "telephone": "(020)87535433",
          "location": {
            "lng": 113.34485982496,
            "lat": 23.138979418148
          }
        },
        {
          "name": "佰家乐餐厅",
          "address": "广州市天河区石牌东路87号(摩登百货;太平洋电脑城)",
          "uid": "56f2f696add601990ba8d4e4",
          "telephone": "020-87572740",
          "location": {
            "lng": 113.349685073,
            "lat": 23.138384563459
          }
        },
        {
          "name": "广州和雍商贸有限公司",
          "address": "太平洋电脑城A场1楼117店",
          "uid": "21c0d1a85444216a715e801e",
          "location": {
            "lng": 113.34422759754,
            "lat": 23.139304510092
          }
        },
        {
          "name": "广州森海科技",
          "address": "石牌西路8号展望大厦611室(近太平洋电脑城)",
          "uid": "4fd49f157d7152c53786f451",
          "telephone": "(020)87580590",
          "location": {
            "lng": 113.34431967385,
            "lat": 23.139338406676
          }
        },
        {
          "name": "密指信息科技",
          "address": "天河路560-574号一楼自编南区E05档(太平洋电脑城1期)",
          "uid": "648982722e51b011eee4a544",
          "telephone": "18026386518",
          "location": {
            "lng": 113.34422463313,
            "lat": 23.139270530419
          }
        },
        {
          "name": "技嘉金牌主板",
          "address": "太平洋电脑城B场G303号",
          "uid": "74231a962d30d2770782c2b1",
          "telephone": "13609082709",
          "location": {
            "lng": 113.34421996194,
            "lat": 23.139265047146
          }
        },
        {
          "name": "誉腾科技",
          "address": "天河路560号太平洋电脑城B场G317",
          "uid": "1f9fad09dc2f13503586f4e3",
          "telephone": "13570355901",
          "location": {
            "lng": 113.34421996194,
            "lat": 23.139265047146
          }
        },
        {
          "name": "麦当劳(总统分店)-洗手间",
          "address": "广州市天河区天河路586号(岗顶地铁口,近太平洋电脑城、岗顶站)",
          "uid": "06d470f9f11d1d67095cb3a6",
          "location": {
            "lng": 113.34513299966,
            "lat": 23.139802988396
          }
        },
        {
          "name": "国德国际大酒店宴会厅",
          "address": "广州市天河区天河东路153号(近太平洋电脑城)",
          "uid": "f60a15ed0b6cf4f5bb17e71a",
          "telephone": "020-38861111",
          "location": {
            "lng": 113.33859585081,
            "lat": 23.141800122922
          }
        },
        {
          "name": "天龙大厦",
          "address": "广州市天河区龙口西路86号天(太平洋电脑城对面)",
          "uid": "f4a33da91d0407093010afee",
          "telephone": "(020)87515175",
          "location": {
            "lng": 113.34324000046,
            "lat": 23.142331324568
          }
        },
        {
          "name": "广州永发电脑回收中心",
          "address": "石牌西路太平洋电脑城1楼",
          "uid": "3ab2cde0500ed21ad23ce308",
          "telephone": "13697498867",
          "location": {
            "lng": 113.34426361959,
            "lat": 23.13932444926
          }
        },
        {
          "name": "广州新科电脑回收中心",
          "address": "广州市天河区石牌西路太平洋电脑城一楼",
          "uid": "17c55e8b2d79fe6959bbbcfa",
          "telephone": "18676881166",
          "location": {
            "lng": 113.34426370942,
            "lat": 23.139328520173
          }
        },
        {
          "name": "天龙大厦商务中心-正门",
          "address": "广州市天河区龙口西路86号天龙大厦内(太平洋电脑城对面)",
          "uid": "9fd677bfdf0866fecb213dee",
          "location": {
            "lng": 113.3432118835,
            "lat": 23.142323349082
          }
        },
        {
          "name": "广州飞达废旧电脑回收部",
          "address": "石牌西路太平洋电脑城1楼",
          "uid": "fe856e1604953bfdd13ce392",
          "telephone": "13697498867",
          "location": {
            "lng": 113.34424565348,
            "lat": 23.139428465205
          }
        },
        {
          "name": "米苏化妆学校",
          "address": "广东省广州市天河区天河路594号百脑汇大厦B座2901铺(近太平洋电脑城)",
          "uid": "db0e5e055861374440ab9a54",
          "telephone": "(020)38104110",
          "location": {
            "lng": 113.345800261,
            "lat": 23.140106311527
          }
        },
        {
          "name": "博智建筑",
          "address": "天河路560号太平洋电脑城A场710A室",
          "uid": "81bcc2f17d79cd9e32621247",
          "telephone": "15975581968",
          "location": {
            "lng": 113.34433997556,
            "lat": 23.139337991277
          }
        },
        {
          "name": "捷昌网络",
          "address": "石牌西路太平洋电脑城B场二楼G202档",
          "uid": "b87c32869c1a2583aeb22a5b",
          "telephone": "15918646556",
          "location": {
            "lng": 113.34470298082,
            "lat": 23.13919899861
          }
        },
        {
          "name": "梦幻装饰设计工程",
          "address": "龙口西路86号天龙大厦2楼72号铺(太平洋电脑城对面)",
          "uid": "387fdfe5ce95f73c0aa8d405",
          "location": {
            "lng": 113.34336998527,
            "lat": 23.142310970462
          }
        },
        {
          "name": "优德惠",
          "address": "石牌西路太平洋电脑城麦当劳总统大酒店旁边",
          "uid": "c8879eab03dca2b6e50738e6",
          "telephone": "13826277788",
          "location": {
            "lng": 113.34474097914,
            "lat": 23.138658977902
          }
        },
        {
          "name": "广州本信计算机科技有限公司",
          "address": "广州市天河区石牌西路1-7号太平洋电脑城B座7楼706",
          "uid": "759abbe70c98441a01ff2d8d",
          "telephone": "(020)38472267",
          "location": {
            "lng": 113.34398855844,
            "lat": 23.139439099419
          }
        },
        {
          "name": "富苑饭店",
          "address": "石牌东路2号(太平洋电脑城附近)",
          "uid": "41572e00e1e7faadb55f1e82",
          "telephone": "(020)87588432",
          "location": {
            "lng": 113.3492396033,
            "lat": 23.140029380007
          }
        },
        {
          "name": "广州赛恒（群星）电子有限公司",
          "address": "石牌西路1-7号太平洋电脑城B场4楼G413",
          "uid": "8c4e29000bf5e82f21f017f2",
          "telephone": "(020)87547818,13802730499",
          "location": {
            "lng": 113.34475777745,
            "lat": 23.139220516313
          }
        },
        {
          "name": "佰平会计培训",
          "address": "天河区天河路549号新赛格电子城A2栋12楼右转(太平洋电脑城对面)",
          "uid": "f0066f7321c10d125f0d02e9",
          "telephone": "(020)85581909,(020)87531162",
          "location": {
            "lng": 113.34427996875,
            "lat": 23.140498528658
          }
        },
        {
          "name": "鸿源广告印刷设计",
          "address": "天河区石牌西路13-15号(近太平洋电脑城)",
          "uid": "636b687fc1eedbac28b97cc5",
          "telephone": "020-87554904",
          "location": {
            "lng": 113.34505484708,
            "lat": 23.138687059033
          }
        },
        {
          "name": "广州悦华大厦-正门",
          "address": "广州市天河区龙口东路19号(火车东站、天河体育中心,近太平洋电脑城)",
          "uid": "df7359ee145ddfcf28d7abb1",
          "location": {
            "lng": 113.34763199576,
            "lat": 23.142688808618
          }
        },
        {
          "name": "广州市晔辰电子科技有限公司",
          "address": "石牌西路8号(近太平洋电脑城)",
          "uid": "7e96303f620bb5fb9222e081",
          "location": {
            "lng": 113.34421951279,
            "lat": 23.13838855132
          }
        },
        {
          "name": "阿清家味馆",
          "address": "石牌西路逢源大街2号（石牌牌坊直入500米）（太平洋电脑城）",
          "uid": "d3a4b34604a27a3c3a13fd00",
          "telephone": "18676890967",
          "location": {
            "lng": 113.34471699438,
            "lat": 23.139215033038
          }
        },
        {
          "name": "苹果经零售店(神州数码广州太平洋店)",
          "address": "天河路560号太平洋电脑城二期1层",
          "uid": "dd1a25f5c59858ef6fc02ca8",
          "telephone": "(020)87568170",
          "location": {
            "lng": 113.3441986721,
            "lat": 23.13932453234
          }
        },
        {
          "name": "正新鸡排烤肉鱿鱼",
          "address": "天河区天河路太平洋数码城",
          "uid": "7ea7306d49df7669ae080f0b",
          "telephone": "13825187727",
          "location": {
            "lng": 113.3430419241,
            "lat": 23.139155797034
          }
        },
        {
          "name": "联合电脑科技",
          "address": "岗顶石牌西太平洋数码城，一期旁骏航电脑城A10、A03档（联合电脑医院）",
          "uid": "53bdee332fb146c900ec01f2",
          "telephone": "(020)22921948,13711782519",
          "location": {
            "lng": 113.34430601961,
            "lat": 23.139171000668
          }
        },
        {
          "name": "号店联想官方认证太平洋二期168",
          "address": "广州市天河区太平洋数码广场B场1楼G151号",
          "uid": "0963d1f457833c470782c250",
          "telephone": "(020)61026997",
          "location": {
            "lng": 113.34486386733,
            "lat": 23.138979418148
          }
        }
      ]
    }
  }
}