{
  "status": 0,
  "message": "ok",
  "type": 1,
  "info": {
    "copyright": {
      "text": "@2016 Baidu - Data",
      "imageUrl": "http://api.map.baidu.com/images/copyright_logo.png"
    }
  },
  "result": {
    "originInfo": {
      "area_id": 257,
      "wd": "东风西路小学(东风西路校区)",
      "uid": ""
    },
    "destinationInfo": {
      "area_id": 257,
      "wd": "越秀北路越秀中路(路口)",
      "uid": ""
    },
    "origin": {
      "cityName": "广州市",
      "listType": 0,
      "content": [
        {
          "name": "东风西路小学(东风西路校区)",
          "address": "东风西路265号",
          "uid": "47736e7289ce1f4b57bfffd6",
          "telephone": "(020)83562085",
          "location": {
            "lng": 113.26733210693,
            "lat": 23.138339450767
          }
        },
        {
          "name": "东风西路小学双井校区",
          "address": "广州市越秀区盘福路双井街12号",
          "uid": "691305239aee0b75725e802d",
          "telephone": "(020)81362667",
          "location": {
            "lng": 113.26627336405,
            "lat": 23.142830373032
          }
        },
        {
          "name": "越秀区东风西路小学盘福校区",
          "address": "盘福路7号",
          "uid": "75d0881a0859cf4d3a04b127",
          "telephone": "(020)81360359",
          "location": {
            "lng": 113.26559873662,
            "lat": 23.140003708464
          }
        },
        {
          "name": "明师教育盘福路校区",
          "address": "广州市越秀区盘福路20号首层 (东风西路小学盘福校区对面)",
          "uid": "338a2eea69b7e7b7acee7a28",
          "telephone": "4008838128",
          "location": {
            "lng": 113.26579807061,
            "lat": 23.139446825839
          }
        },
        {
          "name": "正元中医推拿养生馆",
          "address": "广东省广州市越秀区盘福路7号东风西路小学盘福校区附近",
          "uid": "11155186ab8db12d0d3dda4c",
          "telephone": "15817079645",
          "location": {
            "lng": 113.26493102613,
            "lat": 23.140032038548
          }
        },
        {
          "name": "德安小学生托管中心(东风西校区)",
          "address": "东风西路兴隆东街38号1-2楼（东风西路小学斜对面）(丝丽大厦旁)",
          "uid": "91f8270755a42a034e2fdf71",
          "telephone": "(020)87688281,13316291348",
          "location": {
            "lng": 113.26728323911,
            "lat": 23.138698690269
          }
        }
      ]
    },
    "destination": {
      "cityName": "广州市",
      "listType": 0,
      "content": [
        {
          "name": "越秀北路/越秀中路(路口)",
          "address": "广东省广州市越秀区",
          "uid": "4fc3161a65ad5aa83a13fd61",
          "location": {
            "lng": 113.28515511705,
            "lat": 23.133347133897
          }
        },
        {
          "name": "海珠北路/海珠中路(路口)",
          "address": "广东省广州市越秀区",
          "uid": "be2d8cd84f9295e5cf06a4da",
          "location": {
            "lng": 113.26391630023,
            "lat": 23.131382358201
          }
        },
        {
          "name": "解放北路/解放中路(路口)",
          "address": "广东省广州市越秀区",
          "uid": "a74481d60d762b47f503b861",
          "location": {
            "lng": 113.26882482119,
            "lat": 23.131595221386
          }
        },
        {
          "name": "小北路/环市中路(路口)",
          "address": "广东省广州市越秀区",
          "uid": "d2b35be14423e7b88bdb7351",
          "location": {
            "lng": 113.28099398627,
            "lat": 23.145851457834
          }
        },
        {
          "name": "德政中路/德政北路(路口)",
          "address": "广东省广州市越秀区",
          "uid": "7ee7c4329eda123207fef5e2",
          "location": {
            "lng": 113.28172421882,
            "lat": 23.132986633636
          }
        },
        {
          "name": "人民中路/人民北路(路口)",
          "address": "广东省广州市越秀区",
          "uid": "afc4625e0b7d60bef7e73be0",
          "location": {
            "lng": 113.26088990896,
            "lat": 23.131320958492
          }
        },
        {
          "name": "东风中路与越秀北路交叉口",
          "address": "广东省广州市越秀区",
          "uid": "b538aa1970ffdac8d4851f00",
          "location": {
            "lng": 113.28337189079,
            "lat": 23.13748155897
          }
        },
        {
          "name": "广东迎宾馆",
          "address": "广州市越秀区解放北路603号（火车站、越秀公园附近，东风中路路口）",
          "uid": "b7021bf864bec2e3f4e73b1d",
          "telephone": "(020)83332950",
          "location": {
            "lng": 113.26844169389,
            "lat": 23.134382767014
          }
        },
        {
          "name": "广东迎宾馆-洗手间",
          "address": "广州市越秀区解放北路603号（火车站、越秀公园附近，东风中路路口）",
          "uid": "b5f66ef6ed72516ac056acf3",
          "location": {
            "lng": 113.26757231382,
            "lat": 23.134493018054
          }
        }
      ]
    }
  }
}