{
  "status": 0,
  "message": "ok",
  "type": 1,
  "info": {
    "copyright": {
      "text": "@2016 Baidu - Data",
      "imageUrl": "http://api.map.baidu.com/images/copyright_logo.png"
    }
  },
  "result": {
    "originInfo": {
      "area_id": 257,
      "wd": "江湾花苑(东1门)",
      "uid": ""
    },
    "destinationInfo": {
      "area_id": 257,
      "wd": "广东实验中学-北门",
      "uid": ""
    },
    "origin": {
      "cityName": "广州市",
      "listType": 0,
      "content": [
        {
          "name": "江湾花苑(东1门)",
          "address": "江湾东街165-179号江湾花苑",
          "uid": "c1af8fa549548af9cafa5f8e",
          "location": {
            "lng": 113.28524584591,
            "lat": 23.114288462282
          }
        }
      ]
    },
    "destination": {
      "cityName": "广州市",
      "listType": 0,
      "content": [
        {
          "name": "广东实验中学-北门",
          "address": "广州市越秀区中山四路51-1号",
          "uid": "9ddb1d69f408f50d276e981d",
          "location": {
            "lng": 113.28371198925,
            "lat": 23.132902469687
          }
        },
        {
          "name": "广东实验中学-北门",
          "address": "广东省广州市荔湾区",
          "uid": "be1ea5ef928667bf14948e1b",
          "location": {
            "lng": 113.23369353,
            "lat": 23.080037462983
          }
        },
        {
          "name": "广东广雅中学(北门)",
          "address": "广东省广州市荔湾区西湾路33号",
          "uid": "b1bd293a402227704e776ed3",
          "location": {
            "lng": 113.24895079993,
            "lat": 23.145826535101
          }
        },
        {
          "name": "广东广雅中学-北门(3号门)",
          "address": "广雅路61号",
          "uid": "d11b21ef76e113b9fa0cadd9",
          "location": {
            "lng": 113.24898466604,
            "lat": 23.146009135551
          }
        },
        {
          "name": "广东华侨中学西校区-正门",
          "address": "广州市越秀区广州起义路158号",
          "uid": "d531f1f000a92290d6b74ef4",
          "location": {
            "lng": 113.27090646455,
            "lat": 23.128034827823
          }
        },
        {
          "name": "广州市第四十四中学(东校区)-北门",
          "address": "广东省广州市天河区黄埔大道中176附近",
          "uid": "215aa19f7296ffadfda778f9",
          "location": {
            "lng": 113.37148101891,
            "lat": 23.128056928946
          }
        },
        {
          "name": "广东林校",
          "address": "广汕一路辅路附近",
          "uid": "1808e9985c344d7f0d3dda07",
          "telephone": "020-28162601",
          "location": {
            "lng": 113.38917700863,
            "lat": 23.197991007783
          }
        },
        {
          "name": "广东协和神学院",
          "address": "东平中路21号附近",
          "uid": "49d959381927a23fc61e51c0",
          "telephone": "(020)86169081",
          "location": {
            "lng": 113.31674142522,
            "lat": 23.254900268629
          }
        },
        {
          "name": "金沙中学-北门",
          "address": "广东省广州市白云区",
          "uid": "69c64259ee6404b12b06cef4",
          "location": {
            "lng": 113.20933175407,
            "lat": 23.164529893929
          }
        },
        {
          "name": "侨联中学-北门",
          "address": "广东省广州市番禺区关边路",
          "uid": "5ce2637d22d5da51ae31e5c1",
          "telephone": "(020)84822553",
          "location": {
            "lng": 113.37491479172,
            "lat": 22.951104210555
          }
        },
        {
          "name": "象贤中学北门",
          "address": "广东省广州市番禺区福正西街15",
          "uid": "83aad07a5124b507734b872f",
          "location": {
            "lng": 113.34517405222,
            "lat": 22.922254156847
          }
        },
        {
          "name": "双沙中学",
          "address": "广东省广州市黄埔区信华路163号附近",
          "uid": "f6209b63d8a6b8bc8bfc0657",
          "telephone": "020-82493753",
          "location": {
            "lng": 113.49020700388,
            "lat": 23.099078031664
          }
        },
        {
          "name": "广东省旅游职业技术学校",
          "address": "同泰路与大陂西路交汇处附近",
          "uid": "c2e925357ce718f0e40738ff",
          "telephone": "(020)37247193",
          "location": {
            "lng": 113.3285930393,
            "lat": 23.213565976055
          }
        },
        {
          "name": "广州市第四十中学(北门)",
          "address": "广东省广州市越秀区海月街5附近",
          "uid": "48d607c5f22dfcaea11de988",
          "location": {
            "lng": 113.2870335637,
            "lat": 23.126556204478
          }
        },
        {
          "name": "广东省中人技工学校",
          "address": "中成南路中成集团附近",
          "uid": "03f46e802a09a76ed813182d",
          "location": {
            "lng": 113.35031765974,
            "lat": 23.193270424511
          }
        },
        {
          "name": "广东省电子职业技术学校",
          "address": "同宝路9号附近",
          "uid": "bd2197970a2acd144d2fdfa7",
          "telephone": "020-22926686",
          "location": {
            "lng": 113.33572235114,
            "lat": 23.210976226344
          }
        },
        {
          "name": "广东中为工商技工学校",
          "address": "西安路7号广东职业技术学院附近",
          "uid": "337221959ff594d96d3e1bcc",
          "location": {
            "lng": 113.29569529492,
            "lat": 22.89872021461
          }
        },
        {
          "name": "广州市白云区桃园中学(北门)",
          "address": "广东省广州市白云区富园路1号",
          "uid": "4a6ceb3ac32d92598bf15d55",
          "location": {
            "lng": 113.24020031613,
            "lat": 23.153021118154
          }
        },
        {
          "name": "广东省城市建设技师学院华美校区",
          "address": "汇雅花苑附近",
          "uid": "f696f3c2d0315b961a11d592",
          "telephone": "(020)37280623",
          "location": {
            "lng": 113.39266117638,
            "lat": 23.206363391755
          }
        },
        {
          "name": "广东省城市建设技师学院凌凯校区",
          "address": "广汕公路辅路附近",
          "uid": "d519a2bf7fd56f986c3e1b75",
          "location": {
            "lng": 113.44074163133,
            "lat": 23.193784561377
          }
        },
        {
          "name": "广东省机械高级技工学校沙湾校区",
          "address": "番禺区工业学校附近",
          "uid": "fa213d1e98f5f6d4d22dd6bc",
          "location": {
            "lng": 113.40270710656,
            "lat": 22.917861065236
          }
        },
        {
          "name": "广州市第十四中学",
          "address": "广东省广州市天河区龙腾路245号附近",
          "uid": "c38e5134f7d28c636f3e1be5",
          "location": {
            "lng": 113.36573680432,
            "lat": 23.197951396244
          }
        },
        {
          "name": "广园中学(西北门)",
          "address": "广东省广州市白云区景泰直街70号附近",
          "uid": "661bd7dded9cc48b6c4760e0",
          "location": {
            "lng": 113.2776817542,
            "lat": 23.170335528764
          }
        },
        {
          "name": "市桥桥兴中学(西门)",
          "address": "广东省广州市番禺区南郊大街30巷附近",
          "uid": "0bd82fd19be6947a581093b3",
          "location": {
            "lng": 113.38022260948,
            "lat": 22.931927171565
          }
        },
        {
          "name": "广州市五羊中学(东门)",
          "address": "广东省广州市越秀区寺右新马路9附近",
          "uid": "2669ed5ad2782c5fa1046460",
          "location": {
            "lng": 113.31750103235,
            "lat": 23.124924348836
          }
        },
        {
          "name": "广州市第十八中学(西门)",
          "address": "广东省广州市天河区桃园中路276附近",
          "uid": "38131a69c738fcdc99005021",
          "location": {
            "lng": 113.42071193372,
            "lat": 23.113478112056
          }
        },
        {
          "name": "广州大学附属中学(西北1门)",
          "address": "广东省广州市番禺区国医西路附近",
          "uid": "882b901fae1be3452efaa715",
          "location": {
            "lng": 113.39416224489,
            "lat": 23.053833668141
          }
        },
        {
          "name": "广州市第二十三中学(南1门)",
          "address": "广东省广州市荔湾区十三甫路7号附近",
          "uid": "0a707d0f6e988f4317948e7b",
          "location": {
            "lng": 113.25153621301,
            "lat": 23.118040173096
          }
        },
        {
          "name": "中山大学附属中学(北2号门)",
          "address": "广东省广州市海珠区新港西路135号中山大学广州南校区附属小学附近",
          "uid": "54d891e16c234d1a9d95de7e",
          "location": {
            "lng": 113.29653548006,
            "lat": 23.101029573578
          }
        },
        {
          "name": "广州市第九十八中学(东门)",
          "address": "广东省广州市海珠区石岗路71号附近",
          "uid": "57366b6dcc604f1eabf0cd06",
          "location": {
            "lng": 113.28274163964,
            "lat": 23.077297317421
          }
        },
        {
          "name": "广东省技师学院金桥分教部",
          "address": "东横四路广州海员学校附近",
          "uid": "dc71ef1f581bc29eea1e9758",
          "location": {
            "lng": 113.43184822712,
            "lat": 23.126430991011
          }
        },
        {
          "name": "广东省高级技工学校金桥分教部",
          "address": "东横四路广州海员学校附近",
          "uid": "208ef035906c13b945e2746f",
          "location": {
            "lng": 113.43184822712,
            "lat": 23.126432985122
          }
        },
        {
          "name": "广东省商业职业技术学校天河校区",
          "address": "长江南路附近",
          "uid": "2910ad41dcc6e3c7ab175a53",
          "location": {
            "lng": 113.34686008184,
            "lat": 23.158304511962
          }
        },
        {
          "name": "广东省食品药品职业技术学校花都校区",
          "address": "716乡道花都区经济贸易职业技术学校(716乡道)附近",
          "uid": "ea8e300fa49a5f11b34c4971",
          "location": {
            "lng": 113.24162969985,
            "lat": 23.490446103429
          }
        },
        {
          "name": "广州市白云区金沙中学(东南门)",
          "address": "广东省广州市白云区惠民巷23附近",
          "uid": "c75a0f6e03411000c27da282",
          "location": {
            "lng": 113.20950090499,
            "lat": 23.163126270083
          }
        },
        {
          "name": "广州市陈嘉庚纪念中学(西北门)",
          "address": "广东省广州市荔湾区大岗元北19附近",
          "uid": "8c74691fd3bbfb43a21de963",
          "location": {
            "lng": 113.2499610343,
            "lat": 23.15289318833
          }
        },
        {
          "name": "广东省电子商务高级技工学校凌凯校区",
          "address": "广汕公路辅路附近",
          "uid": "3c525bea44d970511b94c670",
          "location": {
            "lng": 113.44074468557,
            "lat": 23.193900576155
          }
        },
        {
          "name": "广东省广州市冶金高级技工学校(鹤边军民西路)",
          "address": "鹤边军民西路附近",
          "uid": "edd64ce193b18c913fe23149",
          "location": {
            "lng": 113.27024899475,
            "lat": 23.227156492696
          }
        },
        {
          "name": "广东省高级技工学校广州校区(宜康医院东南)",
          "address": "广东省技师学院广州校区附近",
          "uid": "d991e116f9d440541f389460",
          "location": {
            "lng": 113.28768797927,
            "lat": 23.253869065494
          }
        },
        {
          "name": "广州市第一一五中学(西北门)",
          "address": "广东省广州市白云区南北街1号广州市第一一五中学附近",
          "uid": "33d441e6ab68a46443e19200",
          "location": {
            "lng": 113.36496884294,
            "lat": 23.284936173498
          }
        },
        {
          "name": "广东岭南现代高级技工学校南区",
          "address": "玛茜雅酒店附近",
          "uid": "362ee17ba98ca917c9fa5fce",
          "telephone": "020-22305408",
          "location": {
            "lng": 113.42352551641,
            "lat": 23.167900424256
          }
        },
        {
          "name": "大塘派出所广东实验中学警务联络室",
          "address": "中山四路34号附近",
          "uid": "7388bd8bc9fa597d8605bf2c",
          "location": {
            "lng": 113.28366797228,
            "lat": 23.133284322675
          }
        },
        {
          "name": "星海中学泳池",
          "address": "广东省广州市番禺区白沙路97附近",
          "uid": "447d37bce8ccc6202806ce19",
          "location": {
            "lng": 113.36980334354,
            "lat": 22.957306431395
          }
        },
        {
          "name": "大石中学教师宿舍",
          "address": "广东省广州市番禺区中心北路附近",
          "uid": "f5b4e6f8f702c3e96240a9e5",
          "location": {
            "lng": 113.3165687709,
            "lat": 23.022909126811
          }
        },
        {
          "name": "广东仲元中学-东门",
          "address": "广东省广州市番禺区西涌大街2附近",
          "uid": "1f4d38471d19d64bf423104f",
          "location": {
            "lng": 113.36735842543,
            "lat": 22.939231168086
          }
        },
        {
          "name": "广州市南武中学南校区（正门）",
          "address": "广东省广州市海珠区杏园大街81号",
          "uid": "2b16c4d529ea7adf1d1d1160",
          "location": {
            "lng": 113.2754044599,
            "lat": 23.102777319025
          }
        },
        {
          "name": "金道中学(北门)",
          "address": "广东省广州市荔湾区金光大街1号",
          "uid": "0f455e2a1ea456a9c51b75a6",
          "location": {
            "lng": 113.24225662727,
            "lat": 23.077382514049
          }
        },
        {
          "name": "黄冈中学广州学校(北门)",
          "address": "广东省广州市花都区雅瑶东路附近",
          "uid": "e13771e37f0879b6a80dd825",
          "location": {
            "lng": 113.2643025716,
            "lat": 23.373511798518
          }
        },
        {
          "name": "广东农村商业银行(宏岗分理处)",
          "address": "广州市黄埔区笔岗大路39号1栋首层101房(萝岗区东区中学附近)",
          "uid": "cdef4edf2029c83028d7ab05",
          "telephone": "020-82231667",
          "location": {
            "lng": 113.54411548531,
            "lat": 23.108913567426
          }
        },
        {
          "name": "秀全中学-西门",
          "address": "广东省广州市花都区秀全大道66附近",
          "uid": "74349c1f67a0a2f03b221ce8",
          "location": {
            "lng": 113.22404249492,
            "lat": 23.387291948263
          }
        }
      ]
    }
  }
}