{
  "status": 0,
  "message": "ok",
  "type": 1,
  "info": {
    "copyright": {
      "text": "@2016 Baidu - Data",
      "imageUrl": "http://api.map.baidu.com/images/copyright_logo.png"
    }
  },
  "result": {
    "originInfo": {
      "area_id": 257,
      "wd": "新光百货",
      "uid": ""
    },
    "destinationInfo": {
      "area_id": 257,
      "wd": "北园酒家(小北路店)",
      "uid": ""
    },
    "origin": {
      "cityName": "广州市",
      "listType": 0,
      "content": [
        {
          "name": "新光百货",
          "address": "广州市荔湾区康王中路666号",
          "uid": "fd13a3f21b8ae3e3b1077d54",
          "location": {
            "lng": 113.25464497889,
            "lat": 23.130209444354
          }
        },
        {
          "name": "新光百货(海珠店)",
          "address": "东晓南路1290号新都荟广场1-3楼(东晓南侧)",
          "uid": "f4d611fe387b9e226b49f387",
          "telephone": "15876500260",
          "location": {
            "lng": 113.29889937101,
            "lat": 23.079085271505
          }
        },
        {
          "name": "新光百货床品/家居生活馆",
          "address": "广东省广州市荔湾区康王中路280附近",
          "uid": "dc870b22c58852424107c162",
          "location": {
            "lng": 113.25373517507,
            "lat": 23.130354345514
          }
        },
        {
          "name": "星光汇摩登百货",
          "address": "",
          "uid": "3cccb694f12ba83d97031940",
          "location": {
            "lng": 113.21044700036,
            "lat": 23.392485022632
          }
        }
      ]
    },
    "destination": {
      "cityName": "广州市",
      "listType": 0,
      "content": [
        {
          "name": "北园酒家(小北路店)",
          "address": "小北路200号附近",
          "uid": "161a0ed204186b2d5dd4fe93",
          "telephone": "(020)83563365,(020)83567688",
          "location": {
            "lng": 113.27889743104,
            "lat": 23.14287008415
          }
        },
        {
          "name": "北园酒家饼屋(小北路店)",
          "address": "小北路200-202号 小北路公交站附近",
          "uid": "d6c5d9917e5188f131169bb1",
          "telephone": "(020)83563365",
          "location": {
            "lng": 113.27910619724,
            "lat": 23.143012479146
          }
        },
        {
          "name": "北园酒家饼屋(麓景路店)",
          "address": "麓景路8号1楼自编1号铺",
          "uid": "5508504d721abfd2c6f025f3",
          "location": {
            "lng": 113.28459044221,
            "lat": 23.14893212079
          }
        },
        {
          "name": "自鱿人(北园店)",
          "address": "北园酒家商铺街204号(近小北路)",
          "uid": "b63b0fb8e151936c15c90590",
          "telephone": "15920304079",
          "location": {
            "lng": 113.27930103971,
            "lat": 23.143245677622
          }
        }
      ]
    }
  }
}