{
  "status": 0,
  "message": "ok",
  "type": 1,
  "info": {
    "copyright": {
      "text": "@2016 Baidu - Data",
      "imageUrl": "http://api.map.baidu.com/images/copyright_logo.png"
    }
  },
  "result": {
    "originInfo": {
      "area_id": 257,
      "wd": "老班长",
      "uid": ""
    },
    "destinationInfo": {
      "area_id": 257,
      "wd": "广州国际金融中心",
      "uid": ""
    },
    "origin": {
      "cityName": "广州市",
      "listType": 0,
      "content": [
        {
          "name": "老班长",
          "address": "越秀区农林下路81号(中国银行旁路口内)",
          "uid": "fc7675243f44e7e34f776eec",
          "telephone": "(020)87655493",
          "location": {
            "lng": 113.30476656362,
            "lat": 23.13597911336
          }
        },
        {
          "name": "老班长（星汇店）",
          "address": "华明路4号星汇云锦北门",
          "uid": "2afd2f8ab4b9af931b11d5a3",
          "telephone": "(020)37889599",
          "location": {
            "lng": 113.3232689622,
            "lat": 23.128315993714
          }
        },
        {
          "name": "老班长",
          "address": "广州市番禺区",
          "uid": "e34e5e8a10436d60ae04577c",
          "location": {
            "lng": 113.35108786689,
            "lat": 23.019334512622
          }
        },
        {
          "name": "老班长美食（天源路店）",
          "address": "天河区天源路808号临时服务部自编17号",
          "uid": "c5597ba6decf69c17c29bdcd",
          "telephone": "18928827956",
          "location": {
            "lng": 113.36282395888,
            "lat": 23.187254019234
          }
        },
        {
          "name": "老班长经营部",
          "address": "捶帽新街1华业大厦南座附近",
          "uid": "6a19052977a2e4043904b16a",
          "telephone": "13719074435",
          "location": {
            "lng": 113.25505271976,
            "lat": 23.138020504426
          }
        },
        {
          "name": "老班长天津灌汤包",
          "address": "科韵路附近",
          "uid": "db1b76edb4c5f06514b54bd4",
          "location": {
            "lng": 113.390488894,
            "lat": 23.166751174259
          }
        },
        {
          "name": "老班长饺子店",
          "address": "广州市黄埔区",
          "uid": "a4ad6b8370c61a458f55ecd8",
          "location": {
            "lng": 113.45922300956,
            "lat": 23.109327981042
          }
        },
        {
          "name": "老班长餐厅(高志大厦店)",
          "address": "黄埔大道西路120号高志大厦二楼209商铺",
          "uid": "3a467173faca6b082e47339e",
          "telephone": "(020)85279572,(020)37276159",
          "location": {
            "lng": 113.34617602219,
            "lat": 23.131695006079
          }
        },
        {
          "name": "老班长湘潭特产批发部",
          "address": "新民路68号附近",
          "uid": "c9c26a10703613ef75e5b642",
          "telephone": "(020)61802290,(020)36859971",
          "location": {
            "lng": 113.21193351631,
            "lat": 23.380121923378
          }
        },
        {
          "name": "老班长餐厅(东川店)",
          "address": "广州市越秀区东川路",
          "uid": "f056244da12428cc3b221c61",
          "telephone": "(020)37637136,(020)83833080",
          "location": {
            "lng": 113.29298223262,
            "lat": 23.129836223435
          }
        },
        {
          "name": "老班长餐厅(东圃店)",
          "address": "东圃大马路一横路23号时代TIT广场自编A122a商铺（烧烤屋对面）",
          "uid": "5ab0f0fd8496fde5715e80f7",
          "telephone": "(020)82517476",
          "location": {
            "lng": 113.40745402236,
            "lat": 23.125461018851
          }
        },
        {
          "name": "老班长汽车维修护理中心",
          "address": "龙归镇",
          "uid": "32ad4970612287a8afb22a5c",
          "telephone": "(020)28908778",
          "location": {
            "lng": 113.30791036341,
            "lat": 23.278761697121
          }
        },
        {
          "name": "老班长汽车维修服务中心",
          "address": "广东省广州市花都区则斌路",
          "uid": "d72b007060acee272b06ce52",
          "telephone": "(020)88192233",
          "location": {
            "lng": 113.1730502725,
            "lat": 23.469808546524
          }
        },
        {
          "name": "老班长餐厅(五月花广场店)",
          "address": "中山五路68号五月花商业广场负一层B101铺(近广卫路)",
          "uid": "a19ba5e52bf9b066b34c498b",
          "telephone": "(020)83789930",
          "location": {
            "lng": 113.27388003545,
            "lat": 23.132094974943
          }
        },
        {
          "name": "老班长三味粉店",
          "address": "广州市越秀区",
          "uid": "5e4f12fdd97dd1b00e3dda55",
          "location": {
            "lng": 113.28752215207,
            "lat": 23.134930282577
          }
        },
        {
          "name": "丝路",
          "address": "农林下路79号3铺（王府井对面(广百、老班长旁边)）(王府井对面(广百、老班长旁边))",
          "uid": "8a4058a138104ad2eedfca2d",
          "telephone": "(020)87672118",
          "location": {
            "lng": 113.30493104336,
            "lat": 23.137018713821
          }
        },
        {
          "name": "益康针灸推拿科",
          "address": "越秀区农林下路81号大院后院(广百旁老班长直上50米益康针灸推拿科)",
          "uid": "5587dad8d83fe94bf60e77e1",
          "telephone": "(020)87675899",
          "location": {
            "lng": 113.30388703269,
            "lat": 23.136163970587
          }
        },
        {
          "name": "柠檬布丁(东山口店)",
          "address": "农林下路81号老班长旁边",
          "uid": "3e0e9ef27bc0967dc0364426",
          "telephone": "13922711021",
          "location": {
            "lng": 113.30350552234,
            "lat": 23.135993486538
          }
        },
        {
          "name": "美国贝妮芙养护中心",
          "address": "农林下路81号大院后院（王府井对面广百左边小巷“老班长”往前50米广州军区干休所保安亭旁）",
          "uid": "ae9c6996b2b4fad6fd0eb06c",
          "telephone": "(020)87652113,18819311517",
          "location": {
            "lng": 113.3028149949,
            "lat": 23.135968395787
          }
        }
      ]
    },
    "destination": {
      "cityName": "广州市",
      "listType": 0,
      "content": [
        {
          "name": "广州国际金融中心",
          "address": "广州市天河区珠江新城珠江西路5号(近花城大道)",
          "uid": "e6d76b7b5085f1a9b6f42f6c",
          "telephone": "020-38280888",
          "location": {
            "lng": 113.32977341274,
            "lat": 23.123918387903
          }
        },
        {
          "name": "广州国际金融中心",
          "address": "",
          "uid": "d3a8b827b9ebb8c9095cb3f6",
          "location": {
            "lng": 113.32960803469,
            "lat": 23.122623016055
          }
        },
        {
          "name": "广州国际金融中心(西塔)",
          "address": "",
          "uid": "29e06606fd4c5c0979dbd222",
          "location": {
            "lng": 113.33003401116,
            "lat": 23.12448297995
          }
        },
        {
          "name": "广州国际金融会议中心",
          "address": "广东省广州市天河区珠江新城珠江西路5号",
          "uid": "0f5468dae55ed782b020a823",
          "location": {
            "lng": 113.32901605136,
            "lat": 23.124269939171
          }
        },
        {
          "name": "广州国际金融中心-写字楼",
          "address": "广州市天河区珠江西路",
          "uid": "691fa149f8ae1c869c09f7fd",
          "location": {
            "lng": 113.33000616369,
            "lat": 23.123621259468
          }
        },
        {
          "name": "广州国际金融中心-停车场",
          "address": "广州市天河区珠江西路5号国际金融中心",
          "uid": "0a0ded567851f0ae31870aee",
          "telephone": "(020)88888808",
          "location": {
            "lng": 113.32901227848,
            "lat": 23.123927029213
          }
        },
        {
          "name": "广州国际金融中心-正门",
          "address": "广州市天河区珠江新城珠江西路5号(近花城大道)",
          "uid": "5fc8955da694ebca4d776efd",
          "location": {
            "lng": 113.32979039071,
            "lat": 23.123953119316
          }
        },
        {
          "name": "广州国际金融中心停车场-出口",
          "address": "广州市天河区珠江新城珠江西路5号(近花城大道)广州国际金融中心",
          "uid": "48a2b1ae2737a109e8e58202",
          "location": {
            "lng": 113.32962052114,
            "lat": 23.122881592896
          }
        },
        {
          "name": "广州国际金融中心写字楼-北门",
          "address": "广州市天河区",
          "uid": "1ca84d16c6ef7d88770269d7",
          "location": {
            "lng": 113.33001523658,
            "lat": 23.123679172977
          }
        },
        {
          "name": "广州国际金融中心停车场-入口",
          "address": "广州市天河区珠江新城珠江西路5号(近花城大道)广州国际金融中心",
          "uid": "bdec4d77f9af72e3f7b91601",
          "location": {
            "lng": 113.32898119711,
            "lat": 23.12370742346
          }
        },
        {
          "name": "广州国际金融中心地下停车场-入口",
          "address": "广州市天河区",
          "uid": "90720e9d12ae2e48343a7103",
          "location": {
            "lng": 113.32911755988,
            "lat": 23.123894458121
          }
        },
        {
          "name": "中国银行(广州国际金融中心支行)",
          "address": "广州市天河区珠江新城珠江西路5号广州国际金融中心主塔写字楼第7层701",
          "uid": "4e653dc0d368a9857f29bdf5",
          "telephone": "(020)88834514",
          "location": {
            "lng": 113.32977098731,
            "lat": 23.123914981233
          }
        },
        {
          "name": "广州国际金融中心地下停车场-出入口",
          "address": "广州市天河区珠江西路5号广州友谊商店F1",
          "uid": "42aa593e76722e024251c044",
          "location": {
            "lng": 113.32897904117,
            "lat": 23.124065373172
          }
        },
        {
          "name": "广州国际金融中心雅诗阁服务公寓宴会厅",
          "address": "珠江新城珠江西路5号(珠江新城核心地段)",
          "uid": "fd700b16a5380cfa4051c0c0",
          "location": {
            "lng": 113.33568372401,
            "lat": 23.130045682589
          }
        },
        {
          "name": "广州国际金融中心雅诗阁服务公寓",
          "address": "广州市天河区珠江新城珠江西路5号",
          "uid": "66bc1847329d2bb93586f49c",
          "telephone": "020-38389888",
          "location": {
            "lng": 113.32906608698,
            "lat": 23.124429138163
          }
        },
        {
          "name": "蓉李记成都名小吃(广州国际金融中心店)",
          "address": "广州市天河区珠江西路5hao号负一层60房（部位：自编B108a单元，自编108b单元）",
          "uid": "e3aa6ef4c08c18510b1cc743",
          "telephone": "(020)38094146",
          "location": {
            "lng": 113.32980871614,
            "lat": 23.12348889751
          }
        },
        {
          "name": "广州国金天地购物中心",
          "address": "珠江西路5号广州国际金融中心",
          "uid": "88118be91623c5ae0e3ddae3",
          "location": {
            "lng": 113.32968897202,
            "lat": 23.124156023701
          }
        },
        {
          "name": "广州证券(珠江西路营业部)",
          "address": "珠江西路5号广州国际金融中心主塔写字楼7层(拜尔口腔旁)",
          "uid": "28a4c6fef685c5f8fda77895",
          "telephone": "(020)88836699",
          "location": {
            "lng": 113.32994930095,
            "lat": 23.123542905858
          }
        },
        {
          "name": "广州锐安投资顾问有限公司",
          "address": "天河区珠江西路5号广州国际金融中心主塔写字楼2602单元",
          "uid": "4bc7a9bf8278820d8d7727e4",
          "telephone": "4000003363",
          "location": {
            "lng": 113.3297562551,
            "lat": 23.123981619009
          }
        },
        {
          "name": "合贷网(广州国际金融中心营业厅)",
          "address": "珠江新城珠江西路5号广州国际金融中心",
          "uid": "b9210b3d2b19d32122f01798",
          "telephone": "(020)38395620",
          "location": {
            "lng": 113.32977233477,
            "lat": 23.123912405458
          }
        },
        {
          "name": "广州产业投资基金管理有限公司",
          "address": "广州市天河区珠江西路5号广州国际金融中心61层",
          "uid": "3161b659d046c6db5cd4fecc",
          "location": {
            "lng": 113.32937734984,
            "lat": 23.123886896974
          }
        },
        {
          "name": "创兴银行(广州支行)",
          "address": "广州国际金融中心裙楼1楼",
          "uid": "ecf216732eb5437330169bb8",
          "telephone": "(020)23387388",
          "location": {
            "lng": 113.32896996829,
            "lat": 23.124195574233
          }
        },
        {
          "name": "中国建设银行(广州西塔支行)",
          "address": "广州市天河区珠江新城珠江西路5号广州国际金融中心主塔写字楼第7层09,10单元",
          "uid": "1e24f19e3147ff3ed12dd637",
          "telephone": "(020)88830030",
          "location": {
            "lng": 113.32973954662,
            "lat": 23.12345699103
          }
        },
        {
          "name": "台湾银行(广州分行)",
          "address": "广东省广州市天河区珠江新城珠江西路5号广州国际金融中心24层",
          "uid": "113fa7cb0c49a0183913fd2b",
          "location": {
            "lng": 113.32983880938,
            "lat": 23.123478511287
          }
        },
        {
          "name": "香江国际金融中心",
          "address": "广东省广州市南沙区上隆岭路",
          "uid": "f9709831ad24ce11d813188a",
          "location": {
            "lng": 113.55212396876,
            "lat": 22.799231024682
          }
        },
        {
          "name": "瑞慈体检(天河区店)",
          "address": "珠江新城珠江西路5号广州国际金融中心51层02-06单元",
          "uid": "bebb740868b4b562b726551d",
          "telephone": "4001688188,020-37780888",
          "location": {
            "lng": 113.32998604165,
            "lat": 23.123579049894
          }
        },
        {
          "name": "中惠国际金融中心",
          "address": "广州市南沙区",
          "uid": "52fdb95abad032111894c69f",
          "telephone": "(020)39099988",
          "location": {
            "lng": 113.53798526886,
            "lat": 22.807799619901
          }
        },
        {
          "name": "宜信财富财富管理中心(宜信财富西塔财富中心)",
          "address": "珠江新城珠江西路5号广州国际金融中心36楼06-11室(花城汇广场、高德置地广场、友谊国金店)",
          "uid": "d914802944a9be1ab34c494a",
          "telephone": "(020)66312999",
          "location": {
            "lng": 113.33558509006,
            "lat": 23.119781795044
          }
        },
        {
          "name": "三诚国际金融中心",
          "address": "广州市天河区",
          "uid": "1a4c5fb1dbfa12a19d95deeb",
          "location": {
            "lng": 113.33053319954,
            "lat": 23.132107437601
          }
        },
        {
          "name": "中国出口信用保险公司",
          "address": "广州市天河区珠江新城珠江西路5号广州国际金融中心28F",
          "uid": "96d263a58ec461382fb17ef3",
          "telephone": "(020)38792898",
          "location": {
            "lng": 113.32998918572,
            "lat": 23.123580545509
          }
        },
        {
          "name": "交通银行ATM(珠江新城支行)",
          "address": "广东省广州市天河区珠江新城珠江西路5号广州国际金融中心8层",
          "uid": "9c44f0d58d0e3c51631c673f",
          "telephone": "95559",
          "location": {
            "lng": 113.32986890261,
            "lat": 23.123478178928
          }
        },
        {
          "name": "广东拉法医疗投资管理有限公司",
          "address": "珠江西路广州国际金融中心内",
          "uid": "a672e3c4b0f6c55fba17e7b7",
          "telephone": "4009266330,(020)28616161",
          "location": {
            "lng": 113.32977799409,
            "lat": 23.123914981233
          }
        },
        {
          "name": "实盈投资管理有限公司",
          "address": "珠江西路5号广州国际金融中心53楼5303室",
          "uid": "50953a6381c9a0c1acee7ae2",
          "telephone": "(020)23388388",
          "location": {
            "lng": 113.32977934155,
            "lat": 23.123916310666
          }
        },
        {
          "name": "广州四季酒店-商务中心",
          "address": "江新城珠江西路5号广州国际金融中心主塔楼四季酒店",
          "uid": "806d0f9a88845e44e81e97d2",
          "telephone": "(020)88833888",
          "location": {
            "lng": 113.32938768035,
            "lat": 23.123315821379
          }
        },
        {
          "name": "广州四季酒店-会议中心",
          "address": "江新城珠江西路5号广州国际金融中心主塔楼四季酒店",
          "uid": "4c50ffbca5b625292cb908ed",
          "telephone": "(020)88833888",
          "location": {
            "lng": 113.32938768035,
            "lat": 23.123315821379
          }
        },
        {
          "name": "瑞康体检(瑞慈西塔分院)",
          "address": "广东省广州市天河区珠江新城珠江西路5号广州国际金融中心51层",
          "uid": "dc265726808682bd1d580057",
          "telephone": "4006302100",
          "location": {
            "lng": 113.32908656834,
            "lat": 23.123679006797
          }
        },
        {
          "name": "中華國際金融中心",
          "address": "广东省广州市越秀区中山三路33号",
          "uid": "ac87e1e09e92c3003517dc20",
          "location": {
            "lng": 113.28949231572,
            "lat": 23.132341486104
          }
        },
        {
          "name": "老凤祥银楼(广州国际金融中心西塔裙楼广州友谊商店)",
          "address": "广州市天河区珠江西路5号广州友谊商店M",
          "uid": "0ff7d5a1b022aee5ae045764",
          "location": {
            "lng": 113.32952844482,
            "lat": 23.12444176772
          }
        },
        {
          "name": "中国银行ATM(广州友谊商店)",
          "address": "珠江西路5号广州国际金融中心西塔7楼",
          "uid": "44373d3bc8a0efb98bdb7394",
          "telephone": "95566",
          "location": {
            "lng": 113.32962977368,
            "lat": 23.124366322717
          }
        },
        {
          "name": "formax金融圈",
          "address": "广州市天河区珠江新城珠江西路5号广州国际金融中心4205-06单元",
          "uid": "b4f809edca826d296d20b93d",
          "location": {
            "lng": 113.32962007199,
            "lat": 23.123808460431
          }
        },
        {
          "name": "广州四季酒店",
          "address": "广州市天河区珠江新城珠江西路5号广州国际金融中心",
          "uid": "49d9593898b6235ac71e51ae",
          "location": {
            "lng": 113.32938768035,
            "lat": 23.123315821379
          }
        },
        {
          "name": "广州零壹众筹互联网金融信息服务有限公司",
          "address": "广东省广州市天河区珠江新城珠江西路5号广州国际金融中心(西塔)21楼",
          "uid": "48d37a220692078eeb1e9741",
          "telephone": "(020)88836036",
          "location": {
            "lng": 113.32937726001,
            "lat": 23.123886813884
          }
        },
        {
          "name": "广州证券",
          "address": "珠江西路5号广州国际金融中心4楼",
          "uid": "089f5e83e22db6c4b65f1e55",
          "telephone": "(020)88836999",
          "location": {
            "lng": 113.32960003977,
            "lat": 23.126015052131
          }
        },
        {
          "name": "广州西塔芭兰好国际集团(ifc大陆总部)",
          "address": "珠江新城西路5号IFC5439",
          "uid": "c7eb33d664ddfeef260bd015",
          "telephone": "(020)32030299",
          "location": {
            "lng": 113.3298488704,
            "lat": 23.123468457422
          }
        },
        {
          "name": "广州期货股份有限公司",
          "address": "珠江西路5号广州国际金融中心主塔写字楼第1007-1012房",
          "uid": "7cc4644fa893dc188705bff2",
          "telephone": "4000206388,(020)22139800",
          "location": {
            "lng": 113.32978041952,
            "lat": 23.123854325873
          }
        },
        {
          "name": "广州拜博口腔(西塔店)",
          "address": "珠江新城珠江西路5号广州国际金融中心IFC(西塔)5101室",
          "uid": "ae5f6cd4d357c0e082288a62",
          "telephone": "(020)88832167",
          "location": {
            "lng": 113.3299629552,
            "lat": 23.123686983405
          }
        },
        {
          "name": "广州乔普绅服饰有限公司",
          "address": "广州市天河区珠江新城珠江西路5号广州国际金融中心5F",
          "uid": "941e20c554c43ce388b98816",
          "telephone": "(020)66653518,13544441035",
          "location": {
            "lng": 113.32994462977,
            "lat": 23.123588106674
          }
        },
        {
          "name": "广州中妆贸易有限公司",
          "address": "广州市天河区珠江西路5号广州国际金融中心IFC39F",
          "uid": "60e479486f4c5a54f8f0cbc5",
          "telephone": "(020)88831658",
          "location": {
            "lng": 113.32974897883,
            "lat": 23.123795996993
          }
        },
        {
          "name": "广州西塔停车场(入口)",
          "address": "珠江新城珠江西路5号(近花城大道)广州国际金融中心",
          "uid": "66549eb2f6f88547e6073896",
          "location": {
            "lng": 113.32899610898,
            "lat": 23.124045099352
          }
        },
        {
          "name": "广州市锐尚数码科技有限公司",
          "address": "珠江西路5号广州国际金融中心",
          "uid": "121c107d2a8ee8359b68b4ba",
          "telephone": "(020)66615850",
          "location": {
            "lng": 113.32984590599,
            "lat": 23.12343040229
          }
        }
      ]
    }
  }
}