{
  "status": 0,
  "message": "ok",
  "type": 1,
  "info": {
    "copyright": {
      "text": "@2016 Baidu - Data",
      "imageUrl": "http://api.map.baidu.com/images/copyright_logo.png"
    }
  },
  "result": {
    "originInfo": {
      "area_id": 257,
      "wd": "海军华海大厦",
      "uid": ""
    },
    "destinationInfo": {
      "area_id": 257,
      "wd": "润南花园幼儿园",
      "uid": ""
    },
    "origin": {
      "cityName": "广州市",
      "listType": 0,
      "content": [
        {
          "name": "海军华海大厦",
          "address": "广东省广州市海珠区江南大道中232号A座",
          "uid": "5c56edd6767e3a43a1d23019",
          "telephone": "(020)84423811",
          "location": {
            "lng": 113.28140011019,
            "lat": 23.100355267274
          }
        },
        {
          "name": "海军华海大厦-A座",
          "address": "江南大道中232号",
          "uid": "79e9fdfd4479e00ad1f49e90",
          "location": {
            "lng": 113.28139912206,
            "lat": 23.100359339383
          }
        },
        {
          "name": "海军华海大厦-B座",
          "address": "江南大道中232号",
          "uid": "29b634ff2d6370e9bea240ea",
          "location": {
            "lng": 113.28139714578,
            "lat": 23.100481835011
          }
        },
        {
          "name": "海军华海大厦(东北门)",
          "address": "广东省广州市海珠区江南大道中232附近",
          "uid": "792669c0c9fb33c8260bd070",
          "location": {
            "lng": 113.28140900342,
            "lat": 23.100469286278
          }
        },
        {
          "name": "海军华海大厦-停车场",
          "address": "江南大道中232号",
          "uid": "c7eca12b92016f4ae115f95f",
          "telephone": "(020)84414213",
          "location": {
            "lng": 113.2815903713,
            "lat": 23.099911240437
          }
        },
        {
          "name": "海军华海大厦-沐足推拿",
          "address": "广东省广州市海珠区江南大道中232号海军华海大厦A座5层",
          "uid": "69a0741aa705d3b15cd4fead",
          "telephone": "13119532966",
          "location": {
            "lng": 113.28139912206,
            "lat": 23.100359256278
          }
        },
        {
          "name": "海军华海大厦地下停车场-入口",
          "address": "广州市海珠区江南大道中",
          "uid": "a176ddd0abb90eb69122e05c",
          "location": {
            "lng": 113.28189148331,
            "lat": 23.099990605253
          }
        },
        {
          "name": "华海大酒楼",
          "address": "江南大道中232号海军华海大厦内（摩登百货对面）",
          "uid": "152cf2d93035786b7dc876e8",
          "telephone": "(020)84410154",
          "location": {
            "lng": 113.28153036449,
            "lat": 23.100049941849
          }
        },
        {
          "name": "北大青鸟aptech院校合作授权服务中心",
          "address": "江南大道中232号海军华海大厦B座25层2513～2513A",
          "uid": "deca37b000b1b57a4557263a",
          "location": {
            "lng": 113.28139714578,
            "lat": 23.100481835011
          }
        },
        {
          "name": "麦尔传动技术有限公司广州办事处",
          "address": "江南大道中232号海军华海大厦B座18层183A",
          "uid": "430a645ddcf1b153cc04ef6c",
          "location": {
            "lng": 113.28133902542,
            "lat": 23.100448925749
          }
        },
        {
          "name": "广州市科纶贸易有限公司",
          "address": "江南大道中232号海军华海大厦B座28层",
          "uid": "ec266cdcbde05c4b932ca3b9",
          "telephone": "020-84449607",
          "location": {
            "lng": 113.28133902542,
            "lat": 23.100448925749
          }
        },
        {
          "name": "正桥设计",
          "address": "江南大道中232号海军华海大厦B座25层",
          "uid": "bfc4408a5392993a43afe6f3",
          "location": {
            "lng": 113.28133902542,
            "lat": 23.100448925749
          }
        },
        {
          "name": "广州中威博测机电设备有限公司",
          "address": "江南大道中232号海军华海大厦B座25层2508～2509",
          "uid": "6b022591d4d21185ac31e551",
          "location": {
            "lng": 113.28133902542,
            "lat": 23.100448925749
          }
        },
        {
          "name": "广州进捷贸易有限公司",
          "address": "江南大道中232号海军华海大厦B座18层",
          "uid": "50e5792f80184b149fec2b0a",
          "telephone": "13826482324",
          "location": {
            "lng": 113.28133911525,
            "lat": 23.100449008853
          }
        },
        {
          "name": "广州御品真味贸易有限公司",
          "address": "江南大道中232号海军华海大厦B座25层2515～2516",
          "uid": "42e14d2aab9609588b2fb5ef",
          "location": {
            "lng": 113.28133902542,
            "lat": 23.100448925749
          }
        },
        {
          "name": "广州华洋海事有限公司",
          "address": "江南大道中232号海军华海大厦B座23层2309～2312",
          "uid": "3e6c8b62e8b60327441a32b5",
          "telephone": "020-84426745",
          "location": {
            "lng": 113.28133911525,
            "lat": 23.100449008853
          }
        },
        {
          "name": "利华酒店物业管理公司",
          "address": "江南大道中232号海军华海大厦B座25层2510～2511",
          "uid": "e2bb8ebe39b8e74bb9df8fbc",
          "location": {
            "lng": 113.28133902542,
            "lat": 23.100448925749
          }
        },
        {
          "name": "升学教育(升学广州大区海珠分校)",
          "address": "海珠区江南大道中232号B座号海军华海大厦B座28楼C1室",
          "uid": "4d7e04d9fd377a36100daa29",
          "telephone": "18607061411",
          "location": {
            "lng": 113.28149703736,
            "lat": 23.100316042054
          }
        },
        {
          "name": "巨人通力电梯公司广州分公司",
          "address": "广州市海珠区江南大道中232号海军华海大厦18层1813~1817",
          "uid": "3c2897bdfa1eaeb52ffaa7a4",
          "location": {
            "lng": 113.28133902542,
            "lat": 23.100448925749
          }
        },
        {
          "name": "广州市粤沛规划建设公司",
          "address": "江南大道中232号海军华海大厦B座26层",
          "uid": "e4010541c7b11f7633169b03",
          "location": {
            "lng": 113.28133902542,
            "lat": 23.100448925749
          }
        },
        {
          "name": "金鼎黄金交易中心",
          "address": "江南大道中232号海军华海大厦B座29层2911（近江南西）",
          "uid": "de8023d1511bcacc9868b419",
          "telephone": "(020)84410275",
          "location": {
            "lng": 113.28133902542,
            "lat": 23.100448925749
          }
        },
        {
          "name": "美国希尔斯公司广州代表处",
          "address": "江南大道中232号海军华海大厦B座28层",
          "uid": "752b2ce2dfde847661685820",
          "telephone": "84436107",
          "location": {
            "lng": 113.28133911525,
            "lat": 23.100449008853
          }
        },
        {
          "name": "纺熔非织造布技术咨询公司",
          "address": "江南大道中232号海军华海大厦B座28层",
          "uid": "f6da75b3aa5c8f906f4760fe",
          "location": {
            "lng": 113.28133902542,
            "lat": 23.100448925749
          }
        },
        {
          "name": "广东安顺电梯工程公司",
          "address": "江南大道中232号海军华海大厦25层2501-2504",
          "uid": "78be20aa20fb1d0f6cc02c7c",
          "telephone": "020-84414402",
          "location": {
            "lng": 113.28133902542,
            "lat": 23.100448925749
          }
        },
        {
          "name": "广东利海城市运营集团有限公司",
          "address": "江南大道中232号海军华海大厦B座30层",
          "uid": "002d4cc1d15cf79bc5effbfc",
          "telephone": "84489838",
          "location": {
            "lng": 113.28133911525,
            "lat": 23.100449008853
          }
        },
        {
          "name": "广州御品真味投资有限公司",
          "address": "江南大道中232号海军华海大厦B座25层2515～2516",
          "uid": "40c8e3bdb0fe0432fa0cad71",
          "location": {
            "lng": 113.28133902542,
            "lat": 23.100448925749
          }
        },
        {
          "name": "中国产业用纺织品行业协会纺粘法非织造布分会",
          "address": "江南大道中232号海军华海大厦B座28层",
          "uid": "4df52433819fe31ab15c6a6f",
          "location": {
            "lng": 113.28133902542,
            "lat": 23.100448925749
          }
        },
        {
          "name": "广州市金淙投资有限公司",
          "address": "江南大道中232号海军华海大厦B座26层",
          "uid": "36317df4dc62c16a441a32f4",
          "location": {
            "lng": 113.28133902542,
            "lat": 23.100448925749
          }
        },
        {
          "name": "广州利百鑫酒店管理有限公司",
          "address": "江南大道中232号海军华海大厦B座22层",
          "uid": "5344b020fdf608aa7adbd235",
          "location": {
            "lng": 113.28133902542,
            "lat": 23.100448925749
          }
        },
        {
          "name": "广州万里石石材有限公司",
          "address": "江南大道中232号海军华海大厦B座25层2512",
          "uid": "1c701f05c81f37788bf15d76",
          "telephone": "84489596",
          "location": {
            "lng": 113.28133911525,
            "lat": 23.100449008853
          }
        },
        {
          "name": "广州利海酒店物业管理有限公司",
          "address": "江南大道中232号海军华海大厦B座22层",
          "uid": "e113ebc6ca633f4e2efaa714",
          "location": {
            "lng": 113.28133911525,
            "lat": 23.100449008853
          }
        },
        {
          "name": "广东省化学纤维研究所",
          "address": "江南大道中232号海军华海大厦B座28层",
          "uid": "822b5f8d54a29d479b68b4a8",
          "location": {
            "lng": 113.28133902542,
            "lat": 23.100448925749
          }
        },
        {
          "name": "广州声名远播广告有限公司",
          "address": "江南大道中232号海军华海大厦B座24层",
          "uid": "1da053a37450793c1ef74df0",
          "location": {
            "lng": 113.28133902542,
            "lat": 23.100448925749
          }
        },
        {
          "name": "广东方盛实业发展有限公司",
          "address": "江南大道中232号海军华海大厦B座23层",
          "uid": "b78fe0688b9a73a81ef74d81",
          "telephone": "84228374-8308",
          "location": {
            "lng": 113.28133911525,
            "lat": 23.100449008853
          }
        },
        {
          "name": "广州合业贸易有限公司",
          "address": "江南大道中232号海军华海大厦B座18层1809～1812",
          "uid": "4f70a5fc58e3bed63f9a5e92",
          "telephone": "87034153",
          "location": {
            "lng": 113.28133911525,
            "lat": 23.100449008853
          }
        },
        {
          "name": "成报传媒集团有限公司",
          "address": "江南大道中232号海军华海大厦B座24层",
          "uid": "be01c5f7f070b370be4842e4",
          "location": {
            "lng": 113.28133902542,
            "lat": 23.100448925749
          }
        },
        {
          "name": "广州鸥鸟贸易有限公司",
          "address": "江南大道中232号海军华海大厦B座28层",
          "uid": "84fcd4adabbd432b4d6d465f",
          "telephone": "4000021688",
          "location": {
            "lng": 113.28140028985,
            "lat": 23.100221220025
          }
        },
        {
          "name": "南华技术开发服务公司",
          "address": "江南大道中232号海军华海大厦B座29层",
          "uid": "caad50a21f16620554bfff3d",
          "location": {
            "lng": 113.28133902542,
            "lat": 23.100448925749
          }
        },
        {
          "name": "八同信息科技有限公司",
          "address": "江南中街道江南大道中232号海军华海大厦B座21楼",
          "uid": "40983a3480d04d5e40afe6ac",
          "location": {
            "lng": 113.28133911525,
            "lat": 23.100445933997
          }
        },
        {
          "name": "广东利海置地集团有限公司广东公司总部",
          "address": "江南大道中232号海军华海大厦B座18层",
          "uid": "1d4b30be4dceaa77d8131894",
          "location": {
            "lng": 113.28133902542,
            "lat": 23.100448925749
          }
        },
        {
          "name": "广州四喜信息科技有限公司",
          "address": "江南大道中232号海军华海大厦B座",
          "uid": "749e07e73f99e3bba20464c6",
          "location": {
            "lng": 113.28133911525,
            "lat": 23.100445933997
          }
        },
        {
          "name": "广州兆丰建筑设计有限公司",
          "address": "江南大道中232号海军华海大厦B座26层2605",
          "uid": "befdfaea2439cf11e8e582d8",
          "telephone": "88514863",
          "location": {
            "lng": 113.28133911525,
            "lat": 23.100449008853
          }
        },
        {
          "name": "泰祺MBA教育广州海珠校区",
          "address": "广东省广州市海珠区江南大道中海军华海大厦A座4楼",
          "uid": "a07425afbb42d594932ca392",
          "telephone": "13829718820",
          "location": {
            "lng": 113.28140298477,
            "lat": 23.100337898481
          }
        },
        {
          "name": "广州房实工程总承包公司",
          "address": "江南大道中232号海军华海大厦B座26层",
          "uid": "acf0c87f20a4cf8957bfff25",
          "location": {
            "lng": 113.28133902542,
            "lat": 23.100448925749
          }
        },
        {
          "name": "利海农业股份有限公司",
          "address": "江南大道中232号海军华海大厦B座27层",
          "uid": "57dbd348543361cc5810936a",
          "location": {
            "lng": 113.28139714578,
            "lat": 23.100481835011
          }
        },
        {
          "name": "阿里山贡茶（华海大厦店）",
          "address": "江南大道海军华海酒店A座01铺",
          "uid": "044a2d0f1a5e50d402897264",
          "location": {
            "lng": 113.28224334957,
            "lat": 23.098387177459
          }
        }
      ]
    },
    "destination": {
      "cityName": "广州市",
      "listType": 1,
      "content": [
        {
          "name": "焦作市",
          "number": 2
        },
        {
          "name": "桂林市",
          "number": 1
        },
        {
          "name": "济南市",
          "number": 1
        }
      ]
    }
  }
}