{
  "status": 0,
  "message": "ok",
  "type": 1,
  "info": {
    "copyright": {
      "text": "@2016 Baidu - Data",
      "imageUrl": "http://api.map.baidu.com/images/copyright_logo.png"
    }
  },
  "result": {
    "originInfo": {
      "area_id": 257,
      "wd": "广州医科大学附属口腔医院",
      "uid": ""
    },
    "destinationInfo": {
      "area_id": 257,
      "wd": "富力广场北区",
      "uid": ""
    },
    "origin": {
      "cityName": "广州市",
      "listType": 0,
      "content": [
        {
          "name": "广东医学院口腔医院",
          "address": "广州市荔湾区黄沙大道39号",
          "uid": "e6ee2fd2e75ced512b11d1c1",
          "telephone": "020-61350511",
          "location": {
            "lng": 113.24077469267,
            "lat": 23.118304907753
          }
        },
        {
          "name": "广州中山大学光华口腔医学院附属口腔医院",
          "address": "越秀区陵园西路56号(中山二三路)",
          "uid": "db1f39d499765876f5c59cc4",
          "telephone": "(020)87777979",
          "location": {
            "lng": 113.28966101749,
            "lat": 23.136274967882
          }
        },
        {
          "name": "广州医学院第三附属医院口腔科",
          "address": "多宝路63号",
          "uid": "5f53c65fac4e57aab2077d26",
          "location": {
            "lng": 113.24106996569,
            "lat": 23.122655005826
          }
        },
        {
          "name": "广州光华口腔医院（北门）",
          "address": "东风东路562号",
          "uid": "0b4f59c36ed266fa24e0a00a",
          "location": {
            "lng": 113.28980815993,
            "lat": 23.137217527238
          }
        },
        {
          "name": "中山大学 广州光华口腔矫正医院",
          "address": "广东省广州市天河区东圃大马路3号-7",
          "uid": "cc788fde0a35248a88fc06eb",
          "location": {
            "lng": 113.4094944335,
            "lat": 23.126642283475
          }
        },
        {
          "name": "广州光华口腔医院门诊部",
          "address": "广州市越秀区陵园西路56号",
          "uid": "f69f418f1ac1ad2fca29152c",
          "telephone": "020-87678799",
          "location": {
            "lng": 113.28932082919,
            "lat": 23.136613857998
          }
        },
        {
          "name": "中山大学光华口腔医学院附属口腔医院特诊中心",
          "address": "广州市天河区华夏路49号津滨腾越大厦3楼",
          "uid": "495384178453571cb9df8fc0",
          "location": {
            "lng": 113.32715970302,
            "lat": 23.132151472317
          }
        },
        {
          "name": "中山大学光华口腔医学院附属口腔医院珠江新城口腔医疗门诊",
          "address": "广州市天河区",
          "uid": "67861454b1634db416c90599",
          "location": {
            "lng": 113.32746243198,
            "lat": 23.131734803616
          }
        },
        {
          "name": "中山大学光华口腔医学院附属口腔医院停车场-出入口",
          "address": "广州市越秀区",
          "uid": "21b6fc59a9137a6b100daa06",
          "location": {
            "lng": 113.28954190218,
            "lat": 23.135934249095
          }
        },
        {
          "name": "中山大学光华口腔医学院附属口腔医院-西1门",
          "address": "广州市越秀区",
          "uid": "9acfaeb5040492018836ee92",
          "location": {
            "lng": 113.28954693269,
            "lat": 23.135991243325
          }
        },
        {
          "name": "中山大学光华口腔医学院附属口腔医院-西2门",
          "address": "广州市越秀区",
          "uid": "687c2aa6aaaf5f23e60738dd",
          "location": {
            "lng": 113.28956498863,
            "lat": 23.136275217127
          }
        },
        {
          "name": "中山大学光华口腔医学院附属口腔医院-停车场",
          "address": "广州市越秀区陵园西路56号中山大学光华口腔医学院附属口腔医院",
          "uid": "dea6aaaafbda64a328d7ab28",
          "location": {
            "lng": 113.28960999374,
            "lat": 23.13597612241
          }
        }
      ]
    },
    "destination": {
      "cityName": "广州市",
      "listType": 0,
      "content": [
        {
          "name": "富力广场北区",
          "address": "中山八路与周门街交叉口",
          "uid": "d305db1f6158ba43932ca310",
          "telephone": "(020)38108880,(020)38108882",
          "location": {
            "lng": 113.24580861708,
            "lat": 23.132386434669
          }
        },
        {
          "name": "富力广场北区-东门",
          "address": "中山八路16",
          "uid": "2e08149c13153ebe43afe629",
          "location": {
            "lng": 113.24588075102,
            "lat": 23.132701074195
          }
        },
        {
          "name": "富力广场北区-车库",
          "address": "中山八路16-17",
          "uid": "eb36750307a5331b00ec0110",
          "telephone": "(020)81356561",
          "location": {
            "lng": 113.24589727984,
            "lat": 23.132386683921
          }
        },
        {
          "name": "富力广场北区地下停车场",
          "address": "中山八路16-17",
          "uid": "4145429a781d7deef7eafcdc",
          "location": {
            "lng": 113.24590725103,
            "lat": 23.13236084473
          }
        },
        {
          "name": "富力广场北区地下停车场-出口",
          "address": "广州市荔湾区",
          "uid": "f80e8f92183257373717dc45",
          "location": {
            "lng": 113.2458803917,
            "lat": 23.132045456636
          }
        },
        {
          "name": "苏宁易购(中山八路店)",
          "address": "中山八路16号富力广场北区首层、二层、三层",
          "uid": "0523a14101d4bf1cb23c8140",
          "telephone": "(020)81360789",
          "location": {
            "lng": 113.24581274929,
            "lat": 23.131832428006
          }
        }
      ]
    }
  }
}