{
  "status": 0,
  "message": "ok",
  "type": 1,
  "info": {
    "copyright": {
      "text": "@2016 Baidu - Data",
      "imageUrl": "http://api.map.baidu.com/images/copyright_logo.png"
    }
  },
  "result": {
    "originInfo": {
      "area_id": 257,
      "wd": "地王广场",
      "uid": ""
    },
    "destinationInfo": {
      "area_id": 257,
      "wd": "椰城苑",
      "uid": ""
    },
    "origin": {
      "cityName": "广州市",
      "listType": 0,
      "content": [
        {
          "name": "地王广场",
          "address": "越秀区较场西路26号地王广场(英雄广场地下)",
          "uid": "251374c94286cc26a11de97f",
          "telephone": "020-83641144",
          "location": {
            "lng": 113.28989269048,
            "lat": 23.132069218779
          }
        },
        {
          "name": "地王广场",
          "address": "广州市增城市解放北路115号",
          "uid": "ac090101643e5de2e311037f",
          "telephone": "(020)82688938",
          "location": {
            "lng": 113.62107834884,
            "lat": 23.122868381559
          }
        },
        {
          "name": "地王广场广州潮人主场",
          "address": "广州市越秀区较场西路18号地王广场",
          "uid": "1899e25131d967fb04fef5ea",
          "location": {
            "lng": 113.29117160803,
            "lat": 23.132094393352
          }
        },
        {
          "name": "地王广场(较场西路)-西门",
          "address": "广州市越秀区较场西路18号(中山三路与较场西交汇处)",
          "uid": "f757e6ee75b6880e260bd054",
          "location": {
            "lng": 113.28988667183,
            "lat": 23.132070381961
          }
        },
        {
          "name": "地王广场东门",
          "address": "广东省广州市增城区增城区",
          "uid": "e018348d1daec22fa8175a74",
          "location": {
            "lng": 113.62166619997,
            "lat": 23.122978559081
          }
        },
        {
          "name": "地王广场-正门",
          "address": "广州市越秀区较场东路",
          "uid": "3eb90a3eacb1f6c54f3a5947",
          "location": {
            "lng": 113.29117663855,
            "lat": 23.132117324643
          }
        },
        {
          "name": "地王广场(西门)",
          "address": "解放北路115",
          "uid": "e83baf4428e1266ef03cbae2",
          "location": {
            "lng": 113.6210752946,
            "lat": 23.122975318567
          }
        },
        {
          "name": "地王广场-客服中心",
          "address": "广州市越秀区较场西路18号地王广场（较场西路）（西门）B1层",
          "uid": "64694f58837d7a7140ab9a0e",
          "location": {
            "lng": 113.28989295997,
            "lat": 23.132079936667
          }
        },
        {
          "name": "广州中纳贸易有限公司地王广场营业厅",
          "address": "广州市越秀区",
          "uid": "1d07b8e6c7dc29799e82eabb",
          "location": {
            "lng": 113.28992565829,
            "lat": 23.132052186475
          }
        },
        {
          "name": "CLUB 地王广场店",
          "address": "越秀区较场西路26号地王广场1013铺",
          "uid": "ee97b27c77150c08b34c49fe",
          "telephone": "(020)83213161",
          "location": {
            "lng": 113.28984957182,
            "lat": 23.132199411982
          }
        },
        {
          "name": "寿司大 地王广场店",
          "address": "广州市越秀区较场西路18号地王广场（较场西路）（西门）B1层",
          "uid": "5e500c09208a20af901fc963",
          "telephone": "(020)83287070",
          "location": {
            "lng": 113.28989295997,
            "lat": 23.132079936667
          }
        },
        {
          "name": "詹姆仕芝士排骨(地王广场店)",
          "address": "广州市越秀区较场西路18号地王广场（较场西路）（西门）1层",
          "uid": "944480bb8313ef69100daab5",
          "telephone": "(020)83717041",
          "location": {
            "lng": 113.29041298903,
            "lat": 23.132116493799
          }
        },
        {
          "name": "Ebase(地王广场店)",
          "address": "较场西路18号地王广场B1楼(近中华广场)",
          "uid": "096b13d26985260dc8213d9f",
          "location": {
            "lng": 113.28989269048,
            "lat": 23.132080352089
          }
        },
        {
          "name": "正新鸡排(挂绿地王广场店)",
          "address": "增城市荔城街挂绿路6号地王广场门口(真功夫对面)",
          "uid": "a89529896ff8b1163362122e",
          "telephone": "15267152851",
          "location": {
            "lng": 113.83956403524,
            "lat": 23.295277025734
          }
        },
        {
          "name": "捷讯数码(地王广场店)",
          "address": "新塘镇解放北路地王广场二楼",
          "uid": "5f0876e17308c8cabb17e732",
          "telephone": "13530447555,13530486768",
          "location": {
            "lng": 113.62108903868,
            "lat": 23.12286397778
          }
        },
        {
          "name": "安第斯咖啡(地王广场店)",
          "address": "越秀区较场西路26号地王广场B1楼1013铺(地王KFC、满记甜品对面)",
          "uid": "c7a562273f8df31043024590",
          "location": {
            "lng": 113.28989664303,
            "lat": 23.132077361051
          }
        },
        {
          "name": "匹克(地王广场)",
          "address": "广州市增城市解放北路115号地王广场1层",
          "uid": "39c507cf44d491a01b94c6bb",
          "location": {
            "lng": 113.62105840646,
            "lat": 23.122788116429
          }
        },
        {
          "name": "仙踪林(地王广场店)",
          "address": "广州市越秀区中山三路地王广场负三层2006-3070-3071号铺",
          "uid": "beabdbf481d2b1817169d3bc",
          "telephone": "020-83739256",
          "location": {
            "lng": 113.28989664303,
            "lat": 23.132071295889
          }
        },
        {
          "name": "ING(地王广场店)",
          "address": "广州市越秀区较场西路18号地王广场（较场西路）（西门）B3层",
          "uid": "bc1da779a81e80cd4302450f",
          "telephone": "18820412012,18502080140",
          "location": {
            "lng": 113.28989295997,
            "lat": 23.132079936667
          }
        },
        {
          "name": "MG(地王广场店)",
          "address": "广州市越秀区较场西路18号地王广场（较场西路）（西门）B2层",
          "uid": "3ff9aed4466ab44972455bcc",
          "location": {
            "lng": 113.28989295997,
            "lat": 23.132079936667
          }
        },
        {
          "name": "咕噜咕噜(地王广场店)",
          "address": "广州市越秀区较场西路18号地王广场（较场西路）（西门）B1层",
          "uid": "2edc1305ff36e84fc7f02527",
          "telephone": "(020)23358363",
          "location": {
            "lng": 113.28989269048,
            "lat": 23.132080352089
          }
        },
        {
          "name": "Lala(地王广场店)",
          "address": "较场西路26号地王广场B2楼",
          "uid": "f3aac3d4ba1f838d58f6be6d",
          "location": {
            "lng": 113.28989269048,
            "lat": 23.132090322217
          }
        },
        {
          "name": "贡茶(地王广场店)",
          "address": "较场西路26号地王广场负二层2678商铺",
          "uid": "17a9e02750e9d28cd92f28a1",
          "telephone": "18520746862",
          "location": {
            "lng": 113.28897731717,
            "lat": 23.131215856081
          }
        },
        {
          "name": "幻想曲地王广场店",
          "address": "较场西路18号地王广场B3楼3008铺(近中华广场)",
          "uid": "693c55def42775949900507f",
          "telephone": "(020)83738117",
          "location": {
            "lng": 113.29007378887,
            "lat": 23.1319596304
          }
        },
        {
          "name": "WOWWOO熊港式小食(地王广场店)",
          "address": "较场西路26号地王广场负二层（弹丸滋地对面）(中华广场)",
          "uid": "1cdb03a2d0453d98f503b89f",
          "telephone": "(020)83733155",
          "location": {
            "lng": 113.28988694133,
            "lat": 23.132068221766
          }
        },
        {
          "name": "阿泽西韩式紫菜包饭屋(地王广场店)",
          "address": "中山三路地王广场负三层",
          "uid": "620278eeed26d8710869d972",
          "telephone": "13143796478",
          "location": {
            "lng": 113.28990167354,
            "lat": 23.132048281507
          }
        },
        {
          "name": "爱朵儿童主题乐园(地王广场店)",
          "address": "增城区解放北路地王广场2楼(傣妹火锅旁边)",
          "uid": "d07e3a403f92c238c17da278",
          "telephone": "15920173051",
          "location": {
            "lng": 113.62107331833,
            "lat": 23.122871289715
          }
        },
        {
          "name": "膜法世家体验店(地王广场店)",
          "address": "较场西路18号地王广场负一层1070铺(地铁烈士陵园站A出口)",
          "uid": "e8ed89d5573dcfbcc72ba1fd",
          "telephone": "(020)83733070",
          "location": {
            "lng": 113.28989664303,
            "lat": 23.132078358064
          }
        },
        {
          "name": "春之花(地王广场店)",
          "address": "广州市越秀区较场西路18号地王广场B3楼(近中华广场)",
          "uid": "bff8fa7d926e7eb9c8213d76",
          "telephone": "(020)83742468",
          "location": {
            "lng": 113.28984319385,
            "lat": 23.1301104894
          }
        },
        {
          "name": "屈臣氏(地王广场店)",
          "address": "广州市越秀区较场西路18号地王广场（较场西路）（西门）B2层",
          "uid": "e56bf5e3130370440782c237",
          "telephone": "4008301310",
          "location": {
            "lng": 113.2893723021,
            "lat": 23.13208791277
          }
        },
        {
          "name": "iPStore(地王广场店)",
          "address": "越秀区较场西路26号地王广场B3楼3813铺",
          "uid": "d4ed9f4145024359e5073844",
          "location": {
            "lng": 113.2898480447,
            "lat": 23.132083924719
          }
        },
        {
          "name": "迅驰通信地王广场店",
          "address": "广州市越秀区较场西路18号地王广场（较场西路）（西门）B2层",
          "uid": "7ca2fae5ad46024430169b61",
          "telephone": "(020)83739588,(020)83765866",
          "location": {
            "lng": 113.28989269048,
            "lat": 23.132079355077
          }
        },
        {
          "name": "橘菓子(地王广场店)",
          "address": "广州市越秀区较场西路18号地王广场（较场西路）（西门）B1层",
          "uid": "0ce65c2ddfd5e9402d473330",
          "telephone": "(020)28947149",
          "location": {
            "lng": 113.28989269048,
            "lat": 23.132080352089
          }
        },
        {
          "name": "玉子烧(地王广场店)",
          "address": "广州市越秀区较场西路18号地王广场（较场西路）（西门）B1层",
          "uid": "13f4c6575f010a05047ce834",
          "telephone": "13570935080",
          "location": {
            "lng": 113.28989269048,
            "lat": 23.132079355077
          }
        },
        {
          "name": "茵佳妮(地王广场店)",
          "address": "较场西路18号地王广场",
          "uid": "6e0222fb897a74581df74d6c",
          "location": {
            "lng": 113.28989044472,
            "lat": 23.132078524233
          }
        },
        {
          "name": "原色通讯(地王广场一店)",
          "address": "较场西路18号地王广场B1楼L110铺(近中华广场)",
          "uid": "444185e1c9d2796b43e1927f",
          "location": {
            "lng": 113.28986286674,
            "lat": 23.131310489797
          }
        },
        {
          "name": "六町目(地王广场店)",
          "address": "广州市越秀区较场西路18号地王广场（较场西路）（西门）B2层",
          "uid": "810020ea5b4ac39522026224",
          "telephone": "18819393588",
          "location": {
            "lng": 113.28989269048,
            "lat": 23.132079355077
          }
        },
        {
          "name": "大芒仁(地王广场店)",
          "address": "广州市越秀区较场西路18号地王广场(较场西路)(西门)B2层",
          "uid": "66c0d1c2c4f5b3fe3417dc9d",
          "telephone": "15089897653",
          "location": {
            "lng": 113.28988667183,
            "lat": 23.132080185921
          }
        },
        {
          "name": "赛百味(地王广场店)",
          "address": "广州市越秀区较场西路18号地王广场（较场西路）（西门）B1层",
          "uid": "d0b8923fce3b4afbb4f42fbd",
          "telephone": "(020)83883303",
          "location": {
            "lng": 113.28991766337,
            "lat": 23.132037231278
          }
        },
        {
          "name": "卡啡客(地王广场店)",
          "address": "广东省广州市越秀区较场西路26号地王广场b1层",
          "uid": "3dc9befd1d6be20fbea240c2",
          "location": {
            "lng": 113.28989260065,
            "lat": 23.132080269005
          }
        },
        {
          "name": "Chapel(地王广场店)",
          "address": "较场东路26号地王广场B3818铺(近中华广场)",
          "uid": "56e88cba8c9a027ca5c7568d",
          "telephone": "(020)83739470",
          "location": {
            "lng": 113.28984256503,
            "lat": 23.132150392221
          }
        },
        {
          "name": "贝妮兔(地王广场店)",
          "address": "较场西路18号地王广场附2楼2377室铺(中华广场旁)",
          "uid": "43b7e8896322b77358f6be56",
          "location": {
            "lng": 113.29002276512,
            "lat": 23.131989873146
          }
        },
        {
          "name": "bacodes(地王广场店)",
          "address": "广州市越秀区较场西路18号地王广场（较场西路）（西门）B1层",
          "uid": "a0dc17e7dd082e5fabf72975",
          "telephone": "(020)83641001",
          "location": {
            "lng": 113.28989295997,
            "lat": 23.132079936667
          }
        },
        {
          "name": "寿司大（地王广场店）",
          "address": "较场东路26号地王广场负一层1071铺(地铁烈士陵园A出口直行10米下电梯即到)",
          "uid": "8d65c5cadabcde12deee8bac",
          "telephone": "(020)83706130",
          "location": {
            "lng": 113.28989763116,
            "lat": 23.132070298877
          }
        },
        {
          "name": "新百伦(地王广场店)",
          "address": "较场西路26号地王广场B2楼",
          "uid": "c820a38a564ae4be932ca3c8",
          "location": {
            "lng": 113.28989700235,
            "lat": 23.132078025726
          }
        },
        {
          "name": "澳门街(地王广场店)",
          "address": "较场西路26号地王广场负一层1001铺",
          "uid": "9e0aabef91ce477a210220eb",
          "telephone": "(020)83707095",
          "location": {
            "lng": 113.28285401766,
            "lat": 23.12695203446
          }
        },
        {
          "name": "韩流磨坊(地王广场一店)",
          "address": "较场西路26号地王广场B3楼2298铺(近中华广场)",
          "uid": "4e24c29b0c754a3f16764320",
          "location": {
            "lng": 113.29007280074,
            "lat": 23.131889756337
          }
        },
        {
          "name": "J\u0026M快乐玛丽(地王广场店)",
          "address": "较场西路26号地王广场B2楼",
          "uid": "b5a974185d27d134c8213df2",
          "location": {
            "lng": 113.28989269048,
            "lat": 23.132090322217
          }
        },
        {
          "name": "Pink Mama(地王广场店)",
          "address": "较场西路18号地王广场1楼1026铺",
          "uid": "404ab3ea2c232205b34c49bf",
          "location": {
            "lng": 113.28989664303,
            "lat": 23.132078274979
          }
        },
        {
          "name": "潮流指标(地王广场店)",
          "address": "广州市越秀区较场西路18号地王广场（较场西路）（西门）B2层",
          "uid": "6113ef772bdbeb0d8e772724",
          "location": {
            "lng": 113.28989601421,
            "lat": 23.132071046636
          }
        }
      ]
    },
    "destination": {
      "cityName": "广州市",
      "listType": 0,
      "content": [
        {
          "name": "椰城苑",
          "address": "广州市海珠区江湾路20~108号",
          "uid": "d2b5c59d8a9edf839ee321d8",
          "location": {
            "lng": 113.2840514589,
            "lat": 23.116225239107
          }
        }
      ]
    }
  }
}