{
  "status": 0,
  "message": "ok",
  "type": 1,
  "info": {
    "copyright": {
      "text": "@2016 Baidu - Data",
      "imageUrl": "http://api.map.baidu.com/images/copyright_logo.png"
    }
  },
  "result": {
    "originInfo": {
      "area_id": 257,
      "wd": "武林厨神",
      "uid": ""
    },
    "destinationInfo": {
      "area_id": 257,
      "wd": "越秀北路245-245之1号宿舍",
      "uid": ""
    },
    "origin": {
      "cityName": "广州市",
      "listType": 0,
      "content": [
        {
          "name": "武林厨神",
          "address": "中山四路156号2楼",
          "uid": "bc63e4ec4472b163c61b750e",
          "telephone": "15011806381",
          "location": {
            "lng": 113.28045796737,
            "lat": 23.133003915072
          }
        },
        {
          "name": "武林厨神(体育西路店)",
          "address": "广州市天河区体育西路77号(天河城西门正对面)",
          "uid": "844a750e0c417fa063685897",
          "location": {
            "lng": 113.32777908467,
            "lat": 23.13791698586
          }
        },
        {
          "name": "武林厨神(五羊店)",
          "address": "广州越秀区寺右新马路41号佰盈商业城2楼(近地铁五羊邨站D出口)",
          "uid": "65c75f55fcd7e1008b2fb51d",
          "telephone": "18819388990",
          "location": {
            "lng": 113.31622723514,
            "lat": 23.125883024914
          }
        },
        {
          "name": "武林厨神(捷登店)",
          "address": "中山五路70号捷登都会4楼",
          "uid": "f5b872bf9c1086a284154170",
          "telephone": "15112146486",
          "location": {
            "lng": 113.27222400924,
            "lat": 23.132037979038
          }
        },
        {
          "name": "武林厨神(上下九店)",
          "address": "上九路85号二楼",
          "uid": "4c21ace9f834bb454251c037",
          "telephone": "15817162488",
          "location": {
            "lng": 113.25803689067,
            "lat": 23.121893730264
          }
        },
        {
          "name": "武林厨神",
          "address": "广州市增城市",
          "uid": "3d6cb2592a39b281fa42b22a",
          "location": {
            "lng": 113.8302500444,
            "lat": 23.300771053456
          }
        },
        {
          "name": "武林厨神(永和店)",
          "address": "增城新塘新新大道岗丰综合市场1楼",
          "uid": "4712a35b656665cfc9e33cfe",
          "telephone": "(020)38555533",
          "location": {
            "lng": 113.60520097862,
            "lat": 23.160131994485
          }
        },
        {
          "name": "武林厨神(中新店)",
          "address": "中新镇景新国际101至108首层",
          "uid": "c40ad64ea3f458b28f1a89aa",
          "telephone": "13631345868",
          "location": {
            "lng": 113.63495600117,
            "lat": 23.286820990902
          }
        },
        {
          "name": "武林厨神(沙埔店)",
          "address": "新塘镇荔新公路13路6号（新誉南路与沙宁路交叉路口）",
          "uid": "882626b17678a7a03b221c05",
          "telephone": "15102034183",
          "location": {
            "lng": 113.66542796134,
            "lat": 23.177153034866
          }
        },
        {
          "name": "武林厨神(心心广场店)",
          "address": "宝华路36号心心广场一楼",
          "uid": "54b7f41798bb10c3d1f49ee9",
          "telephone": "18820054868",
          "location": {
            "lng": 113.22145600387,
            "lat": 23.394829989844
          }
        },
        {
          "name": "武林厨神(光明店)",
          "address": "增城区荔城光明路西路1号富盈酒店一楼(光明西路富盈酒店)",
          "uid": "f2b666608a07eb57f90cad90",
          "telephone": "15920850168",
          "location": {
            "lng": 113.84027181015,
            "lat": 23.291859126683
          }
        },
        {
          "name": "武林厨神(马鞍山店)",
          "address": "广州花都区新华马鞍山中心市场2楼",
          "uid": "332be20cf3422480cae33c7c",
          "telephone": "13711490923",
          "location": {
            "lng": 113.23781360822,
            "lat": 23.401066668549
          }
        },
        {
          "name": "武林厨神(百花广场店)",
          "address": "天贵路46号百花汇广场一楼",
          "uid": "127b5b4e6b0ed66d08ccdd2b",
          "telephone": "13580343203",
          "location": {
            "lng": 113.22964001622,
            "lat": 23.385478975673
          }
        },
        {
          "name": "武林厨神(佰乐广场店)",
          "address": "荔城街富安路佰乐广场首层A10-13（新园路33号）",
          "uid": "491c84997453e4462fb96d14",
          "telephone": "15899953330",
          "location": {
            "lng": 113.82922903035,
            "lat": 23.306611935146
          }
        },
        {
          "name": "武林厨神(增城沙园路店)",
          "address": "广州市增城区荔城镇沙园路12号(近林业局)",
          "uid": "1064bc27c4a15cdb88b98809",
          "telephone": "15728206688",
          "location": {
            "lng": 113.83793100566,
            "lat": 23.299748839299
          }
        },
        {
          "name": "武林厨神(增城东汇城店)",
          "address": "广州市增城区荔城镇荔城街府佑路98号东汇城广场1楼(近增城广场)",
          "uid": "094b53e5650651a431f71dd4",
          "telephone": "18819388996",
          "location": {
            "lng": 113.82621036452,
            "lat": 23.289140378022
          }
        },
        {
          "name": "武林厨神(花都区站前路店)",
          "address": "近郊花都区站前路34号牡丹大酒店2楼(近中华酒店)",
          "uid": "7fea8ce73172876bc8213de2",
          "location": {
            "lng": 113.20986247296,
            "lat": 23.389629711309
          }
        }
      ]
    },
    "destination": {
      "cityName": "越秀区",
      "listType": 0,
      "content": [
        {
          "name": "越秀北路245-245之1号宿舍",
          "address": "越秀北路245号之1",
          "uid": "36c4b9ba808584c3c61e5101",
          "location": {
            "lng": 113.28051779452,
            "lat": 23.140736799375
          }
        }
      ]
    }
  }
}