{
  "status": 0,
  "message": "ok",
  "type": 1,
  "info": {
    "copyright": {
      "text": "@2016 Baidu - Data",
      "imageUrl": "http://api.map.baidu.com/images/copyright_logo.png"
    }
  },
  "result": {
    "originInfo": {
      "area_id": 257,
      "wd": "维多利亚广场",
      "uid": ""
    },
    "destinationInfo": {
      "area_id": 257,
      "wd": "江湾花苑(东1门)",
      "uid": ""
    },
    "origin": {
      "cityName": "广州市",
      "listType": 0,
      "content": [
        {
          "name": "维多利亚广场",
          "address": "天河区体育西路101号（103、103-1号）",
          "uid": "2c0bd6c579c7d7b342ab9aa6",
          "telephone": "(020)38791889",
          "location": {
            "lng": 113.32736029465,
            "lat": 23.140608276137
          }
        },
        {
          "name": "维多利亚广场",
          "address": "大涌路177附近",
          "uid": "5956aadd42b0e745b0077d8b",
          "location": {
            "lng": 113.33496238468,
            "lat": 23.029967685496
          }
        },
        {
          "name": "斯欧·美业(体育西维多利亚广场店)",
          "address": "体育西路101号维多利亚广场",
          "uid": "e14dbfb7b312ae25a8059ded",
          "location": {
            "lng": 113.3270614284,
            "lat": 23.140780831225
          }
        },
        {
          "name": "维多利亚广场",
          "address": "广东省广州市白云区",
          "uid": "c145f22591ce604d8936ee8a",
          "location": {
            "lng": 113.26372262556,
            "lat": 23.20288937725
          }
        },
        {
          "name": "维多利亚",
          "address": "江南大道中73号好百年婚纱广场2楼C97室",
          "uid": "f9928c5fc3209af99c09f7c5",
          "location": {
            "lng": 113.2777861373,
            "lat": 23.112816250351
          }
        },
        {
          "name": "魔幻厨房厨艺工作室",
          "address": "广利路77号东洲大厦B座2503室房(近维多利亚广场)",
          "uid": "ba8758517b343ed11e3894aa",
          "telephone": "(020)38456691,15920303348",
          "location": {
            "lng": 113.327139042,
            "lat": 23.136702007503
          }
        },
        {
          "name": "几米几何",
          "address": "广州天河区体育西路直通车商业广场1A012铺(近维多利亚广场)",
          "uid": "5211d21952e471417dc876c2",
          "telephone": "(020)38366001",
          "location": {
            "lng": 113.32769814735,
            "lat": 23.139809302443
          }
        },
        {
          "name": "全国~美发连锁(维多利亚广场店)",
          "address": "体育西路101号维多利亚广场",
          "uid": "41d0b6447caf90a8b04c4957",
          "telephone": "13694290379",
          "location": {
            "lng": 113.32756600661,
            "lat": 23.140957041557
          }
        },
        {
          "name": "一号快餐(维多利亚店)",
          "address": "广东省广州市天河区维多利亚广场B1楼",
          "uid": "8f87c85818e2a5450aa8d483",
          "telephone": "18825143234",
          "location": {
            "lng": 113.32733837599,
            "lat": 23.140863577831
          }
        },
        {
          "name": "AS西服定制(维多利亚店)",
          "address": "体育西路维多利亚广场a座1103a室",
          "uid": "878ea0b2e375c38cf4b9165b",
          "telephone": "15088084375,(020)87571183",
          "location": {
            "lng": 113.32760400493,
            "lat": 23.140927050093
          }
        },
        {
          "name": "万卓家族财富管理(深圳)有限公司",
          "address": "体育西路103号维多利亚广场A塔36层01单元",
          "uid": "53523303aa1c4c808adb7337",
          "telephone": "(020)87576035",
          "location": {
            "lng": 113.32743700994,
            "lat": 23.140839983423
          }
        },
        {
          "name": "100留学",
          "address": "天河区体育西路103号维多利亚广场B座25楼",
          "uid": "ebcd3e668e1b0387c909f0e4",
          "telephone": "4008886643",
          "location": {
            "lng": 113.32689596053,
            "lat": 23.140969004909
          }
        },
        {
          "name": "公司广州雄发金融投资有限",
          "address": "广州天河区体育西路101号维多利亚广场1801-1806室",
          "uid": "9d632d0bb26a922f740269d3",
          "location": {
            "lng": 113.32774252364,
            "lat": 23.140902624907
          }
        },
        {
          "name": "崇涛美容美发中心",
          "address": "天河区体育西路133号天河大厦南楼1楼(近维多利亚广场)",
          "uid": "231169138e8797e4734b8714",
          "telephone": "(020)38816992",
          "location": {
            "lng": 113.32787870675,
            "lat": 23.143034827005
          }
        },
        {
          "name": "弹丸滋地(爱淘站店)",
          "address": "体育西路直通车爱淘站美食广场026档(靠近维多利亚广场)",
          "uid": "29d17a8ce907143643ab9a87",
          "telephone": "15999952083",
          "location": {
            "lng": 113.32771898804,
            "lat": 23.138417878715
          }
        },
        {
          "name": "养生天河按摩",
          "address": "天河区体育西路133号天河大厦2209室（近维多利亚广场）",
          "uid": "c7ddb2bda69792206cc02cc6",
          "telephone": "(020)83494542",
          "location": {
            "lng": 113.32782085588,
            "lat": 23.143846741272
          }
        },
        {
          "name": "美联英语（维多利中心）",
          "address": "体育西路101号维多利亚广场5楼(近地铁E出口)",
          "uid": "2a1c7b344b521f31e115f980",
          "telephone": "4007001003",
          "location": {
            "lng": 113.32697222667,
            "lat": 23.140778172698
          }
        },
        {
          "name": "马来西亚猫山王果条雪批",
          "address": "广东省广州市番禺区维多利亚广场2楼中庭",
          "uid": "5fe0c6118472c63e85420ef0",
          "location": {
            "lng": 113.33496238468,
            "lat": 23.029967685496
          }
        },
        {
          "name": "V-WET",
          "address": "广州天河区体育西路133号天河大厦2楼(近维多利亚广场)",
          "uid": "7bfa08fc2c653b6625d2bb02",
          "location": {
            "lng": 113.32782085588,
            "lat": 23.143846741272
          }
        },
        {
          "name": "转身甜蜜（时尚天河店）",
          "address": "天河区体育中心时尚天河城东二街089号(近万菱汇,太古汇,维多利亚广场、体育中心D3出口)",
          "uid": "166c14de1ac9bed53a04b18e",
          "telephone": "18927581856",
          "location": {
            "lng": 113.33228920715,
            "lat": 23.140155162188
          }
        },
        {
          "name": "中心崇涛美发",
          "address": "天河区体育西路133号天河大厦南楼1楼(近维多利亚广场)",
          "uid": "23c4b3f4f11a20af85420e33",
          "telephone": "13556115760",
          "location": {
            "lng": 113.32764299139,
            "lat": 23.14417697204
          }
        },
        {
          "name": "件行日兴汽车配",
          "address": "天河区体育西路133号天河大厦5502铺(近维多利亚广场)",
          "uid": "2b55486b8c6f3d0f40ab9a79",
          "telephone": "(020)38860290",
          "location": {
            "lng": 113.3277006626,
            "lat": 23.144348525562
          }
        },
        {
          "name": "瑞联知识产权有限公司",
          "address": "维多利亚广场办公楼5层",
          "uid": "7ba5e69551e3c516f82213dc",
          "location": {
            "lng": 113.32742856586,
            "lat": 23.140727328371
          }
        },
        {
          "name": "饼屋侧田家面包西(天河大厦店)",
          "address": "广州天河区体育西路133号天河大厦南楼1楼3106室(近维多利亚广场)",
          "uid": "0256edd61b83e7a8306212cf",
          "telephone": "(020)38864682",
          "location": {
            "lng": 113.32772851007,
            "lat": 23.143204969688
          }
        },
        {
          "name": "邦品商标申请",
          "address": "体育西路103号维多利亚广场B座26楼",
          "uid": "4d03b009d8d9b19926d2bb12",
          "telephone": "13535032503",
          "location": {
            "lng": 113.32736002515,
            "lat": 23.140603956026
          }
        },
        {
          "name": "助听器专卖店",
          "address": "广东省广州市天河区体育西路133号天河大厦写字楼408室(近维多利亚广场)",
          "uid": "983690edeb9e0ce443e19290",
          "telephone": "(020)83602699",
          "location": {
            "lng": 113.32800267292,
            "lat": 23.146564329096
          }
        },
        {
          "name": "亿博教育Ebo Education",
          "address": "体育西路105-3号天文苑B2栋507间(维多利亚广场VT101后，盛雅公寓旁)",
          "uid": "f2ca36bcb732d851940319b8",
          "telephone": "13247376910,(020)38847126",
          "location": {
            "lng": 113.32714595895,
            "lat": 23.141721032348
          }
        },
        {
          "name": "全球独家-人气发型师联盟推荐",
          "address": "体育西路维多利亚广场盛雅商务中心A栋501",
          "uid": "8a6b5b41f52d2760a2d23075",
          "telephone": "15814832244",
          "location": {
            "lng": 113.32703456907,
            "lat": 23.141462326085
          }
        },
        {
          "name": "美丝灵造型天河体育店(体育西路店)",
          "address": "体育西路地铁E出口维多利亚广场盛雅公寓A1栋507",
          "uid": "cebc7d719cd23d93deee8b12",
          "location": {
            "lng": 113.32715790641,
            "lat": 23.141338455953
          }
        },
        {
          "name": "富力盈泰广场餐厅",
          "address": "黄埔大道西100号富力盈泰广场B1层·(维多利亚酒店，奥园大厦)",
          "uid": "5d14e4e44d456c7315a190e9",
          "telephone": "18928811280",
          "location": {
            "lng": 113.34103735535,
            "lat": 23.131470095761
          }
        },
        {
          "name": "佬湘楼维多利广场分店",
          "address": "广州市天河区天河路228号维多利亚6楼",
          "uid": "cd9d05dd69160caf84420eb3",
          "telephone": "(020)38785450",
          "location": {
            "lng": 113.32688589951,
            "lat": 23.140858510018
          }
        },
        {
          "name": "维多利亚时尚茶饮",
          "address": "金沙路今洲广场信和超市门口广场商铺",
          "uid": "3aaab9f07763abe47ec87679",
          "telephone": "13925076851",
          "location": {
            "lng": 113.55265172325,
            "lat": 22.807429162156
          }
        },
        {
          "name": "唯秀眼镜（维多利亚店）",
          "address": "体育西路103号维多利广场A塔13楼1305室",
          "uid": "5b313240c0975ab3b05c6ae1",
          "telephone": "(020)38880626",
          "location": {
            "lng": 113.32757903204,
            "lat": 23.14080708417
          }
        },
        {
          "name": "维多利亚的秘密",
          "address": "天河路218号天环广场B170号铺",
          "uid": "e2a27a800a41ef677c29bd36",
          "location": {
            "lng": 113.33079775051,
            "lat": 23.138164981647
          }
        },
        {
          "name": "伤心酸辣粉（体育西维多利亚店）",
          "address": "体育西路101号维多利广场5楼(近体育西站E出口)",
          "uid": "edc38e75ce266b823a04b1ea",
          "telephone": "(020)38791088",
          "location": {
            "lng": 113.32736945736,
            "lat": 23.140967260253
          }
        },
        {
          "name": "诺亚视光(维多利亚店)",
          "address": "体育西路103号维多利广场A塔901室周日及每晚8点后请先到一楼大堂登记(到店指引详见官方相册)",
          "uid": "12ea5b71a9c5db8aacee7a02",
          "telephone": "(020)87085864",
          "location": {
            "lng": 113.32777001179,
            "lat": 23.140804010249
          }
        },
        {
          "name": "侨美无国界(维多利亚店)",
          "address": "体育西路101号维多利广场六楼603号铺",
          "uid": "9f97b1c59fcfc71fb74f5490",
          "telephone": "(020)38791687,(020)38792187",
          "location": {
            "lng": 113.32757498966,
            "lat": 23.140595149645
          }
        },
        {
          "name": "樱花国际日语(维多利亚中心店)",
          "address": "体育西路101号维多利广场302室（近购书中心）",
          "uid": "b7170a29132576ee8bb9883d",
          "telephone": "(020)38267626,(020)38297626",
          "location": {
            "lng": 113.32714775556,
            "lat": 23.140755575222
          }
        }
      ]
    },
    "destination": {
      "cityName": "广州市",
      "listType": 0,
      "content": [
        {
          "name": "江湾花苑(东1门)",
          "address": "江湾东街165-179号江湾花苑",
          "uid": "c1af8fa549548af9cafa5f8e",
          "location": {
            "lng": 113.28524584591,
            "lat": 23.114288462282
          }
        }
      ]
    }
  }
}