{
  "status": 0,
  "message": "ok",
  "type": 1,
  "info": {
    "copyright": {
      "text": "@2016 Baidu - Data",
      "imageUrl": "http://api.map.baidu.com/images/copyright_logo.png"
    }
  },
  "result": {
    "originInfo": {
      "area_id": 257,
      "wd": "南田路慎和大街(路口)",
      "uid": ""
    },
    "destinationInfo": {
      "area_id": 257,
      "wd": "正佳环市中心",
      "uid": ""
    },
    "origin": {
      "cityName": "广州市",
      "listType": 0,
      "content": [
        {
          "name": "南田路/慎和大街(路口)",
          "address": "广东省广州市海珠区",
          "uid": "c1653405185b3e78ab175ad7",
          "location": {
            "lng": 113.27479918165,
            "lat": 23.106081360173
          }
        }
      ]
    },
    "destination": {
      "cityName": "广州市",
      "listType": 0,
      "content": [
        {
          "name": "正佳环市中心",
          "address": "环市东路370-372号,环市东路与淘金路交汇处花园酒店东侧",
          "uid": "6ec5c2087cdd14e49b68b4a5",
          "location": {
            "lng": 113.29418515353,
            "lat": 23.142062317807
          }
        },
        {
          "name": "广州正佳环市中心维福顿公寓(原正佳东方国际公寓)",
          "address": "越秀区环市东路370-372号正佳环市中心首层(一楼大堂前台)地铁5号线淘金站A出口2分钟",
          "uid": "27633f0ad665b80f4afd3fde",
          "telephone": "(020)83515855",
          "location": {
            "lng": 113.29434271631,
            "lat": 23.142002086138
          }
        },
        {
          "name": "广州爱格公寓正佳环市中心店",
          "address": "广州越秀区环市东路372号正佳环市中心",
          "uid": "34d42212ff0886eea104642c",
          "telephone": "13318765790",
          "location": {
            "lng": 113.29408903484,
            "lat": 23.142105933826
          }
        },
        {
          "name": "正佳·环市中心(东北门)",
          "address": "环市东路与邮电新村西六街交叉口西50米",
          "uid": "7bffdbcd2479d3094251c0dd",
          "location": {
            "lng": 113.29420051455,
            "lat": 23.14201521249
          }
        },
        {
          "name": "正佳·环市中心-正门",
          "address": "广州市越秀区",
          "uid": "40763b894403ab02f72310ca",
          "location": {
            "lng": 113.2942806434,
            "lat": 23.142014630943
          }
        },
        {
          "name": "正佳·环市中心-北门",
          "address": "环市东路370号",
          "uid": "e579cfc9a7dd046979f796a9",
          "location": {
            "lng": 113.29434774683,
            "lat": 23.141995190649
          }
        },
        {
          "name": "美昌眼镜(正佳环市中心店)",
          "address": "环市东路374号三茂大酒店1楼102房(地铁淘金站A出口即正佳环市中心后面)工商银行或大西豪旁进就是三茂大酒店(近地铁淘金站A出口)",
          "uid": "df13e4c722a1b7249d9d68bd",
          "telephone": "(020)83888439",
          "location": {
            "lng": 113.29448770282,
            "lat": 23.14118509277
          }
        },
        {
          "name": "佑米造型(淘金正佳环市中心店)",
          "address": "环市东路370-372号正佳环市中心广场21楼2126号房（地铁5线淘金站A出口直走10米左右）",
          "uid": "691c03a49b6912a5aeb22a05",
          "telephone": "13611470021",
          "location": {
            "lng": 113.29418757895,
            "lat": 23.142057333118
          }
        },
        {
          "name": "Hair Project 发型?形象设计会所(正佳环市中心店)",
          "address": "环市东路370-372号正佳环市中心36楼3618室(花园酒店旁)",
          "uid": "97e56f2df09667b0ebe582b5",
          "telephone": "18688441443,13922151217",
          "location": {
            "lng": 113.29420051455,
            "lat": 23.14201612635
          }
        },
        {
          "name": "瑞豪专业烫染连锁(正佳环市中心店)",
          "address": "环市东路370-372号正佳环市中心花园酒店隔壁21楼右转(正佳广场)",
          "uid": "e6eda6acf3e488da0f0e6b2f",
          "telephone": "13535135294",
          "location": {
            "lng": 113.29261527482,
            "lat": 23.141358228658
          }
        },
        {
          "name": "优优国际公寓(广州正佳环市中心店)",
          "address": "环市东路372号正佳东方广场1509室",
          "uid": "84dd46372826c0df077ce8ed",
          "telephone": "(020)83515438",
          "location": {
            "lng": 113.29412137384,
            "lat": 23.141795719771
          }
        },
        {
          "name": "88烫染吧美发连锁(正佳环市中心店)",
          "address": "环市东路372号正佳环市中心22楼2207室(地铁5号线淘金站A出口出来25米，广州花园酒店隔壁)",
          "uid": "131c03e9ed783f839ee32199",
          "telephone": "13600094496,13826179771",
          "location": {
            "lng": 113.29419099251,
            "lat": 23.142057000806
          }
        },
        {
          "name": "私享家连锁酒店公寓(广州正佳环市中心店)",
          "address": "环市东路与淘金路交汇处370-372号（正佳·环市中心--地铁5号线淘金站A出口）",
          "uid": "d3d07cda9f39514b2bb97cec",
          "telephone": "(020)62922009",
          "location": {
            "lng": 113.29415398233,
            "lat": 23.14191003548
          }
        },
        {
          "name": "广州旺豪连锁酒店公寓（正佳环市中心分店）",
          "address": "环市路370-372号正佳东方国际广场2320房（地铁5号线淘金站A出口",
          "uid": "c716df96219226339a005034",
          "telephone": "020-83515855",
          "location": {
            "lng": 113.29415703657,
            "lat": 23.142048028365
          }
        },
        {
          "name": "Hair Project 发型??形象设计会所(正佳环市中心店)",
          "address": "环市东路370-372号正佳环市中心36楼3618室(花园酒店旁)",
          "uid": "e4b2ebc10423d088246e9864",
          "telephone": "18688441443,13922151217",
          "location": {
            "lng": 113.29419602302,
            "lat": 23.142057997743
          }
        },
        {
          "name": "广州朋满公寓式酒店正佳环市中心店",
          "address": "广州市越秀区环市东路372号正佳环市中心2108室（淘金地铁站A出口）",
          "uid": "d77ae58a694f18e6d22dd6cd",
          "telephone": "(020)83513166",
          "location": {
            "lng": 113.29443281636,
            "lat": 23.141721530818
          }
        },
        {
          "name": "私享家(广州正佳环市中心店)",
          "address": "环市东路370-372号",
          "uid": "a39ef5967b3c7fd726e0a0b2",
          "location": {
            "lng": 113.29366000413,
            "lat": 23.142876979594
          }
        },
        {
          "name": "广州维福顿公寓(正佳环市中心店)",
          "address": "广东省广州市越秀区环市东路370号",
          "uid": "93f7d0eea3bc402b8605bfe8",
          "telephone": "(020)83515855",
          "location": {
            "lng": 113.29414598741,
            "lat": 23.142000009184
          }
        },
        {
          "name": "南极大冒险",
          "address": "环市东路372号正佳环市中心3楼（花园酒店旁）",
          "uid": "ccfdcb47fd1b55c66b49f336",
          "location": {
            "lng": 113.29418802811,
            "lat": 23.142057997743
          }
        },
        {
          "name": "花倾城鲜花(淘金路店)",
          "address": "淘金路与环市东路交汇东南角正佳环市中心一楼",
          "uid": "2460e97414133322b44f5460",
          "telephone": "17755018023",
          "location": {
            "lng": 113.29402498566,
            "lat": 23.141969021017
          }
        },
        {
          "name": "QUEENLASH概念空间",
          "address": "环市东路正佳环市中心41楼4110室(花园酒店旁淘金地铁站A出口)",
          "uid": "67c840b69b94d266b54f5470",
          "telephone": "13433920273",
          "location": {
            "lng": 113.29425998238,
            "lat": 23.142034985094
          }
        },
        {
          "name": "頭姿理裁H.I Salon",
          "address": "环市东路372号正佳环市中心912室(淘金地铁站A出口)",
          "uid": "cf2e73dd09501e1f1d580011",
          "telephone": "13682220290",
          "location": {
            "lng": 113.29423896203,
            "lat": 23.142057997743
          }
        },
        {
          "name": "雅居廊十字绣专卖店",
          "address": "越秀区环市东路370号正佳环市中心4楼",
          "uid": "38847aa2e7a02336badf8f44",
          "telephone": "18922193132,13928821828",
          "location": {
            "lng": 113.29418003319,
            "lat": 23.142060988557
          }
        },
        {
          "name": "艾伊诺美甲坊",
          "address": "环市东路正佳环市中心370-372号二楼233号艾伊诺美甲坊（花园酒店旁）",
          "uid": "fbd8e8029a345c182811d1cf",
          "telephone": "13560158121",
          "location": {
            "lng": 113.29434271631,
            "lat": 23.142002086138
          }
        },
        {
          "name": "广州九头鸟调查研究有限公司",
          "address": "广州市环市东路370-372号正佳环市中心大厦1312室(花园酒店旁边)",
          "uid": "85d85f511f64120ac336440b",
          "telephone": "(020)38331144",
          "location": {
            "lng": 113.29404097549,
            "lat": 23.14188203811
          }
        },
        {
          "name": "HERBBASICS",
          "address": "环市东路正佳环市中心",
          "uid": "a40ab2cbf9835cf47369d343",
          "location": {
            "lng": 113.29347621082,
            "lat": 23.140873048825
          }
        },
        {
          "name": "瑞丽美甲美睫半永久",
          "address": "华乐街59号首层(近正佳环市中心)",
          "uid": "2e4fc7eca77d0ed98533047f",
          "telephone": "15013119704,(020)83829846",
          "location": {
            "lng": 113.29411203146,
            "lat": 23.140807001091
          }
        },
        {
          "name": "广州优优壹伍玖酒店管理有限公司",
          "address": "环市东路372号(正佳环市中心1508室)",
          "uid": "0adf40242b32865ae507386c",
          "telephone": "18028682540",
          "location": {
            "lng": 113.29418856709,
            "lat": 23.142057333118
          }
        },
        {
          "name": "KSHEENY凯色丽素颜定妆(小蛮腰)",
          "address": "环市东路正佳环市中心813-1室(淘金地铁A出口)",
          "uid": "755144a939b9b354ca1b9574",
          "telephone": "13825093322",
          "location": {
            "lng": 113.2944379367,
            "lat": 23.142146559019
          }
        },
        {
          "name": "The M 狄熳半永久美睫美颜管理中心",
          "address": "环市东路372号正佳环市中心40楼4009B(花园酒店，淘金地铁站A出口)",
          "uid": "58c33ec119f22d6b61685802",
          "telephone": "13570464620,13763343553",
          "location": {
            "lng": 113.29416700776,
            "lat": 23.142142986661
          }
        },
        {
          "name": "爱伊皮肤管理中心",
          "address": "越秀区环市东路372号正佳环市中心29楼2912室(近花园酒店)",
          "uid": "0dfb9564cdbc7725ad0457c4",
          "telephone": "18620122010,(020)83513704",
          "location": {
            "lng": 113.29415748572,
            "lat": 23.141868496353
          }
        },
        {
          "name": "优格金融（总部）",
          "address": "越秀区环市东路372号正佳环市中心3313号",
          "uid": "9b05f39988dd40d75a3ac8b0",
          "telephone": "4007889955,(020)83028623",
          "location": {
            "lng": 113.29418398573,
            "lat": 23.142057997743
          }
        },
        {
          "name": "Hair Project 发型61形象设计会所",
          "address": "环市东路正佳环市中心370-372号19楼1927室，地铁淘金站5号线A出口",
          "uid": "61b5551b35e38df2ef74f84f",
          "telephone": "13750005720",
          "location": {
            "lng": 113.29434774683,
            "lat": 23.141997184525
          }
        },
        {
          "name": "LKIM形象設計",
          "address": "环市东路正佳环市中心813室(地铁淘金A出口)",
          "uid": "14f2253b33b424082a02e184",
          "telephone": "13535139782",
          "location": {
            "lng": 113.2941709603,
            "lat": 23.142065973245
          }
        },
        {
          "name": "绚诺(华乐街道店)",
          "address": "环市东路华乐街道372正佳环市中心3806号",
          "uid": "a294cad6a75b7cf15c0d0207",
          "telephone": "15801009123",
          "location": {
            "lng": 113.29412739248,
            "lat": 23.141828701857
          }
        },
        {
          "name": "Kekimatata",
          "address": "越秀区环市东路372号正佳环市中心(淘金A出口)3706室",
          "uid": "abc562bbd6fcb737d813182b",
          "telephone": "13610190563",
          "location": {
            "lng": 113.29416745691,
            "lat": 23.141878465744
          }
        },
        {
          "name": "looksee名士会男士养生馆（越秀店）",
          "address": "环市东路372号正佳环市中心40楼4009房(花园酒店淘金地铁站)",
          "uid": "cbe4d3a1fb584b669f09f72a",
          "telephone": "(020)62922029",
          "location": {
            "lng": 113.29439338075,
            "lat": 23.141764233087
          }
        },
        {
          "name": "BOB健康烫染私人定制(淘金概念店)",
          "address": "正佳环市中心36楼3612室花园酒店旁(地铁5号线A出口前方大厦)",
          "uid": "56771601d6e441995fd4fefa",
          "telephone": "13560464537",
          "location": {
            "lng": 113.29415748572,
            "lat": 23.141868496353
          }
        },
        {
          "name": "极力私人健身",
          "address": "环市东路372号正佳环市中心31楼3113房",
          "uid": "ce055d849bfd18d531f71dae",
          "telephone": "(020)83515889,13073068383",
          "location": {
            "lng": 113.29416197725,
            "lat": 23.141873979518
          }
        },
        {
          "name": "紫尚造型(淘金店)",
          "address": "环市东路370-372号正佳环市中心21楼26室（地铁5号线淘金站A出口出来直走10米左右）",
          "uid": "53e7fb2147f10e1716c90538",
          "telephone": "13169779193",
          "location": {
            "lng": 113.29434774683,
            "lat": 23.141997184525
          }
        },
        {
          "name": "雅居廊手工艺术生活馆",
          "address": "地址和名称是：环市东路370-372号正聚百货（正佳.环市中心）4楼",
          "uid": "c70fdd1bde01a11854bfff51",
          "telephone": "18922193132",
          "location": {
            "lng": 113.29418353658,
            "lat": 23.14205633618
          }
        },
        {
          "name": "欧莱雅私人定制美发连锁(广州淘金正佳店)",
          "address": "环市东路370-372号正佳环市中心23楼21室",
          "uid": "9fba5a9e82ec3baa1811d50a",
          "telephone": "13826466302",
          "location": {
            "lng": 113.36968997738,
            "lat": 22.946921979305
          }
        },
        {
          "name": "8090奶茶酷饮（环市东路店）",
          "address": "环市东路花园酒店旁正佳.环市中心首层184—185铺（地铁淘北站A出口）",
          "uid": "d0c8a216446b81e9c27da2c5",
          "telephone": "18902499281",
          "location": {
            "lng": 113.29374875671,
            "lat": 23.146501690288
          }
        },
        {
          "name": "广州诺盟酒店公寓环市东路正佳东方环市中心店店",
          "address": "环市路370-372号正佳东方国际公寓14楼1408室(地铁5号线淘金站A出口对面)",
          "uid": "bb77edcd274cdcf86fa3cc20",
          "telephone": "(020)83513510",
          "location": {
            "lng": 113.2943700248,
            "lat": 23.141765977732
          }
        },
        {
          "name": "NENJOY能匠世家",
          "address": "环市东路370号正佳东方国际环市中心首层(花园酒店旁，友谊商店对面，地铁淘金站A出口)",
          "uid": "4fa1b4633459d24953e5c5a8",
          "telephone": "13822158679",
          "location": {
            "lng": 113.29434271631,
            "lat": 23.142002086138
          }
        },
        {
          "name": "广州迈哈顿国际公寓正佳东方分店",
          "address": "广州越秀区环市东路372号，环市中心3208室",
          "uid": "b430bb79530d2fd1f90cadeb",
          "telephone": "13807223303",
          "location": {
            "lng": 113.29402902803,
            "lat": 23.142053013054
          }
        }
      ]
    }
  }
}