{
  "status": 0,
  "message": "ok",
  "type": 1,
  "info": {
    "copyright": {
      "text": "@2016 Baidu - Data",
      "imageUrl": "http://api.map.baidu.com/images/copyright_logo.png"
    }
  },
  "result": {
    "originInfo": {
      "area_id": 257,
      "wd": "广东省广州市海珠区东晓南路69号",
      "uid": ""
    },
    "destinationInfo": {
      "area_id": 257,
      "wd": "创举商务大厦",
      "uid": ""
    },
    "origin": {
      "cityName": "广州市",
      "listType": 0,
      "content": [
        {
          "name": "宇光",
          "address": "广东省广州市海珠区瑞宝南路69号",
          "uid": "7b58b877db92773ed0ff230f",
          "telephone": "020-29882578",
          "location": {
            "lng": 113.30081401938,
            "lat": 23.079801992384
          }
        }
      ]
    },
    "destination": {
      "cityName": "广州市",
      "listType": 0,
      "content": [
        {
          "name": "创举商务大厦",
          "address": "广州市越秀区越秀南路185号",
          "uid": "e85e252743bb6a5395f08c3f",
          "telephone": "(020)83765111",
          "location": {
            "lng": 113.28357338071,
            "lat": 23.128638453035
          }
        },
        {
          "name": "创举商务大厦-停车场",
          "address": "广州市越秀区越秀南路185号",
          "uid": "50fb64ff9246465ee9f8533a",
          "telephone": "(020)83765333",
          "location": {
            "lng": 113.28361344514,
            "lat": 23.128512493754
          }
        },
        {
          "name": "创举商务大厦管理处",
          "address": "广东省广州市越秀区越秀南路183号创举商务大厦3层",
          "uid": "fad1f73720b51460d22dd6cd",
          "location": {
            "lng": 113.28357338071,
            "lat": 23.128642441189
          }
        },
        {
          "name": "创举商务大厦地下停车场-出入口",
          "address": "广州市越秀区",
          "uid": "7082e7aaf843d9a56f4760a9",
          "location": {
            "lng": 113.28366734347,
            "lat": 23.128539663081
          }
        },
        {
          "name": "广州市黄金假日国际旅行社有限公司",
          "address": "越秀南路185号创举商务大厦7层之3",
          "uid": "1a47cb9547d0019988fc060a",
          "telephone": "86694101",
          "location": {
            "lng": 113.28360140784,
            "lat": 23.128602476551
          }
        },
        {
          "name": "广州铂斯商务服务公司",
          "address": "越秀南路185号创举商务大厦29层",
          "uid": "5341c4df04b25c0db42655df",
          "location": {
            "lng": 113.28368324348,
            "lat": 23.128622666588
          }
        },
        {
          "name": "e link advertising co.,ltd",
          "address": "越秀南路185号创举商务大厦12层",
          "uid": "cfbb492f217d6ef154bfff4d",
          "location": {
            "lng": 113.28368324348,
            "lat": 23.128622666588
          }
        },
        {
          "name": "中国中铁六局集团有限公司广州分公司",
          "address": "广东省广州市越秀区越秀南路183号创举商务大厦5层",
          "uid": "c6d5a68e7f83fceb29d7abbc",
          "location": {
            "lng": 113.28360428242,
            "lat": 23.12861244694
          }
        },
        {
          "name": "中山大学网络教育",
          "address": "广东省广州市越秀区越秀南路183号创举商务大厦4层",
          "uid": "947d912abf1419b501294f04",
          "location": {
            "lng": 113.28357329088,
            "lat": 23.128642358103
          }
        },
        {
          "name": "沙维移动电源",
          "address": "越秀南路185号创举商务大厦11楼",
          "uid": "05e4376402e27fcc6c3e1b05",
          "telephone": "(020)22038230",
          "location": {
            "lng": 113.28360338412,
            "lat": 23.128602476551
          }
        },
        {
          "name": "广州市烟草专卖局越秀分局稽查大队",
          "address": "越秀南路185号创举商务大厦",
          "uid": "ff2e52dc2f87551e85420efc",
          "telephone": "(020)83835448",
          "location": {
            "lng": 113.28368324348,
            "lat": 23.128622666588
          }
        },
        {
          "name": "广州市穗高物业管理有限公司",
          "address": "广东省广州市越秀区越秀南路183号创举商务大厦3层",
          "uid": "c83ac78eab2a8dd35b1093db",
          "telephone": "38813249",
          "location": {
            "lng": 113.28357338071,
            "lat": 23.128642441189
          }
        },
        {
          "name": "DYXNET第一线",
          "address": "广东省广州市越秀区越秀南路183号创举商务大厦1层",
          "uid": "bce7cf8c0f16cc1da80dd845",
          "location": {
            "lng": 113.28357329088,
            "lat": 23.128642358103
          }
        },
        {
          "name": "聚焦伟业",
          "address": "广州市越秀区越秀南路185号创举商务大厦10-11楼",
          "uid": "4a19c005023df9117f29bdf2",
          "telephone": "(020)22038333,4006786206",
          "location": {
            "lng": 113.28357302139,
            "lat": 23.128640031679
          }
        },
        {
          "name": "赛爱环境保护技术开发有限公司",
          "address": "越秀南路185号创举商务大厦7层之1",
          "uid": "d4a3dc65f115aa10c27da2bb",
          "telephone": "(020)83845769",
          "location": {
            "lng": 113.28368324348,
            "lat": 23.128622666588
          }
        },
        {
          "name": "EASTERN PROFIT LTD.",
          "address": "广东省广州市越秀区越秀南路183号创举商务大厦20层",
          "uid": "8b2142b8e1f5b268b6147f5f",
          "location": {
            "lng": 113.28357329088,
            "lat": 23.128642358103
          }
        },
        {
          "name": "美联物业",
          "address": "广东省广州市越秀区越秀南路183号创举商务大厦21层",
          "uid": "0cbe5d38822e5ebda21de9ef",
          "location": {
            "lng": 113.28357338071,
            "lat": 23.128642441189
          }
        },
        {
          "name": "美联华广",
          "address": "广东省广州市越秀区越秀南路183号创举商务大厦21层",
          "uid": "120d5541b1f35e6516a190b2",
          "location": {
            "lng": 113.28357329088,
            "lat": 23.128642358103
          }
        },
        {
          "name": "RNZO",
          "address": "广东省广州市越秀区越秀南路183号创举商务大厦29层",
          "uid": "206316705b927443f02d830e",
          "location": {
            "lng": 113.28357329088,
            "lat": 23.128642358103
          }
        },
        {
          "name": "SAILAIM",
          "address": "广东省广州市越秀区越秀南路183号创举商务大厦7层",
          "uid": "9a1c701388abef0af822139e",
          "location": {
            "lng": 113.28357329088,
            "lat": 23.128642358103
          }
        },
        {
          "name": "广州启众教育信息咨询有限公司",
          "address": "越秀南路185号创举商务大厦9层之2",
          "uid": "a4ee7ec42edcdb18d72ce28d",
          "location": {
            "lng": 113.28368324348,
            "lat": 23.128622666588
          }
        },
        {
          "name": "上海凯士比泵公司广州分公司",
          "address": "越秀南路185号创举商务大厦14层1402/1403室",
          "uid": "fbf846481d185e8642d63edf",
          "telephone": "(020)22038360",
          "location": {
            "lng": 113.28368324348,
            "lat": 23.128622666588
          }
        },
        {
          "name": "广州市依色锦服饰公司",
          "address": "越秀南路185号创举商务大厦20层",
          "uid": "4bb146e6d9f99eaaeddfcae5",
          "location": {
            "lng": 113.28368324348,
            "lat": 23.128622666588
          }
        },
        {
          "name": "广州子藤留学咨询有限公司",
          "address": "广东省广州市越秀区越秀南路183号创举商务大厦7层",
          "uid": "e30b372b097f3e2c8f1a894f",
          "telephone": "13570229333",
          "location": {
            "lng": 113.28357338071,
            "lat": 23.128642441189
          }
        },
        {
          "name": "广州富诚仙宝丽贸易公司",
          "address": "越秀南路185号创举商务大厦6层",
          "uid": "2c8af0798b675b89db1318d9",
          "location": {
            "lng": 113.28368324348,
            "lat": 23.128622666588
          }
        },
        {
          "name": "美联移民顾问",
          "address": "越秀南路183号创举商务大厦21楼B室(近喜尔宾酒店)",
          "uid": "29b2f8054df74855ca09f06e",
          "telephone": "(020)83815088,4008833390",
          "location": {
            "lng": 113.28360616886,
            "lat": 23.128602642724
          }
        },
        {
          "name": "心友汇",
          "address": "广东省广州市越秀区越秀南路183号创举商务大厦19层",
          "uid": "5a7c0c50a400ba95f8f0cbc3",
          "location": {
            "lng": 113.28357329088,
            "lat": 23.128642358103
          }
        },
        {
          "name": "广州达德自学考试辅导学校",
          "address": "越秀南路185号创举商务大厦四楼（越秀总校）",
          "uid": "2688a9bd27fdbcdffb2d61f3",
          "telephone": "(020)83703697",
          "location": {
            "lng": 113.28360140784,
            "lat": 23.128613527065
          }
        },
        {
          "name": "聚焦伟业华南区运营中心",
          "address": "广东省广州市越秀区越秀南路183号创举商务大厦10层",
          "uid": "d7c925d3bab14d55e5e965ce",
          "location": {
            "lng": 113.28357329088,
            "lat": 23.128642358103
          }
        },
        {
          "name": "香港超越国际控股公司广州依尼服饰公司",
          "address": "越秀南路185号创举商务大厦13层",
          "uid": "0a0dacfbb9ce8816081cc7a1",
          "location": {
            "lng": 113.28368324348,
            "lat": 23.128622666588
          }
        },
        {
          "name": "广州美联港置房地产代理有限公司",
          "address": "越秀南路185号创举商务大厦21层之1",
          "uid": "438398545c2c88fe33621270",
          "telephone": "87324321",
          "location": {
            "lng": 113.28368333331,
            "lat": 23.128622666588
          }
        },
        {
          "name": "FC",
          "address": "广东省广州市越秀区越秀南路183号创举商务大厦6层",
          "uid": "644882b8de7ffe13b6f42f19",
          "location": {
            "lng": 113.28357329088,
            "lat": 23.128642358103
          }
        },
        {
          "name": "施恩广州婴儿营养品公司",
          "address": "越秀南路185号创举商务大厦15～18层",
          "uid": "1f7c13ef9e20a7ec95ca0791",
          "location": {
            "lng": 113.28368324348,
            "lat": 23.128622666588
          }
        },
        {
          "name": "中铁六局广州工程公司",
          "address": "广东省广州市越秀区越秀南路183号创举商务大厦5层",
          "uid": "21191131a00935306040a919",
          "location": {
            "lng": 113.28357338071,
            "lat": 23.128642441189
          }
        },
        {
          "name": "高城房地产开发公司",
          "address": "越秀南路185号创举商务大厦2层",
          "uid": "4aa2281ef094a31bae080f5b",
          "location": {
            "lng": 113.28368324348,
            "lat": 23.128622666588
          }
        },
        {
          "name": "标准认证服务(上海)有限公司广州分公司",
          "address": "广东省广州市越秀区越秀南路183号创举商务大厦22层",
          "uid": "923b26955aca6c424107c16b",
          "location": {
            "lng": 113.28368324348,
            "lat": 23.128622666588
          }
        },
        {
          "name": "快易购(广州联雅网络科技有限公司)",
          "address": "广东省广州市越秀区越秀南路185号创举商务大厦10楼",
          "uid": "50270340e869f3d7c9291535",
          "telephone": "(020)83226210",
          "location": {
            "lng": 113.28352604001,
            "lat": 23.128687972614
          }
        },
        {
          "name": "达徳教育集团",
          "address": "广东省广州市越秀区越秀南路183号创举商务大厦4层",
          "uid": "8f58a37cf39b0e4d5af6be02",
          "location": {
            "lng": 113.28357338071,
            "lat": 23.128642441189
          }
        },
        {
          "name": "广东华之杰律师事务所",
          "address": "广东省广州市越秀区越秀南路183号创举商务大厦28层",
          "uid": "cbe5282379702b6117b54b37",
          "telephone": "(020)83862209",
          "location": {
            "lng": 113.28368324348,
            "lat": 23.128622666588
          }
        },
        {
          "name": "新创举集团",
          "address": "广东省广州市越秀区越秀南路183号创举商务大厦3层",
          "uid": "b5ca123a48efd1c46f20b9c0",
          "location": {
            "lng": 113.28357338071,
            "lat": 23.128642441189
          }
        },
        {
          "name": "雅士利国际",
          "address": "广东省广州市越秀区越秀南路183号创举商务大厦13层",
          "uid": "f16a686e6c029c451c38942b",
          "location": {
            "lng": 113.28357329088,
            "lat": 23.128642358103
          }
        },
        {
          "name": "广州市烟草专卖局越秀分局",
          "address": "广州市越秀区越秀南路185号创举商务大厦",
          "uid": "f09583b51607de3e3010af8c",
          "telephone": "(020)83835448",
          "location": {
            "lng": 113.28360428242,
            "lat": 23.12861244694
          }
        },
        {
          "name": "711便利店(越秀南路店)",
          "address": "越秀南路185创举商务大厦首层之3-4",
          "uid": "28e700f1d956cb01095cb334",
          "location": {
            "lng": 113.2836630316,
            "lat": 23.128733005503
          }
        },
        {
          "name": "广州市大新航空代理有限公司",
          "address": "广州市越秀南路185号创举商务大厦702室",
          "uid": "75c15c5c8865ded6a1d2308a",
          "telephone": "020-83881885",
          "location": {
            "lng": 113.28368333331,
            "lat": 23.128622666588
          }
        },
        {
          "name": "维他奶",
          "address": "广东省广州市越秀区越秀南路183号创举商务大厦23层",
          "uid": "383611ede41987445abbbcb3",
          "location": {
            "lng": 113.28357329088,
            "lat": 23.128642358103
          }
        },
        {
          "name": "明镜咨询",
          "address": "广东省广州市越秀区越秀南路183号创举商务大厦23层",
          "uid": "f2fc0611bdb210da2cfaa77a",
          "location": {
            "lng": 113.28368324348,
            "lat": 23.128622666588
          }
        },
        {
          "name": "中国烟草广州烟草管理局越秀分局",
          "address": "广东省广州市越秀区越秀南路183号创举商务大厦26层",
          "uid": "a07ff14e4f200851dbecedb6",
          "location": {
            "lng": 113.28357329088,
            "lat": 23.128642358103
          }
        }
      ]
    }
  }
}