{
  "status": 0,
  "message": "ok",
  "type": 1,
  "info": {
    "copyright": {
      "text": "@2016 Baidu - Data",
      "imageUrl": "http://api.map.baidu.com/images/copyright_logo.png"
    }
  },
  "result": {
    "originInfo": {
      "area_id": 257,
      "wd": "江南玫瑰园",
      "uid": ""
    },
    "destinationInfo": {
      "area_id": 257,
      "wd": "广东国际旅行卫生保健中心",
      "uid": ""
    },
    "origin": {
      "cityName": "广州市",
      "listType": 0,
      "content": [
        {
          "name": "江南玫瑰园",
          "address": "江南西玫瑰园玫瑰一街17号803",
          "uid": "fd13a3f2758305fab1077d77",
          "telephone": "(020)34287590",
          "location": {
            "lng": 113.27852301731,
            "lat": 23.099892375704
          }
        },
        {
          "name": "江南玫瑰园-F栋",
          "address": "玫瑰一街5号",
          "uid": "3b379eb581e17beb31870adc",
          "location": {
            "lng": 113.27956936356,
            "lat": 23.100155235154
          }
        },
        {
          "name": "江南玫瑰园F1栋",
          "address": "广东省广州市海珠区玫瑰一街5",
          "uid": "280873e8f3ee38a603ec015a",
          "location": {
            "lng": 113.27938152788,
            "lat": 23.100278146492
          }
        },
        {
          "name": "江南玫瑰园F2栋",
          "address": "广东省广州市海珠区玫瑰一街13",
          "uid": "232161ea79cbbb08ed74f83e",
          "location": {
            "lng": 113.27983077047,
            "lat": 23.10045092025
          }
        },
        {
          "name": "玫瑰园琴行",
          "address": "江南西路青竹大街29号玫瑰会所303室",
          "uid": "78bd50f7360ac15a31870a57",
          "telephone": "13676228862,(020)34277106",
          "location": {
            "lng": 113.27861302752,
            "lat": 23.099387015938
          }
        },
        {
          "name": "君尧·玫瑰园商务港",
          "address": "江南西路玫瑰一街9号",
          "uid": "7cfd43a98311ae8597ec843f",
          "telephone": "(020)84436953",
          "location": {
            "lng": 113.27949821777,
            "lat": 23.100432803531
          }
        },
        {
          "name": "碧雅苑(玫瑰园西)",
          "address": "江南西路青柳大街29号",
          "uid": "acdf9130cf27d601c92915d1",
          "location": {
            "lng": 113.27685764872,
            "lat": 23.098950382223
          }
        },
        {
          "name": "江南西提货点",
          "address": "广东省广州市海珠区江南西玫瑰园玫瑰一街17号803(海珠区江南西玫瑰园玫瑰一街17号803)",
          "uid": "bb054709fc0bbadaf42310c4",
          "telephone": "18665035852",
          "location": {
            "lng": 113.27951151269,
            "lat": 23.100078945301
          }
        },
        {
          "name": "君尧·玫瑰园商务港-西北门",
          "address": "广东省广州市海珠区江南西路玫瑰一街9号",
          "uid": "286285d939542883ca291517",
          "location": {
            "lng": 113.27961095511,
            "lat": 23.100499536201
          }
        },
        {
          "name": "碧斯美容养生馆(江南西店)",
          "address": "江南西青蒲大街104号(近江南西路)",
          "uid": "3f4bb6e4fb3541a86fa3cc47",
          "telephone": "(020)34278832",
          "location": {
            "lng": 113.27912191759,
            "lat": 23.100206427449
          }
        },
        {
          "name": "宝柚益生",
          "address": "江南西玫瑰园玫瑰一街17号",
          "uid": "8b2de787a362df0bdb1318e9",
          "telephone": "(020)22170069",
          "location": {
            "lng": 113.27950252963,
            "lat": 23.100075953541
          }
        },
        {
          "name": "SUNNY CAFE",
          "address": "广州海珠区玫瑰二街25-29号江南西玫瑰园",
          "uid": "549d279407c2b7af601c6711",
          "telephone": "13632351354",
          "location": {
            "lng": 113.27897243955,
            "lat": 23.098852567431
          }
        },
        {
          "name": "十一罗汉",
          "address": "广东省广州市海珠区江南西玫瑰园清蒲大街86号商铺",
          "uid": "2b0b94454366a18c2806ce9c",
          "location": {
            "lng": 113.27912030064,
            "lat": 23.101796038121
          }
        },
        {
          "name": "Something cafe",
          "address": "广东省广州市海珠区江南西玫瑰园玫瑰一街24号(近华海大厦)",
          "uid": "5ac731c3d6289d2721f017ea",
          "location": {
            "lng": 113.27950190082,
            "lat": 23.099738964605
          }
        },
        {
          "name": "桦美秀艺术美妆造型",
          "address": "江南西玫瑰园商务港311室(上楼茶点后面街道)",
          "uid": "f459822f84b6ced17adbd2cc",
          "telephone": "13143341200",
          "location": {
            "lng": 113.27966584158,
            "lat": 23.104503102629
          }
        },
        {
          "name": "花影町寿司店",
          "address": "江南大道玫瑰园玫瑰二街33号（近十香园）",
          "uid": "56f2f696baea7c990ba8d490",
          "telephone": "(020)84444173",
          "location": {
            "lng": 113.27905319722,
            "lat": 23.098977225182
          }
        },
        {
          "name": "乜氏研究室",
          "address": "广东省广州市海珠区江南西路玫瑰园玫瑰街9号商务港102A",
          "uid": "3ccf0e38fa37436007026fe0",
          "telephone": "15918407134",
          "location": {
            "lng": 113.27940299738,
            "lat": 23.100336984334
          }
        },
        {
          "name": "V-TOP酒吧培训与策划管理公司",
          "address": "海珠区江南西路玫瑰园青蒲大街90号(近玫瑰园)",
          "uid": "b6fa7faf83b1b67b5cbe86ba",
          "telephone": "15989090464",
          "location": {
            "lng": 113.27886832594,
            "lat": 23.100144680896
          }
        },
        {
          "name": "江华家电服务部",
          "address": "江南西路玫瑰园一街8号",
          "uid": "7dd019d89a9d285281a12ed6",
          "telephone": "020-34277599",
          "location": {
            "lng": 113.27949498387,
            "lat": 23.099873012341
          }
        },
        {
          "name": "曼雅静心馆",
          "address": "江南西路玫瑰园玫瑰三街31号906室(江南西地铁站A出口)",
          "uid": "73d0d72f6d3c717c08ccdde3",
          "telephone": "13226440769",
          "location": {
            "lng": 113.27865309194,
            "lat": 23.099704226856
          }
        },
        {
          "name": "YOYO BG",
          "address": "广东省广州市海珠区江南西路玫瑰园一街30号(近江南西地铁A出口)",
          "uid": "9bb900d5a08470b1018972c5",
          "telephone": "(020)28935200",
          "location": {
            "lng": 113.2787608886,
            "lat": 23.099709046927
          }
        },
        {
          "name": "肤道(江南西店)",
          "address": "江南西玫瑰园",
          "uid": "d086ffeb46fbd3d7b21e363f",
          "location": {
            "lng": 113.27851502239,
            "lat": 23.099560040169
          }
        },
        {
          "name": "糖糖创意甜品(江南西分店)",
          "address": "江南西路玫瑰园玫瑰街9号商务港103（江南西地铁站A出口，江南新地）",
          "uid": "71b56b4abf931e6d45e2747a",
          "telephone": "(020)89637423",
          "location": {
            "lng": 113.27954115677,
            "lat": 23.100379118196
          }
        },
        {
          "name": "不见不散港式甜品桌游屋",
          "address": "江南西路玫瑰一街32号（玫瑰园）(江南西地铁A出口附近玫瑰园商务港)",
          "uid": "21b84f1512f60af1ce04efb6",
          "telephone": "13678925825,13570478101",
          "location": {
            "lng": 113.27955391271,
            "lat": 23.099591370662
          }
        },
        {
          "name": "心艺银匠工作室",
          "address": "广州市海珠区江南西路玫瑰一街玫瑰园商务港203",
          "uid": "1eb19ed7711a7eb2a6da398d",
          "telephone": "(020)84125480",
          "location": {
            "lng": 113.27949696014,
            "lat": 23.100449008853
          }
        },
        {
          "name": "泰阁搏击健身俱乐部",
          "address": "江南西青竹大街江南西青竹大街西玫瑰园会所29号301A(江南西地铁站A出口附近)",
          "uid": "98929ee47c2ecd71e8e58238",
          "telephone": "18825136522,(020)28104421",
          "location": {
            "lng": 113.27864348007,
            "lat": 23.099303246201
          }
        },
        {
          "name": "合伙人咖啡",
          "address": "海珠区江南西玫瑰一街9号玫瑰园商务港109铺(合伙人咖啡厅)(江南西地铁站A出口(富力海珠城河涌边))",
          "uid": "0d7e0dec0eeadfc26fa3cced",
          "telephone": "(020)89623021,13925163738",
          "location": {
            "lng": 113.27967123141,
            "lat": 23.100146010566
          }
        },
        {
          "name": "吃了又吃韩国小吃店",
          "address": "广州市海珠区江南西玫瑰一街9号玫瑰园商务港1楼105号铺(名店城对面)",
          "uid": "5f2148b58a0fcfa2b2077d1d",
          "telephone": "(020)84159221",
          "location": {
            "lng": 113.27954223474,
            "lat": 23.100309144398
          }
        },
        {
          "name": "香港帝皇(江南西店提货点)",
          "address": "江南西玫瑰园玫瑰一街17号(地铁江南西A出口)",
          "uid": "f0b926a09f0357bbb7147f6d",
          "telephone": "(020)29014804,13430384531",
          "location": {
            "lng": 113.27951151269,
            "lat": 23.100078945301
          }
        },
        {
          "name": "伊美婷美容美体中心",
          "address": "江南西路紫金大街(近玫瑰园)",
          "uid": "5f78d8be762b864243afe651",
          "telephone": "(020)84414851",
          "location": {
            "lng": 113.278705014,
            "lat": 23.100323022814
          }
        },
        {
          "name": "广州市君尧物业投资有限公司",
          "address": "广州市海珠区江南西路玫瑰一街9号玫瑰园商务港201室",
          "uid": "bca892127b5e267793114c26",
          "telephone": "020-84480930",
          "location": {
            "lng": 113.27955912288,
            "lat": 23.100387179308
          }
        },
        {
          "name": "PINKCAFE红粉啡啡",
          "address": "江南西路玫瑰一街9号玫瑰园商务港106铺",
          "uid": "2ac17096b9b638d1f03cbad0",
          "location": {
            "lng": 113.27960817036,
            "lat": 23.100296512544
          }
        },
        {
          "name": "Masa玛莎",
          "address": "江南西路青竹大街23号玫瑰园",
          "uid": "0593ebb732381dd65b10931f",
          "telephone": "13710829748,(020)89307835",
          "location": {
            "lng": 113.27858311394,
            "lat": 23.099732814861
          }
        },
        {
          "name": "VICTO",
          "address": "江南西青竹大街25号（近玫瑰园小区正门）",
          "uid": "5211d21947a20e417dc87638",
          "telephone": "13710779996",
          "location": {
            "lng": 113.2785532902,
            "lat": 23.099642646279
          }
        },
        {
          "name": "宠幸宠物生活馆",
          "address": "海珠区江南西路玫瑰二街59号(玫瑰园或十香园)",
          "uid": "5a02b141d865d0d714b54b8f",
          "telephone": "13312854382,(020)34276266",
          "location": {
            "lng": 113.27937497025,
            "lat": 23.099134044467
          }
        },
        {
          "name": "See me here桌游屋(不见不散)",
          "address": "江南西路玫瑰一街32号（玫瑰园）",
          "uid": "34b755167e9865c995f08c95",
          "telephone": "13699816262,(020)34285809",
          "location": {
            "lng": 113.27955499068,
            "lat": 23.099591038243
          }
        },
        {
          "name": "Musician庙色唇LIVEHOUSE(江南西店)",
          "address": "广州海珠区江南西玫瑰园青浦大街92号",
          "uid": "9162a4601de810621188246f",
          "telephone": "(020)22150066",
          "location": {
            "lng": 113.27859685802,
            "lat": 23.100001824359
          }
        },
        {
          "name": "羽翔武术培训中心",
          "address": "青竹大街29号玫瑰园会所1楼(江南西侧)",
          "uid": "33a4a4db5aafbcd04251c0ed",
          "telephone": "(020)34027313",
          "location": {
            "lng": 113.27862039362,
            "lat": 23.099419094415
          }
        },
        {
          "name": "养骨堂",
          "address": "江南西路青竹大街45号(近玫瑰园销售中心)",
          "uid": "4edf9fbf4049e38dcc06a43d",
          "telephone": "13826427473",
          "location": {
            "lng": 113.27854529528,
            "lat": 23.09875574983
          }
        },
        {
          "name": "传悦琴室",
          "address": "江南西路青竹大街23号之二(玫瑰园小区1期正门旁）",
          "uid": "e762f05483596a4eb11e3644",
          "telephone": "(020)34276172",
          "location": {
            "lng": 113.27861096142,
            "lat": 23.09961696692
          }
        },
        {
          "name": "金玫瑰苑-北门",
          "address": "江南大道南1027号附近",
          "uid": "5ce2637d2560c551ae31e57a",
          "location": {
            "lng": 113.29895443714,
            "lat": 23.073233665764
          }
        },
        {
          "name": "大猿日本料理(江南西路店)",
          "address": "江南西路青竹大街14-104号(近玫瑰园附近江南第一小学，窝居旁边小门入)",
          "uid": "cce984d5f6a704e54107c11c",
          "telephone": "18028687638",
          "location": {
            "lng": 113.27742061678,
            "lat": 23.099947723327
          }
        },
        {
          "name": "私CUP",
          "address": "海珠区江南西路青竹大街9号101铺近江南西万岁寿司农业银行后面(近玫瑰园)",
          "uid": "13c61d629a3ec4ec1f1d11cb",
          "telephone": "(020)84489674",
          "location": {
            "lng": 113.27743498967,
            "lat": 23.100447014352
          }
        },
        {
          "name": "顺丰店(青凤大街店)",
          "address": "海珠区江南西青凤大街30号之一(近江南西玫瑰园)",
          "uid": "93c53c764d1217318bfc0611",
          "telephone": "15622220872",
          "location": {
            "lng": 113.27894180733,
            "lat": 23.100536102034
          }
        },
        {
          "name": "森野（江南西店）",
          "address": "江南西路玫瑰一街君尧玫瑰园商务港3楼318室(江南西侧)",
          "uid": "1b9f97017965beb314c8f64b",
          "telephone": "13570929756",
          "location": {
            "lng": 113.27947153809,
            "lat": 23.100118752321
          }
        },
        {
          "name": "沙湾糖水铺(江南西店)",
          "address": "玫瑰园商务港1楼（富力海珠城与上楼中间小路进去）",
          "uid": "ee9f2cf52ad6672857bfff31",
          "telephone": "13926426744",
          "location": {
            "lng": 113.27949821777,
            "lat": 23.100432803531
          }
        },
        {
          "name": "金玫瑰苑游泳池",
          "address": "海珠区江南大道南1035-1037号",
          "uid": "bc6dcd59b1af22e440ab9a6e",
          "telephone": "13560483114",
          "location": {
            "lng": 113.29925501016,
            "lat": 23.072530375188
          }
        },
        {
          "name": "狗狗生活(江南西加盟店)",
          "address": "江南西路青蒲大街88号（玫瑰园楼下）",
          "uid": "0c2fe5410e63765f5cd4feaf",
          "telephone": "18126642975",
          "location": {
            "lng": 113.2789622887,
            "lat": 23.10006938829
          }
        },
        {
          "name": "MiaoSi(江南西店)",
          "address": "海珠区海珠区江南西青凤大街26号101(江南西地铁A出口,周生生,绿茵阁,玫瑰园)",
          "uid": "d642565377089adc10293545",
          "telephone": "15902039740,13533791823",
          "location": {
            "lng": 113.27842564099,
            "lat": 23.100452499229
          }
        },
        {
          "name": "萌梨莎美甲制作(江南西店)",
          "address": "广东省广州市海珠区江南西路青竹大街25号(玫瑰园小区大门旁)",
          "uid": "6cced67b4aef086db21e363c",
          "telephone": "4008707077",
          "location": {
            "lng": 113.27844333761,
            "lat": 23.099732814861
          }
        }
      ]
    },
    "destination": {
      "cityName": "广州市",
      "listType": 0,
      "content": [
        {
          "name": "广东国际旅行卫生保健中心",
          "address": "广州市天河区龙口西路207号",
          "uid": "0ad5f48bd3139c8f48cc4a1a",
          "telephone": "(020)87537322",
          "location": {
            "lng": 113.34159699968,
            "lat": 23.144003922912
          }
        },
        {
          "name": "广东国际旅行卫生保健中心",
          "address": "广州市荔湾区沙面北街33号",
          "uid": "9c7c46b4d8f5daec2fb17eed",
          "telephone": "(020)81219669,18926197202",
          "location": {
            "lng": 113.25423831599,
            "lat": 23.113862264549
          }
        },
        {
          "name": "广东国际旅行社卫生保健中心",
          "address": "华利路59号保利大厦东塔",
          "uid": "58ce2ea99e7531e0b14c4972",
          "location": {
            "lng": 113.32619680935,
            "lat": 23.123821754763
          }
        },
        {
          "name": "广东国际旅行卫生保健中心(东区)",
          "address": "龙口西路207号5楼",
          "uid": "39529a3c0c2121508bb9880a",
          "telephone": "(020)38259322,(020)87516499,(020)87537322",
          "location": {
            "lng": 113.34165835395,
            "lat": 23.143981409063
          }
        },
        {
          "name": "广东国际旅行卫生保健中心地上停车场",
          "address": "广东省广州市天河区龙口西路215号附近",
          "uid": "0e9fa5008c39ccc65d17c3fa",
          "location": {
            "lng": 113.34171925906,
            "lat": 23.143457109445
          }
        },
        {
          "name": "广东国际旅行卫生保健中心东区停车场(入口)",
          "address": "广东省广州市天河区龙口西路207附近",
          "uid": "2a63f8332cd45bb07369d302",
          "location": {
            "lng": 113.34147923183,
            "lat": 23.143948178282
          }
        }
      ]
    }
  }
}