{
  "status": 0,
  "message": "ok",
  "type": 1,
  "info": {
    "copyright": {
      "text": "@2016 Baidu - Data",
      "imageUrl": "http://api.map.baidu.com/images/copyright_logo.png"
    }
  },
  "result": {
    "originInfo": {
      "area_id": 257,
      "wd": "大沙头四马路小区",
      "uid": ""
    },
    "destinationInfo": {
      "area_id": 257,
      "wd": "广州火车站",
      "uid": ""
    },
    "origin": {
      "cityName": "广州市",
      "listType": 0,
      "content": [
        {
          "name": "大沙头四马路小区",
          "address": "广州市越秀区大沙头路",
          "uid": "effc67661c12bf6db7265513",
          "location": {
            "lng": 113.29385502625,
            "lat": 23.119900865977
          }
        },
        {
          "name": "江尚东山",
          "address": "大沙头路33号大沙头四马路2号（东湖路与大沙头路交叉口）",
          "uid": "7890e0d95ce8cad6373a71c2",
          "telephone": "(020)38218338",
          "location": {
            "lng": 113.29389311441,
            "lat": 23.119930529828
          }
        },
        {
          "name": "湖滨小区-5幢",
          "address": "广州市越秀区大沙头四马路",
          "uid": "eff6eeaca59df5d15fd4fe6c",
          "location": {
            "lng": 113.29377741266,
            "lat": 23.121915998592
          }
        }
      ]
    },
    "destination": {
      "cityName": "广州市",
      "listType": 0,
      "content": [
        {
          "name": "广州火车站",
          "address": "广东省广州市越秀区环市西路",
          "uid": "9429d3a54969607f49fd3fd4",
          "telephone": "020-61357222",
          "location": {
            "lng": 113.26405697487,
            "lat": 23.155005426818
          }
        },
        {
          "name": "广州南站",
          "address": "广州市番禺区钟村镇石壁街道",
          "uid": "c5abc279b4912b27dc1e5216",
          "telephone": "\"020-29864555,020-39267222\"",
          "location": {
            "lng": 113.27587166859,
            "lat": 22.995057314037
          }
        },
        {
          "name": "广州北火车站",
          "address": "广东省广州市花都区站前路1号",
          "uid": "26ccdfcf7ada8c2a4d2fdf3d",
          "telephone": "(020)61356850",
          "location": {
            "lng": 113.21110833287,
            "lat": 23.382815984162
          }
        },
        {
          "name": "广州东站",
          "address": "广州市天河区东站路1号",
          "uid": "9f79006f470f610bf33cba90",
          "telephone": "(020)61346610",
          "location": {
            "lng": 113.33116039644,
            "lat": 23.155875416382
          }
        },
        {
          "name": "广州西站",
          "address": "荔湾环市西路西站一街",
          "uid": "b4183dab27f255bbafee7aa9",
          "location": {
            "lng": 113.25125603153,
            "lat": 23.144249165777
          }
        },
        {
          "name": "广州火车站",
          "address": "",
          "uid": "b5bb7af57cc44c41f22d839b",
          "location": {
            "lng": 113.2646360226,
            "lat": 23.153045042679
          }
        },
        {
          "name": "广州火车站总站",
          "address": "",
          "uid": "feb82b5331f33b1e2fb90825",
          "location": {
            "lng": 113.2649750431,
            "lat": 23.153659020932
          }
        },
        {
          "name": "广州火车站",
          "address": "",
          "uid": "54645ab36a6d63c4e60738ac",
          "location": {
            "lng": 113.26233671982,
            "lat": 23.15376751145
          }
        },
        {
          "name": "广州火车站便利旅店",
          "address": "广东省广州市越秀区环市西路黑山九街16号302(地铁2号线广州火车站F出口近省市汽车客运站)",
          "uid": "f2c667ac30e76a1dea56fa60",
          "telephone": "13711305825",
          "location": {
            "lng": 113.2624254724,
            "lat": 23.1532888566
          }
        },
        {
          "name": "广州火车站港湾旅店",
          "address": "广州环市西路黑山九街17号202室",
          "uid": "ba0ce76a310b9072c829150f",
          "telephone": "13416427987",
          "location": {
            "lng": 113.25611298976,
            "lat": 23.151459036704
          }
        },
        {
          "name": "广州广州火车站住宿",
          "address": "广州越秀区站西路87号377房",
          "uid": "154049d2cd4a504c9222e0da",
          "telephone": "13538920240",
          "location": {
            "lng": 113.25924798615,
            "lat": 23.157153018886
          }
        },
        {
          "name": "广州火车站城市客栈",
          "address": "站前路160号(流花派出所旁/近广州火车站/近省市汽车客运站)",
          "uid": "81392f0b643ce4ecc7f0251f",
          "telephone": "13829780498",
          "location": {
            "lng": 113.26097039714,
            "lat": 23.151676602758
          }
        },
        {
          "name": "广州火车站家庭旅馆",
          "address": "广州站西路87号骏马楼362房",
          "uid": "f4982016cdf283c6d5b74e2b",
          "telephone": "13902281317",
          "location": {
            "lng": 113.25941471166,
            "lat": 23.157152105131
          }
        },
        {
          "name": "广州火车站便民旅店",
          "address": "广州荔湾区环市西路黑山九街16号302",
          "uid": "691a19bff60d48af76e5b6d8",
          "telephone": "13802761935",
          "location": {
            "lng": 113.25629103391,
            "lat": 23.1517589272
          }
        },
        {
          "name": "广州火车站居家家庭旅馆",
          "address": "站西路87号478房（骏马服装批发中心，火车站后）",
          "uid": "7138283d087e9b98b45f1ebd",
          "telephone": "13160812196",
          "location": {
            "lng": 113.25968168805,
            "lat": 23.156860367593
          }
        },
        {
          "name": "广州火车站江西家庭旅馆",
          "address": "广州荔湾区站前横路57号-1",
          "uid": "b0324e571d792ead43024522",
          "telephone": "18279023279",
          "location": {
            "lng": 113.25797697369,
            "lat": 23.14916397967
          }
        },
        {
          "name": "广州火车站阿兰家庭客栈",
          "address": "广州越秀区站西路69号后梯206房（顺丰快递点旁大院最后楼梯）",
          "uid": "7194aae78683b71ab13c8112",
          "telephone": "13711077978",
          "location": {
            "lng": 113.25959922361,
            "lat": 23.156369346614
          }
        },
        {
          "name": "好运来公寓（广州火车站店）",
          "address": "广州越秀区站前路117号3栋501室",
          "uid": "1fc8c7b2f2bc8c81a5c756d3",
          "telephone": "13250723048",
          "location": {
            "lng": 113.25737726493,
            "lat": 23.149505744402
          }
        },
        {
          "name": "广州火车站程姐住宿",
          "address": "广州站西站88号站西大院104栋502",
          "uid": "deef14ad4d965b0a25d2bb24",
          "telephone": "13249130608",
          "location": {
            "lng": 113.2604430918,
            "lat": 23.156479413224
          }
        },
        {
          "name": "广州火车站张姐家庭旅馆",
          "address": "广州站前横路442号202室",
          "uid": "f5808c677af781d59fec2b86",
          "telephone": "13172057115",
          "location": {
            "lng": 113.25908063184,
            "lat": 23.147941876938
          }
        },
        {
          "name": "派酒店广州火车站店",
          "address": "广东省广州市越秀区广园西路33号(王圣堂左边五米)",
          "uid": "d376fd6ea3c5edb6373a7139",
          "telephone": "(020)86522511",
          "location": {
            "lng": 113.25564299631,
            "lat": 23.156105934
          }
        },
        {
          "name": "广州火车站大超市",
          "address": "新白云国际机场南工作区空港五路南航明珠大酒店",
          "uid": "0744b08b77a39c5f5fbe8607",
          "location": {
            "lng": 113.30402105988,
            "lat": 23.378156759053
          }
        },
        {
          "name": "麦当劳(广州火车站店)",
          "address": "环市西路155之3号112/208/30",
          "uid": "f9a8ce36596a3981c27da2ed",
          "telephone": "(020)86681029",
          "location": {
            "lng": 113.26261240978,
            "lat": 23.155191254344
          }
        },
        {
          "name": "广州火车站河南住宿",
          "address": "越秀区站西路87号352号",
          "uid": "35614b8766b9095778f79688",
          "telephone": "(020)40093333",
          "location": {
            "lng": 113.25956904054,
            "lat": 23.157265992247
          }
        },
        {
          "name": "广州火车站lucky幸运家庭公寓",
          "address": "广州越秀区站前路158号",
          "uid": "08be59e72b310580fea7785e",
          "telephone": "13352890169",
          "location": {
            "lng": 113.26094623272,
            "lat": 23.151498080657
          }
        },
        {
          "name": "广州火车站站西路东北旅舍",
          "address": "越秀区站西路87号353房(近广州火车站-省市汽车客运站)",
          "uid": "3e57517fe1d828b3364aae25",
          "telephone": "13286893629",
          "location": {
            "lng": 113.25970899654,
            "lat": 23.156957973475
          }
        },
        {
          "name": "广州火车站大罗售票处",
          "address": "桥兴大道569",
          "uid": "3b270e9a289ec0faf4c59c91",
          "telephone": "(020)61941988",
          "location": {
            "lng": 113.36018895933,
            "lat": 22.965855207556
          }
        },
        {
          "name": "凯旋公寓（广州火车站店）",
          "address": "广州市越秀区站前路158号（壹马批发市场侧）",
          "uid": "e8e1b8afbc878c3e7adbd226",
          "telephone": "13138652996",
          "location": {
            "lng": 113.26090464118,
            "lat": 23.15166339429
          }
        },
        {
          "name": "广州火车站宇宙家庭旅馆",
          "address": "广州站西路89号3梯604(近广州火车站-省市汽车客运站)",
          "uid": "b387ced7d09f7fa488b98888",
          "telephone": "15839526088",
          "location": {
            "lng": 113.25949996085,
            "lat": 23.156786602419
          }
        },
        {
          "name": "广州火车站和姐家庭旅馆",
          "address": "广州越秀区站西路100号504房（站西大院旁边）",
          "uid": "51dd15807819dd3c81288ad2",
          "telephone": "18588691251",
          "location": {
            "lng": 113.26034796125,
            "lat": 23.156281044052
          }
        },
        {
          "name": "广州火车站四海为家旅店",
          "address": "广州荔湾区环市西路克山九街16号202号",
          "uid": "fb6c07acf2978ff94e2fdf71",
          "telephone": "15817122282",
          "location": {
            "lng": 113.2550169672,
            "lat": 23.15022399575
          }
        },
        {
          "name": "广州火车站永华旅店",
          "address": "越秀区站西路106号站西大院120号1楼101房近广州火车站-省市汽车客运站",
          "uid": "987667ef4f0f9f212fb908c5",
          "telephone": "13710532468",
          "location": {
            "lng": 113.26043222231,
            "lat": 23.156421929391
          }
        },
        {
          "name": "广州火车站曹哥家庭旅馆",
          "address": "越秀区环市西路黑山九街17号203室(位于广州火车站及省市汽车客运站附近)",
          "uid": "0305e003c46597d0b5f42fb3",
          "telephone": "13726778834",
          "location": {
            "lng": 113.25660499168,
            "lat": 23.151660985199
          }
        },
        {
          "name": "广州火车站站西大院家庭旅馆",
          "address": "广州站西路108号站西钟表城旁站西大院5楼",
          "uid": "ffd78c07aff4dc7cca09f05f",
          "telephone": "13424026698",
          "location": {
            "lng": 113.26039997314,
            "lat": 23.156450006758
          }
        },
        {
          "name": "四川招待所（广州火车站店）",
          "address": "广州市越秀区站西路87号骏马楼143房",
          "uid": "0b87ba7085019228b5f42f5a",
          "telephone": "18666792099",
          "location": {
            "lng": 113.25946995745,
            "lat": 23.156948918975
          }
        },
        {
          "name": "广州南站-停车场",
          "address": "广州市番禺区南站南路",
          "uid": "691c2124b6c01e8c0a5cb361",
          "location": {
            "lng": 113.27656435197,
            "lat": 22.992945111563
          }
        },
        {
          "name": "广州火车站比家美家庭旅馆",
          "address": "越秀区站西路87号骏马大楼(5分钟内可步行至广州火车站/近省市汽车客运站)",
          "uid": "212f8a8e4ac2e27aa8059d04",
          "telephone": "18122141889",
          "location": {
            "lng": 113.25942441336,
            "lat": 23.157105088248
          }
        },
        {
          "name": "广州南站-西广场",
          "address": "广东省广州市番禺区y886",
          "uid": "2f23839c18aa57ee932ca3c9",
          "location": {
            "lng": 113.27350921493,
            "lat": 22.99326440593
          }
        },
        {
          "name": "广州火车站骏马家庭旅馆",
          "address": "广州越秀区站西路89号3楼梯601室(火车站后,省汽车客运站房)",
          "uid": "c69b9c35f5ea589116c90506",
          "telephone": "15817190865",
          "location": {
            "lng": 113.25925993362,
            "lat": 23.156948420562
          }
        },
        {
          "name": "广州火车站冯姐家庭旅馆",
          "address": "广州越秀区站西路站西大院118号503房",
          "uid": "b563ce99c518d5297c29bdeb",
          "telephone": "13242894418",
          "location": {
            "lng": 113.26070503769,
            "lat": 23.156322994007
          }
        },
        {
          "name": "广州火车站陈姐家庭旅馆",
          "address": "广州越秀区站西路89号3楼梯501室（省客运站背后，骏马商贸对面）",
          "uid": "6302ca091702269c49fd3fcf",
          "telephone": "13430275331",
          "location": {
            "lng": 113.25928697261,
            "lat": 23.156948918975
          }
        },
        {
          "name": "好又来公寓(广州火车站站前横路店)",
          "address": "站前横路50号1楼(近中国电信)",
          "uid": "88a62c29ef6434567c29bdb7",
          "telephone": "15818196672",
          "location": {
            "lng": 113.25826847383,
            "lat": 23.149368673091
          }
        },
        {
          "name": "广州高铁南站-东广场",
          "address": "广州市番禺区",
          "uid": "d319b1f85aeb7987a01de90c",
          "location": {
            "lng": 113.27909559724,
            "lat": 22.997052880518
          }
        },
        {
          "name": "广州华康宾馆火车站(三元里地铁站店)",
          "address": "广州越秀区三元里大道399号（三元里地铁站C2出口）",
          "uid": "d5464cf81ee42456fda77835",
          "telephone": "(020)86361750",
          "location": {
            "lng": 113.26271840983,
            "lat": 23.166819202562
          }
        },
        {
          "name": "广州酒家(利口福广州火车站店)",
          "address": "地铁2号线广州火车站地铁站内GZHCZ-5-1S、2S铺",
          "uid": "be5558aab542f57ec92915cd",
          "telephone": "(020)86666217",
          "location": {
            "lng": 113.26326296263,
            "lat": 23.15393398524
          }
        },
        {
          "name": "阿帕漫服务式公寓（广州火车站西湾路店）",
          "address": "西湾路149号财富公馆B1北塔13楼",
          "uid": "35569f8866aca1d93686f453",
          "telephone": "(020)81619633",
          "location": {
            "lng": 113.25391968702,
            "lat": 23.163085817453
          }
        },
        {
          "name": "广州友间旅馆火车站三元里地铁站店",
          "address": "广州市白云区三元里大道555号",
          "uid": "aa953a487187b11494ec848b",
          "telephone": "(020)36331053",
          "location": {
            "lng": 113.25991740342,
            "lat": 23.170764618158
          }
        },
        {
          "name": "广州火车站邵阳住宿",
          "address": "站西路87号353房(近广州火车站-省市汽车客运站)",
          "uid": "14670e1176a6e2c709a8d420",
          "location": {
            "lng": 113.25939171504,
            "lat": 23.157209837853
          }
        },
        {
          "name": "广州火车站如家公寓",
          "address": "越秀区站西路87号",
          "uid": "3f70ca93fdf2dea4cae33c78",
          "telephone": "18144812751",
          "location": {
            "lng": 113.25958161682,
            "lat": 23.1571139766
          }
        },
        {
          "name": "星和国际酒店(广州火车站店)",
          "address": "广东省广州市越秀区环市西路183号",
          "uid": "d5cb32bb6886cb904c6d46fa",
          "telephone": "020-61991066",
          "location": {
            "lng": 113.26689867452,
            "lat": 23.153522701558
          }
        }
      ]
    }
  }
}