{
  "status": 0,
  "message": "ok",
  "type": 1,
  "info": {
    "copyright": {
      "text": "@2016 Baidu - Data",
      "imageUrl": "http://api.map.baidu.com/images/copyright_logo.png"
    }
  },
  "result": {
    "originInfo": {
      "area_id": 257,
      "wd": "江南新苑-西门",
      "uid": ""
    },
    "destinationInfo": {
      "area_id": 257,
      "wd": "广州市医保局",
      "uid": ""
    },
    "origin": {
      "cityName": "广州市",
      "listType": 0,
      "content": [
        {
          "name": "江南新苑-西门",
          "address": "东晓南路71号附近",
          "uid": "5191d1798e4ca900f32d83f5",
          "location": {
            "lng": 113.29191055415,
            "lat": 23.098296675541
          }
        },
        {
          "name": "猪杂汤粉饭(东晓南店)",
          "address": "东晓南路75号(江南新苑西门旁)",
          "uid": "6f0e945727a05c6d4657269f",
          "telephone": "13112220121",
          "location": {
            "lng": 113.29173197101,
            "lat": 23.097878986368
          }
        },
        {
          "name": "腾强汕头黄牛肉火锅(东晓南分店)",
          "address": "东晓南路79号(江南新苑西门，店门口就通往海印桥内环路高架桥入口，离晓港地铁D出口不远)",
          "uid": "d7f112b68355ef0d07026f35",
          "telephone": "(020)89222488,(020)89222498",
          "location": {
            "lng": 113.29185997955,
            "lat": 23.097559942758
          }
        }
      ]
    },
    "destination": {
      "cityName": "广州市",
      "listType": 0,
      "content": [
        {
          "name": "广州市医保局",
          "address": "梅东路28号",
          "uid": "435d7aea13bf44485bbbbc94",
          "location": {
            "lng": 113.31445811227,
            "lat": 23.135222733059
          }
        },
        {
          "name": "广州市医保局(海珠区分局)",
          "address": "海珠区昌岗中路74号二楼",
          "uid": "44313bc620d95db9db1318a5",
          "telephone": "020-34061985",
          "location": {
            "lng": 113.27225949231,
            "lat": 23.090356034907
          }
        },
        {
          "name": "广州市医保局天河分局",
          "address": "天河区龙口东路358号天诚广场二楼",
          "uid": "cf01f7d7da30ae3d2fe67bbd",
          "location": {
            "lng": 113.3473842431,
            "lat": 23.148877208972
          }
        },
        {
          "name": "广州市社会医疗保险局(白云区分局)",
          "address": "广东省广州市白云区新达路55号",
          "uid": "239631736d05cb063d9a5eab",
          "telephone": "020-86435067",
          "location": {
            "lng": 113.26636885393,
            "lat": 23.19949308189
          }
        },
        {
          "name": "广州市医保局荔湾分局",
          "address": "花地大道中89号芳村金融大厦2楼",
          "uid": "e85e05e2330fbfbf4151c09a",
          "location": {
            "lng": 113.24035096196,
            "lat": 23.080517795115
          }
        },
        {
          "name": "广州市医保局业务档案影像化处理工作室",
          "address": "梅东路28号附近",
          "uid": "8f400513646571dd4051c037",
          "location": {
            "lng": 113.31444903939,
            "lat": 23.135036960612
          }
        },
        {
          "name": "广州市医疗保险服务管理局黄埔分局",
          "address": "大沙地东309-311",
          "uid": "6729110949901096d0ff23be",
          "location": {
            "lng": 113.46281021296,
            "lat": 23.11235481487
          }
        },
        {
          "name": "广州市医疗保险服务管理局萝岗分局",
          "address": "萝岗区香雪二路2号保利香雪商务大厦三楼",
          "uid": "90da09ad7269bb77d618b70a",
          "location": {
            "lng": 113.48402288909,
            "lat": 23.183095401645
          }
        },
        {
          "name": "广州市医疗保险服务管理局荔湾分局",
          "address": "广州市荔湾区花地大道中89号芳村金融大厦2楼",
          "uid": "590058ad251abdd21fe9999e",
          "location": {
            "lng": 113.24021127545,
            "lat": 23.080686106275
          }
        },
        {
          "name": "广州市医疗保险服务管理局南沙分局",
          "address": "环市大道中17号3楼",
          "uid": "07f3c8b50c4d681d6240a939",
          "location": {
            "lng": 113.53934835764,
            "lat": 22.797973982804
          }
        },
        {
          "name": "广州市医疗保险服务管理局黄埔分局(大沙北路)",
          "address": "大沙北路110",
          "uid": "9cc78b0b2dd071dd8bfc06c1",
          "location": {
            "lng": 113.46354844042,
            "lat": 23.114798003185
          }
        },
        {
          "name": "以纯(广州市医疗保险服务管理局荔湾分局南)",
          "address": "荔湾区花地街(广州市医疗保险服务管理局荔湾分局南)",
          "uid": "52fd8dc43820d690a11de9b7",
          "location": {
            "lng": 113.24336450745,
            "lat": 23.104432050682
          }
        },
        {
          "name": "广州华苑园林股份有限公司",
          "address": "广州市越秀区中山一路34号(杨箕地铁站D出口,医保中心旁)",
          "uid": "8adaa149ca777926b5147f61",
          "location": {
            "lng": 113.31452332925,
            "lat": 23.134849609334
          }
        }
      ]
    }
  }
}