{
  "status": 0,
  "message": "ok",
  "type": 1,
  "info": {
    "copyright": {
      "text": "@2016 Baidu - Data",
      "imageUrl": "http://api.map.baidu.com/images/copyright_logo.png"
    }
  },
  "result": {
    "originInfo": {
      "area_id": 257,
      "wd": "广东省广州市白云区石潭西路1号",
      "uid": ""
    },
    "destinationInfo": {
      "area_id": 257,
      "wd": "白云公园",
      "uid": ""
    },
    "origin": {
      "cityName": "广州市",
      "listType": 0,
      "content": [
        {
          "name": "花千谷会所",
          "address": "石井石潭西路1号俊龙商贸二楼",
          "uid": "da3aab5e5f81026ae0110369",
          "telephone": "(020)86023213",
          "location": {
            "lng": 113.24227603067,
            "lat": 23.211592925012
          }
        },
        {
          "name": "广州新穗巴士有限公司",
          "address": "石井镇石潭西路一号",
          "uid": "e39fdfd48c2d58f315764396",
          "telephone": "86637820",
          "location": {
            "lng": 113.24379272969,
            "lat": 23.196673440227
          }
        },
        {
          "name": "谭村垃圾压缩站",
          "address": "广东省广州市白云区石潭西路1号附近",
          "uid": "89673be2afc3ee0ab34c4965",
          "location": {
            "lng": 113.24391238398,
            "lat": 23.196575116242
          }
        },
        {
          "name": "广州新穗巴士有限公司(东南门)",
          "address": "石井镇石潭西路1号",
          "uid": "b4e9721bd25727f62102206d",
          "location": {
            "lng": 113.24378177036,
            "lat": 23.196593302863
          }
        },
        {
          "name": "比比艾",
          "address": "广东省广州市白云区石潭西路1号",
          "uid": "551da8185aafef4bd518b7cd",
          "location": {
            "lng": 113.23403614372,
            "lat": 23.201216692555
          }
        },
        {
          "name": "广州顺达轮胎贸易部",
          "address": "广东省广州市白云区石潭西路1号",
          "uid": "ccf0b374b05e6da425d2bb26",
          "location": {
            "lng": 113.23331201965,
            "lat": 23.201424045821
          }
        },
        {
          "name": "赢歌会",
          "address": "白云区石井街道石潭西路1号",
          "uid": "f4a33da98216ac0a3010aff9",
          "telephone": "(020)86417888",
          "location": {
            "lng": 113.24221988657,
            "lat": 23.211439975375
          }
        },
        {
          "name": "雄霸正宗隆江猪脚店",
          "address": "广州白云区马岗东大街七巷一号(近石潭西路)",
          "uid": "8ef5abc0558f75a0e115f9a2",
          "telephone": "(020)61107576",
          "location": {
            "lng": 113.23442079814,
            "lat": 23.205642040534
          }
        },
        {
          "name": "国大时装城(东南门)",
          "address": "石潭西路自编1号国大时装城旁",
          "uid": "941a39598ba4114cad31e531",
          "location": {
            "lng": 113.23504206623,
            "lat": 23.202866873416
          }
        },
        {
          "name": "广大服装商贸城-东门",
          "address": "石潭西路自编1号国大时装城旁",
          "uid": "9b1d80dacbe75afe7adbd239",
          "location": {
            "lng": 113.23513090864,
            "lat": 23.202827512458
          }
        },
        {
          "name": "鲜味爽猪杂粉",
          "address": "石潭西路新庄四眼井街1号",
          "uid": "bed3e2420d66061c5d0d0247",
          "telephone": "(020)36383629",
          "location": {
            "lng": 113.24266472746,
            "lat": 23.212629689705
          }
        },
        {
          "name": "港式茶点",
          "address": "石潭西路新庄四眼井大街1号",
          "uid": "99b9733daf493c48f2193708",
          "telephone": "13694274570",
          "location": {
            "lng": 113.24276300208,
            "lat": 23.212575053422
          }
        }
      ]
    },
    "destination": {
      "cityName": "广州市",
      "listType": 0,
      "content": [
        {
          "name": "白云公园",
          "address": "广东省广州市白云区云城西路",
          "uid": "6bcccd46dc415dce45e27456",
          "location": {
            "lng": 113.2762718637,
            "lat": 23.187988260402
          }
        },
        {
          "name": "白云公园",
          "address": "",
          "uid": "026d4bb535f607d3cafa5f83",
          "location": {
            "lng": 113.27733500827,
            "lat": 23.187980370716
          }
        },
        {
          "name": "白云公园总站",
          "address": "",
          "uid": "c6c3b2feb7b288bef942b226",
          "location": {
            "lng": 113.27826295786,
            "lat": 23.187426015241
          }
        },
        {
          "name": "白云公园-南门",
          "address": "广东省广州市白云区",
          "uid": "9141b134eb909c8fc51b75d6",
          "location": {
            "lng": 113.27745592019,
            "lat": 23.188336402737
          }
        },
        {
          "name": "广州白云公园公寓",
          "address": "广州石马头东二巷4号（近福满多购物广场）",
          "uid": "fc9298c5191a34d3246e984d",
          "telephone": "13025163916",
          "location": {
            "lng": 113.26325802195,
            "lat": 23.229020052254
          }
        },
        {
          "name": "白云公园-北门",
          "address": "新市萧岗东约西街25巷18号",
          "uid": "6ee8cb920cb3e34d00ff2db6",
          "location": {
            "lng": 113.28010349602,
            "lat": 23.192805116882
          }
        },
        {
          "name": "地铁白云公园站",
          "address": "",
          "uid": "cd4e42996e4cf6484d2fdffc",
          "location": {
            "lng": 113.27692951316,
            "lat": 23.188154442008
          }
        },
        {
          "name": "白云公园健身中心",
          "address": "广东省广州市白云区云城西路890凯德广场5楼(白云公园地铁站5号停机坪广场南方航空大厦)",
          "uid": "0c7164841433f73ed7851ff8",
          "telephone": "13268062616",
          "location": {
            "lng": 113.27584885163,
            "lat": 23.188312401542
          }
        },
        {
          "name": "白云公园地铁站-D口",
          "uid": "490f76094d60d078b54f54ed",
          "location": {
            "lng": 113.27696894877,
            "lat": 23.188516453089
          }
        },
        {
          "name": "白云公园地铁站-C口",
          "uid": "a2560eab00e6a2db3913fd14",
          "location": {
            "lng": 113.27805571878,
            "lat": 23.188061177694
          }
        },
        {
          "name": "白云公园地铁站-B口",
          "uid": "0f6b2a148f81b649a80dd86d",
          "location": {
            "lng": 113.2777299932,
            "lat": 23.187374607476
          }
        },
        {
          "name": "白云公园地铁站-A口",
          "uid": "be0986af5e917d25d72ce298",
          "location": {
            "lng": 113.27660711131,
            "lat": 23.187861028767
          }
        },
        {
          "name": "白云公园站C口",
          "address": "广州市白云区",
          "uid": "4568f7aeecf1f39af5c59cf2",
          "location": {
            "lng": 113.27812497813,
            "lat": 23.187971982733
          }
        },
        {
          "name": "广州公共单车白云公园D驿站租赁点",
          "address": "广东省广州市白云区齐心路附近",
          "uid": "72bfaa5dfcb359486b49f3d9",
          "location": {
            "lng": 113.2767173334,
            "lat": 23.1885402051
          }
        },
        {
          "name": "白云公园d驿站自行车租赁点",
          "address": "广州市白云区",
          "uid": "5294401056d1866efbdc852b",
          "location": {
            "lng": 113.2767173334,
            "lat": 23.1885402051
          }
        },
        {
          "name": "周黑鸭(白云公园店)",
          "address": "地铁二号线白云公园站BG-2-2S号（A出口附近）",
          "uid": "568bcfe9f23169b05abbbcc4",
          "telephone": "4001717917",
          "location": {
            "lng": 113.28251400902,
            "lat": 23.195891912008
          }
        },
        {
          "name": "莲香楼月饼(白云公园站)",
          "address": "五号停机坪白云公园地铁站D出口",
          "uid": "702a98fc440cd87e88f15d21",
          "location": {
            "lng": 113.27719846583,
            "lat": 23.188536384847
          }
        },
        {
          "name": "Double cake 打包幸福（白云公园站店）",
          "address": "地铁2号线白云公园地铁站",
          "uid": "d469df8352f0af53cae33cd6",
          "telephone": "(020)29078859,(020)87656080",
          "location": {
            "lng": 113.27752374226,
            "lat": 23.188066991144
          }
        },
        {
          "name": "美仕堡健身俱乐部(宏康店)",
          "address": "绿地中心凯德广场5楼(地铁2号线白云公园站A出口)",
          "uid": "c514887b2fb749c351e5c5c5",
          "telephone": "15918824994,(020)82020588",
          "location": {
            "lng": 113.55485778192,
            "lat": 23.112257757824
          }
        },
        {
          "name": "晶石灵",
          "address": "云霄路353栋旧白云机场候机楼内(近地铁白云公园站A出口)",
          "uid": "50983087dcbef3ae4c776e36",
          "location": {
            "lng": 113.27200437354,
            "lat": 23.188213573044
          }
        },
        {
          "name": "铅笔俱乐部(5号停机坪店)",
          "address": "云霄路353栋5号停机坪购物广场1楼(近地铁白云公园站A出口)",
          "uid": "ec520619bf1fccff3786f42e",
          "location": {
            "lng": 113.27159645301,
            "lat": 23.188424600865
          }
        },
        {
          "name": "常春藤",
          "address": "云霄路353栋5号停机坪购物广场1楼(近地铁白云公园站A出口)",
          "uid": "96d7990881c934934354d7ee",
          "location": {
            "lng": 113.27173398359,
            "lat": 23.188048138956
          }
        },
        {
          "name": "百爵珠宝",
          "address": "白云区云霄路353栋5号停机坪购物广场1楼(近地铁白云公园站)",
          "uid": "1815d4812e53c8e5bb17e782",
          "telephone": "(020)36075486",
          "location": {
            "lng": 113.27162843269,
            "lat": 23.188456989993
          }
        },
        {
          "name": "More Beer",
          "address": "广州白云区机场路353号五号停机坪风车广场西05号(近白云公园)",
          "uid": "9f74a7d0b5a3194f7402694b",
          "location": {
            "lng": 113.27069060174,
            "lat": 23.187783875842
          }
        },
        {
          "name": "明廊眼镜(5号停机坪店)",
          "address": "云霄路353栋5号停机坪购物广场1楼1060铺(近地铁白云公园站)",
          "uid": "9f6a0e4893e069e483a00c45",
          "telephone": "(020)36076981",
          "location": {
            "lng": 113.27161396997,
            "lat": 23.188384986459
          }
        },
        {
          "name": "绿堡西餐厅",
          "address": "云霄路353栋5号停机坪购物广场3楼(近地铁白云公园A入口橙天嘉禾影城、梦游仙境)",
          "uid": "575559424f85d70e9d95deef",
          "telephone": "13711100038",
          "location": {
            "lng": 113.27162241404,
            "lat": 23.188509892218
          }
        },
        {
          "name": "LAXDN(5号停机坪店)",
          "address": "云霄路353栋5号停机坪购物广场1楼(近地铁白云公园)",
          "uid": "eef2d528a7ee5cbe3ae4a6e1",
          "telephone": "(020)36075419",
          "location": {
            "lng": 113.27162843269,
            "lat": 23.188456989993
          }
        },
        {
          "name": "Pigeon(5号停机坪店)",
          "address": "云霄路353栋5号停机坪购物广场2楼(近地铁白云公园站A出口)",
          "uid": "67a6ed201cf16a4a40ab9a12",
          "location": {
            "lng": 113.27066940173,
            "lat": 23.185303331346
          }
        },
        {
          "name": "南魁麻辣香锅(5号停机坪店)",
          "address": "广州白云区云霄路353号5号停机坪购物广场1楼露天特色美食广场内(近地铁白云公园站A出口)",
          "uid": "14076dee5d2e63ed03294f91",
          "telephone": "(020)66608111",
          "location": {
            "lng": 113.27213256174,
            "lat": 23.187170055868
          }
        },
        {
          "name": "胜道运动城(5号停机坪店)",
          "address": "云霄路353栋5号停机坪3楼（近地铁白云公园站）",
          "uid": "4eb3b5335d5d716c420245e0",
          "telephone": "(020)36079769",
          "location": {
            "lng": 113.27162843269,
            "lat": 23.188456989993
          }
        },
        {
          "name": "仙芋世家(5号停机坪店)",
          "address": "云霄路353栋5号停机坪购物广场(近地铁白云公园站A出口)",
          "uid": "55f297dd2fbf112a130daa32",
          "telephone": "18928819090",
          "location": {
            "lng": 113.27167783949,
            "lat": 23.186766100809
          }
        },
        {
          "name": "四云奶盖贡茶(绿地中心店)",
          "address": "云城西路880号绿地中心缤纷天地一层001铺(地铁白云公园A出口)",
          "uid": "6c81ebac391766af3517dc80",
          "telephone": "(020)85582911",
          "location": {
            "lng": 113.27453202559,
            "lat": 23.186493031805
          }
        },
        {
          "name": "冰天雪地快乐嘉年",
          "address": "5号停机坪购物广场（地铁2号线白云公园站A出口乘坐免费接送车或直行200米）",
          "uid": "2658bbb0d44411235cbe86d5",
          "telephone": "(020)23363500",
          "location": {
            "lng": 113.27030145579,
            "lat": 23.187378676912
          }
        },
        {
          "name": "驰记面家(凯德广场店)",
          "address": "白云区云城西路890号（地铁2号线白云公园站A出口）凯德广场负二层B2楼B2-53(漾漾好贡茶旁)",
          "uid": "cc7cae8feb9aee097069d3a9",
          "telephone": "18620230796,13570585333",
          "location": {
            "lng": 113.27585397198,
            "lat": 23.188360985272
          }
        },
        {
          "name": "湘亲门(绿地店)",
          "address": "云城西路880号绿地中心缤纷天地3楼（白云公园地铁A出口）",
          "uid": "130d3b7f0c8d3cfff50e77f4",
          "telephone": "18028688081,(020)36014601",
          "location": {
            "lng": 113.27542754635,
            "lat": 23.186045140944
          }
        },
        {
          "name": "绿伴咖啡",
          "address": "白云绿地中心缤纷天地首层119铺(白云公园A出口)",
          "uid": "8f31e00ae1a3959151e5c531",
          "telephone": "(020)88826600",
          "location": {
            "lng": 113.2750116309,
            "lat": 23.186479079359
          }
        },
        {
          "name": "义道高级日式料理",
          "address": "云城西路888号白云绿地中心缤纷天地2楼(近白云公园地铁站A出口，广州市儿童乐园对面)",
          "uid": "efcaa1f9569b814b0869d9cf",
          "telephone": "(020)36777783",
          "location": {
            "lng": 113.2769755064,
            "lat": 23.187722336179
          }
        },
        {
          "name": "西堤厚牛排(白云凯德店)",
          "address": "云城西路890号凯德广场3层09/10号(儿童公园对面，地铁站白云公园A出口)",
          "uid": "26a6ed9c464ed108ed74f88c",
          "telephone": "(020)38559241,(020)38559240",
          "location": {
            "lng": 113.27580510416,
            "lat": 23.186540785702
          }
        },
        {
          "name": "重庆秦妈火锅(缤纷天地店)",
          "address": "云城西路880号绿地中心缤纷天地三楼(白云公园地铁站A出口)",
          "uid": "270c2df317f7bb5ac9291540",
          "telephone": "(020)36772835",
          "location": {
            "lng": 113.27633995526,
            "lat": 23.188112003847
          }
        },
        {
          "name": "宴荟",
          "address": "广州云城西路890号凯德广场·云尚购物中心6楼地铁站2线白云公园A出口自驾停车场D区直达电梯8号9号",
          "uid": "b25b4512306cdc59c51b754c",
          "telephone": "(020)81888768",
          "location": {
            "lng": 113.2758402279,
            "lat": 23.187019154215
          }
        },
        {
          "name": "Love Cafe",
          "address": "云霄路353栋5号停机坪购物广场1楼(近地铁白云公园站A出口)",
          "uid": "c2f98e0d2a11412b038972c3",
          "telephone": "(020)36075396",
          "location": {
            "lng": 113.27076596957,
            "lat": 23.185336053442
          }
        },
        {
          "name": "STOVENVO",
          "address": "云霄路353栋5号停机坪购物广场1楼(近地铁白云公园站A出口)",
          "uid": "258b680094ee669ca8059d98",
          "location": {
            "lng": 113.27066940173,
            "lat": 23.185303331346
          }
        },
        {
          "name": "THE SHOES BAR(5号停机坪店)",
          "address": "云霄路353栋5号停机坪购物广场1楼(近地铁白云公园站A出口)",
          "uid": "3bfa1872a3d1cfd6d0ff230c",
          "location": {
            "lng": 113.27161423946,
            "lat": 23.188424517815
          }
        },
        {
          "name": "韩妍国际半永久容貌管理机构(HY Beauty)",
          "address": "云城西路888号绿地中心901(地铁2号线白云公园站)",
          "uid": "8f9b95029c371c9208ccddfa",
          "telephone": "18665588281",
          "location": {
            "lng": 113.27589816861,
            "lat": 23.187032691355
          }
        },
        {
          "name": "蠔天蠔地",
          "address": "白云公园地铁站D出口前行100米",
          "uid": "3b94cfcbde70faed8505bf6a",
          "telephone": "13544337585",
          "location": {
            "lng": 113.27501288853,
            "lat": 23.189344365965
          }
        },
        {
          "name": "鸡翅包饭（凯德广场店）",
          "address": "云城西路凯德广场负二楼B2-59号铺(白云公园地铁站A出口)",
          "uid": "662118295d305f38b23c81d4",
          "telephone": "18102615960",
          "location": {
            "lng": 113.27628650608,
            "lat": 23.187190320029
          }
        },
        {
          "name": "麦斯尔西饼",
          "address": "白云公园地铁D出口前进50米(凯德广场斜对面)",
          "uid": "f871d66f4b4bb78a76e5b676",
          "telephone": "13829782881,18688390465",
          "location": {
            "lng": 113.27506382245,
            "lat": 23.1894018355
          }
        },
        {
          "name": "回力",
          "address": "云霄路353栋旧白云机场候机楼内(近地铁白云公园站A出口)",
          "uid": "979207ce9ac319342efaa7a4",
          "location": {
            "lng": 113.27064200341,
            "lat": 23.18621099279
          }
        },
        {
          "name": "一把海椒麻辣香锅(凯德广场店)",
          "address": "齐心路凯德广场负一楼B1-15铺（地铁白云公园站）",
          "uid": "c852ee9791111a718f1a89eb",
          "telephone": "18028807020",
          "location": {
            "lng": 113.27585702621,
            "lat": 23.188328014777
          }
        },
        {
          "name": "俏凤凰(凯德广场店)",
          "address": "白云绿地中心凯德广场b1-02(地铁白云公园站)",
          "uid": "5d921454b24319978e77276c",
          "telephone": "18202033956",
          "location": {
            "lng": 113.27651907737,
            "lat": 23.187255348031
          }
        }
      ]
    }
  }
}