{
  "status": 0,
  "message": "ok",
  "type": 1,
  "info": {
    "copyright": {
      "text": "@2016 Baidu - Data",
      "imageUrl": "http://api.map.baidu.com/images/copyright_logo.png"
    }
  },
  "result": {
    "originInfo": {
      "area_id": 257,
      "wd": "广东港澳中心",
      "uid": ""
    },
    "destinationInfo": {
      "area_id": 257,
      "wd": "广州市奥龙堡体育发展有限公司",
      "uid": ""
    },
    "origin": {
      "cityName": "广州市",
      "listType": 0,
      "content": [
        {
          "name": "广东港澳中心",
          "address": "广州市越秀区东风东路699号;广州市越秀区东风东路699-13",
          "uid": "435d7aea6e1127355abbbc3f",
          "telephone": "020-62823000",
          "location": {
            "lng": 113.30067945321,
            "lat": 23.13758457939
          }
        },
        {
          "name": "和氏壁纸(广东港澳中心店)",
          "address": "东风东路701号广东港澳中心9楼",
          "uid": "afb21b26071cd26ecb213d50",
          "telephone": "(020)62823166",
          "location": {
            "lng": 113.30060929555,
            "lat": 23.137466438224
          }
        },
        {
          "name": "广东港澳中心-南门",
          "address": "广东省广州市越秀区",
          "uid": "ba6ef33aa240d2cdfda7787d",
          "location": {
            "lng": 113.30036369882,
            "lat": 23.137433371972
          }
        },
        {
          "name": "广东港澳中心-停车场",
          "address": "广州市越秀区东风东路699号;广州市越秀区东风东路699-13",
          "uid": "a3f21eee03e128472fb17e3a",
          "location": {
            "lng": 113.30034564288,
            "lat": 23.137298531365
          }
        },
        {
          "name": "广东港澳中心-停车场",
          "address": "越秀区东风东路699号",
          "uid": "d33f078e3eb5903232f71dfc",
          "telephone": "62823173",
          "location": {
            "lng": 113.30059528198,
            "lat": 23.137900618953
          }
        },
        {
          "name": "广东港澳中心停车场-出口",
          "address": "越秀区",
          "uid": "b01793b327420274be484201",
          "location": {
            "lng": 113.30136818404,
            "lat": 23.137461121038
          }
        },
        {
          "name": "广东港澳中心地下停车场-出口",
          "address": "广州市越秀区",
          "uid": "d8b97763cae6fc2a9a005029",
          "location": {
            "lng": 113.30124287043,
            "lat": 23.137809645497
          }
        },
        {
          "name": "广东港澳中心地下停车场-入口",
          "address": "广州市越秀区",
          "uid": "ac69f0ab601238bba4c756c5",
          "location": {
            "lng": 113.30042586157,
            "lat": 23.137676633052
          }
        },
        {
          "name": "广东岭南教育研究院",
          "address": "东风东路699号广东港澳中心406室",
          "uid": "0aa624f31ce66d8eeb56fa4f",
          "location": {
            "lng": 113.300659421,
            "lat": 23.137631769362
          }
        },
        {
          "name": "花美家鲜花(港澳中心大厦店)",
          "address": "东风东路699号广东港澳中心大厦首层08",
          "uid": "5c7c2824fbe1f0e47f29bd6c",
          "location": {
            "lng": 113.3005150633,
            "lat": 23.137389588253
          }
        },
        {
          "name": "新思维教育集团",
          "address": "越秀广州市东风东路699号广东港澳中心1层",
          "uid": "288f37ec3042224b42afe650",
          "telephone": "(020)62626868",
          "location": {
            "lng": 113.30093008045,
            "lat": 23.137361589928
          }
        },
        {
          "name": "广州港澳百货商场",
          "address": "越秀广州市东风东路699号广东港澳中心1层",
          "uid": "31aed990c493428f32f71d3d",
          "location": {
            "lng": 113.30058926334,
            "lat": 23.137336665599
          }
        },
        {
          "name": "广州市业鑫企业登记代理服务有限公司",
          "address": "越秀广州市东风东路699号广东港澳中心11层",
          "uid": "f60f7f71fa0e481b631c678d",
          "location": {
            "lng": 113.30067999219,
            "lat": 23.137584994795
          }
        },
        {
          "name": "艺海堂美术堂",
          "address": "越秀广州市东风东路699号广东港澳中心7层",
          "uid": "8e2f5e341f06fb6603ff2d41",
          "location": {
            "lng": 113.30067999219,
            "lat": 23.137584994795
          }
        },
        {
          "name": "广州首视医疗器械有限公司",
          "address": "越秀广州市东风东路699号广东港澳中心6层",
          "uid": "2231ac388b54543ac8213dac",
          "location": {
            "lng": 113.30067999219,
            "lat": 23.137584994795
          }
        },
        {
          "name": "利骏跆拳道",
          "address": "东风东路669号广东港澳中心401室",
          "uid": "6697367dd8d5e6b1354aae95",
          "telephone": "13380005726",
          "location": {
            "lng": 113.30067900406,
            "lat": 23.137585908685
          }
        },
        {
          "name": "正金毛化州橘红",
          "address": "广州市东风东路699号广东港澳中心1层",
          "uid": "b7a52ff122476149704b875e",
          "telephone": "020-37610026",
          "location": {
            "lng": 113.30053994636,
            "lat": 23.137372972037
          }
        },
        {
          "name": "数风",
          "address": "越秀广州市东风东路699号广东港澳中心7层",
          "uid": "b871464bf16af6049cf77933",
          "location": {
            "lng": 113.30067999219,
            "lat": 23.137584994795
          }
        },
        {
          "name": "三久威纳",
          "address": "越秀广州市东风东路699号广东港澳中心6层",
          "uid": "9c80fb8cbbfa4c1759bbbc6d",
          "location": {
            "lng": 113.30067999219,
            "lat": 23.137584994795
          }
        },
        {
          "name": "星铂公司",
          "address": "东风东路699号广东港澳中心402室",
          "uid": "9938277c9f5946ea6140a9dd",
          "location": {
            "lng": 113.300659421,
            "lat": 23.137631769362
          }
        },
        {
          "name": "广州酒类越秀公司盈翠经营部",
          "address": "越秀广州市东风东路699号广东港澳中心1层",
          "uid": "363dfe15eb5ff2e12dfaa71c",
          "location": {
            "lng": 113.30068044135,
            "lat": 23.13758457939
          }
        },
        {
          "name": "广州宏昌国际货运代理有限公司",
          "address": "越秀广州市东风东路699号广东港澳中心7层",
          "uid": "518bba73f87acbb7ae045774",
          "location": {
            "lng": 113.30067999219,
            "lat": 23.137584994795
          }
        },
        {
          "name": "浪漫花店(东风店)",
          "address": "东风东路699号广东港澳中心大厦1楼108号",
          "uid": "684a1cf19955923483a00c01",
          "telephone": "4000377113",
          "location": {
            "lng": 113.30063337014,
            "lat": 23.137471090761
          }
        },
        {
          "name": "观天下",
          "address": "越秀广州市东风东路699号广东港澳中心6层",
          "uid": "135cfc1c626747b4c9c3dbbe",
          "telephone": "(020)87675188",
          "location": {
            "lng": 113.30067999219,
            "lat": 23.137584994795
          }
        },
        {
          "name": "广州利俊跆拳道(总部)",
          "address": "东风东路699号广东港澳中心401",
          "uid": "c6ec73fa3daa9d146fa3cc60",
          "telephone": "(020)87614875",
          "location": {
            "lng": 113.30066750575,
            "lat": 23.137871789928
          }
        },
        {
          "name": "广州市欧瑞福生物科技有限公司",
          "address": "东风东路699号广东港澳中心702(出入境管理局对面)",
          "uid": "fb10790abb5186f801294f5b",
          "location": {
            "lng": 113.33731935868,
            "lat": 23.139800994487
          }
        },
        {
          "name": "广州市欧瑞福生物科技有限公司",
          "address": "东风东路699号广东港澳中心702室",
          "uid": "957e3d3399bee3ebdf1e5201",
          "location": {
            "lng": 113.300659421,
            "lat": 23.137631769362
          }
        },
        {
          "name": "乐高学苑",
          "address": "越秀广州市东风东路699号广东港澳中心6层",
          "uid": "156a81eb387fa6769cec2b0d",
          "location": {
            "lng": 113.30067999219,
            "lat": 23.137584994795
          }
        },
        {
          "name": "广州垦荒人公司",
          "address": "越秀广州市东风东路699号广东港澳中心6层",
          "uid": "d69fc39649682a1f8605bfe0",
          "location": {
            "lng": 113.30068044135,
            "lat": 23.13758457939
          }
        },
        {
          "name": "不庸居室内设计公司",
          "address": "东风东路699号广东港澳中心3505室",
          "uid": "a6693b7c24fd109616c9054c",
          "location": {
            "lng": 113.30055315146,
            "lat": 23.137495018094
          }
        },
        {
          "name": "广州市美达柯式印刷有限公司",
          "address": "东风东路699号广东港澳中心2501室",
          "uid": "7c5f10c7e130f099ad080f27",
          "location": {
            "lng": 113.300659421,
            "lat": 23.137631769362
          }
        },
        {
          "name": "上海金车食品销售有限公司广州分公司",
          "address": "越秀广州市东风东路699号广东港澳中心5层",
          "uid": "4cbd0d2e014ee9850b69d9b4",
          "telephone": "020-62626048",
          "location": {
            "lng": 113.30067999219,
            "lat": 23.137584994795
          }
        },
        {
          "name": "广州市昶飞广告有限公司",
          "address": "东风东路699号之13广东港澳中心2701室",
          "uid": "c1af8623cb6f981f3d9a5eb6",
          "location": {
            "lng": 113.30077871597,
            "lat": 23.137537389401
          }
        },
        {
          "name": "博业咨询",
          "address": "越秀广州市东风东路699号广东港澳中心6层",
          "uid": "54e7ac6202f7114745e27432",
          "location": {
            "lng": 113.30067999219,
            "lat": 23.137584994795
          }
        },
        {
          "name": "广州力夫贸易有限公司",
          "address": "东风东路699号之13广东港澳中心1003室",
          "uid": "16dd5ccd93c799200e3dda9c",
          "location": {
            "lng": 113.300659421,
            "lat": 23.137631769362
          }
        },
        {
          "name": "广州收客易网络科技有限公司",
          "address": "越秀广州市东风东路699号广东港澳中心5层",
          "uid": "8e157b8db67bfe81a8175a74",
          "location": {
            "lng": 113.30067999219,
            "lat": 23.137584994795
          }
        },
        {
          "name": "藏宝阁",
          "address": "越秀广州市东风东路699号广东港澳中心1层",
          "uid": "b37fe66826be5f5c2fe67b94",
          "location": {
            "lng": 113.30068044135,
            "lat": 23.13758457939
          }
        },
        {
          "name": "精品铁艺家居",
          "address": "越秀广州市东风东路699号广东港澳中心1层",
          "uid": "e0a0e6912a3c3a0e4d5547fc",
          "location": {
            "lng": 113.30068053118,
            "lat": 23.13758457939
          }
        },
        {
          "name": "星玮电讯有限公司",
          "address": "越秀广州市东风东路699号广东港澳中心5层",
          "uid": "c8e58e85ebeb3dfd8c77277e",
          "location": {
            "lng": 113.30067999219,
            "lat": 23.137584994795
          }
        },
        {
          "name": "小龙包水果汇",
          "address": "东风东路699号广东港澳中心",
          "uid": "3679dcf8c53df8d9c27da2d2",
          "telephone": "18676311649",
          "location": {
            "lng": 113.30066696676,
            "lat": 23.13787303614
          }
        },
        {
          "name": "艺海堂美术馆",
          "address": "越秀区东风东路699号广东港澳中心7楼701(近执信中学)",
          "uid": "6fd3ea1d5ae71b7e157643cc",
          "telephone": "(020)62625156",
          "location": {
            "lng": 113.30066696676,
            "lat": 23.13787303614
          }
        },
        {
          "name": "中国对外友好合作服务中心(广东省华南部)",
          "address": "广东省广州市越秀区东风东路699号广东港澳中心505室中外服",
          "uid": "5b644fbb31ae384c2b11d1ef",
          "telephone": "(020)87675371",
          "location": {
            "lng": 113.30046790226,
            "lat": 23.137523099471
          }
        }
      ]
    },
    "destination": {
      "cityName": "广州市",
      "listType": 0,
      "content": [
        {
          "name": "广州市奥龙堡体育发展有限公司",
          "address": "广东省广州市越秀区越秀中路147号",
          "uid": "f090bdbe6cb684d1d72ce2f3",
          "location": {
            "lng": 113.28473785414,
            "lat": 23.131609595039
          }
        },
        {
          "name": "广州奥龙堡体育发展有限公司",
          "address": "广州市林和东路9号耀中广场A座1703-04",
          "uid": "dd6c5a71a191cc102b3a9fcf",
          "telephone": "020-81341314",
          "location": {
            "lng": 113.33021412142,
            "lat": 23.148526553691
          }
        },
        {
          "name": "奥龙堡体育发展有限公司",
          "address": "麓景西路下塘新村49号(登峰小学分校区负一层)",
          "uid": "69b46f71cc58202ba6c7565e",
          "telephone": "15815846482,(020)83581242",
          "location": {
            "lng": 113.28248750901,
            "lat": 23.150400691963
          }
        }
      ]
    }
  }
}